Counter,UTC_time_stamps,elapsed_time_minutes,Date,UTME,UTMN,UTM_zone,UTM_letter,Time,Latitude,Longitude,Mag_TMI_nT,Mag_Lock,CompassX,CompassY,CompassZ,GyroscopeX,GyroscopeY,GyroscopeZ,AccelerometerX,AccelerometerY,AccelerometerZ,ImuTemperature,Track,LocationSource,Hdop,FixQuality,SatellitesUsed,Altitude,HeightOverEllipsoid,SpeedOverGround,MagneticVariation,VariationDirection,ModeIndicator,GgaSentence,RmcSentence,EventCode,EventInfo,EventDataLength,EventData,uk1,uk2,uk3,uk4,uk5,uk6,uk7,uk8,uk9,uk10,uk11,uk12,uk13,uk14,uk15,uk16,uk17,uk18,uk19,uk20,uk21,uk22,uk23,uk24,uk25,uk26,uk27,uk28,uk29,uk30,Local Flightline,r,g,b,a,size,range_noise,noise_bad,Flightline
4350497,21:48:25.500000,9.501666666666669,2024-06-05,599949.192845373,5331703.088550555,17,N,21:48:25.500,48.13073031,-79.65670723,54692.20805,1,-5536,-33824,27817,4.065,5.036,-32.329,0.0597,-0.75943,0.69103,40.689,178.5,I,,,,,,,,,,,,,,,,,,,,,,,,,,,,,,,,,,,,,,,,,,,,,,1,0.1433333333333333,0.4366666666666666,0.62,1.0,10.0,0,0,F15203
4347997,21:48:23,9.46,2024-06-05,599947.0302749185,5331717.947660279,17,N,21:48:23.000,48.1308643,-79.6567328,54708.8189,1,-6707,-25813,30805,4.65,12.484,5.737,0.02205,-0.57553,0.71882,40.74,171.4,G,0.51,2.0,12.0,390.2,-38.5,12.216,0.0, ,D,'$GNGGA,214823.0,4807.8516,N,7939.40392,W,2.0,12.0,0.51,390.2,M,-38.5,M,,0131*7B','$GNRMC,214823.0,A,4807.8516,N,7939.40392,W,12.216,171.35,50624.0,,,D,V*28',,,,,,,,1,0.1701045751633987,0.4554901960784313,0.6153986928104574,1.0,10.0,0,0,F15203
4345497,21:48:20.500000,9.418333333333331,2024-06-05,599947.8748816757,5331733.001589988,17,N,21:48:20.500,48.13099957,-79.65671792,54716.70475,1,-8710,-32152,27973,-17.77,-18.179,25.054,0.03543,-0.6237,0.64607,40.743,189.4,I,,,,,,,,,,,,,,,,,,,,,,,,,,,,,,,,,,,,,,,,,,,,,,1,0.1834901960784313,0.4649019607843137,0.6130980392156862,1.0,10.0,0,0,F15203
4342997,21:48:18,9.376666666666669,2024-06-05,599949.1676953924,5331750.646034948,17,N,21:48:18.000,48.13115807,-79.65669641,54720.65915,1,-4281,-34796,27327,3.861,-7.63,0.51,-0.09459,-0.75003,0.49755,40.747,188.6,G,0.51,2.0,12.0,395.0,-38.5,13.882,0.0, ,D,'$GNGGA,214818.0,4807.86923,N,7939.40185,W,2.0,12.0,0.51,395.0,M,-38.5,M,,0131*7C','$GNRMC,214818.0,A,4807.86923,N,7939.40185,W,13.882,188.56,50624.0,,,D,V*2D',,,,,,,,1,0.1901830065359477,0.4696078431372549,0.6119477124183006,1.0,10.0,0,0,F15203
4340497,21:48:15.500000,9.335,2024-06-05,599949.070268576,5331769.821598222,17,N,21:48:15.500,48.13133056,-79.65669322,54736.1625,1,-5897,-28606,30122,13.158,4.847,5.978,0.13284,-0.56544,0.82501,40.791,181.5,I,,,,,,,,,,,,,,,,,,,,,,,,,,,,,,,,,,,,,,,,,,,,,,1,0.2102614379084967,0.4837254901960783,0.6084967320261437,1.0,10.0,0,0,F15203
4337997,21:48:13,9.293333333333331,2024-06-05,599949.247386714,5331787.339830266,17,N,21:48:13.000,48.1314881,-79.65668673,54749.98995,1,-7725,-28275,29945,-5.282,6.221,6.536,0.29261,-0.61886,0.73174,40.791,180.0,G,0.51,2.0,12.0,399.1,-38.5,12.06,0.0, ,D,'$GNGGA,214813.0,4807.88903,N,7939.40121,W,2.0,12.0,0.51,399.1,M,-38.5,M,,0131*78','$GNRMC,214813.0,A,4807.88903,N,7939.40121,W,12.06,180.04,50624.0,,,D,V*2E',,,,,,,,1,0.2370326797385621,0.5025490196078432,0.6038954248366013,1.0,10.0,0,0,F15203
4335497,21:48:10.500000,9.251666666666669,2024-06-05,599948.7250109683,5331802.677857467,17,N,21:48:10.500,48.13162614,-79.65669015,54755.60775,1,-5468,-33093,28142,11.301,-3.254,6.576,0.25327,-0.83148,0.75598,40.817,182.2,I,,,,,,,,,,,,,,,,,,,,,,,,,,,,,,,,,,,,,,,,,,,,,,1,0.2437254901960784,0.5072549019607843,0.6027450980392157,1.0,10.0,0,0,F15203
4332997,21:48:08,9.21,2024-06-05,599947.6980478892,5331819.165558969,17,N,21:48:08.000,48.1317746,-79.65670008,54769.7745,1,-7528,-30365,29209,-34.752,-1.074,1.823,0.38022,-0.6316,0.60545,40.827,176.4,G,0.51,2.0,12.0,403.0,-38.5,12.744,0.0, ,D,'$GNGGA,214808.0,4807.90622,N,7939.40199,W,2.0,12.0,0.51,403.0,M,-38.5,M,,0131*71','$GNRMC,214808.0,A,4807.90622,N,7939.40199,W,12.744,176.37,50624.0,,,D,V*2A',,,,,,,,1,0.2638039215686274,0.5213725490196077,0.5992941176470589,1.0,10.0,0,0,F15203
4330497,21:48:05.500000,9.168333333333331,2024-06-05,599947.5334605307,5331832.128380407,17,N,21:48:05.500,48.13189122,-79.65669925,54780.1689,1,-8082,-29623,29430,-5.198,8.927,15.501,0.11441,-0.45581,0.88315,40.824,182.8,I,,,,,,,,,,,,,,,,,,,,,,,,,,,,,,,,,,,,,,,,,,,,,,1,0.2838823529411764,0.5354901960784313,0.5958431372549019,1.0,10.0,0,0,F15203
4327997,21:48:03,9.126666666666669,2024-06-05,599947.1699625099,5331842.417208894,17,N,21:48:03.000,48.13198382,-79.65670172,54790.65835,1,-9254,-27339,29956,-6.708,-17.121,24.15,0.27917,-0.38179,0.79418,40.861,186.8,G,0.51,2.0,12.0,405.4,-38.5,7.218,0.0, ,D,'$GNGGA,214803.0,4807.91877,N,7939.40216,W,2.0,12.0,0.51,405.4,M,-38.5,M,,0131*73','$GNRMC,214803.0,A,4807.91877,N,7939.40216,W,7.218,186.82,50624.0,,,D,V*13',,,,,,,,1,0.2972679738562092,0.5449019607843137,0.5935424836601306,1.0,10.0,0,0,F15203
4325497,21:48:00.500000,9.085,2024-06-05,599948.1934101102,5331855.155071195,17,N,21:48:00.500,48.13209823,-79.65668498,54798.93015,1,-10629,-27157,29732,-0.232,-1.582,-6.245,0.38029,-0.5572,0.66766,40.864,179.2,I,,,,,,,,,,,,,,,,,,,,,,,,,,,,,,,,,,,,,,,,,,,,,,1,0.3106535947712418,0.5543137254901961,0.5912418300653595,1.0,10.0,0,0,F15203
4322997,21:47:58,9.043333333333331,2024-06-05,599948.2151559626,5331870.787220002,17,N,21:47:58.000,48.13223883,-79.65668102,54802.4248,1,-8795,-31348,28448,-12.381,4.543,-11.127,0.23432,-0.73777,0.62765,40.888,181.8,G,0.51,2.0,12.0,407.2,-38.5,13.91,0.0, ,D,'$GNGGA,214758.0,4807.93407,N,7939.40088,W,2.0,12.0,0.51,407.2,M,-38.5,M,,0131*7A','$GNRMC,214758.0,A,4807.93407,N,7939.40088,W,13.91,181.82,50624.0,,,D,V*2F',,,,,,,,1,0.3173464052287582,0.5590196078431372,0.5900915032679738,1.0,10.0,0,0,F15203
4320497,21:47:55.500000,9.001666666666667,2024-06-05,599948.9958481855,5331888.646196784,17,N,21:47:55.500,48.13239934,-79.65666634,54808.2504,1,-6914,-29400,29767,3.506,-1.269,-6.874,0.18968,-0.54793,0.73549,40.857,187.9,I,,,,,,,,,,,,,,,,,,,,,,,,,,,,,,,,,,,,,,,,,,,,,,1,0.3240392156862745,0.5637254901960784,0.5889411764705882,1.0,10.0,0,0,F15203
4317997,21:47:53,8.96,2024-06-05,599950.0266015884,5331904.459400067,17,N,21:47:53.000,48.13254141,-79.65664878,54812.6889,1,-4629,-27985,30613,11.747,-4.883,15.679,0.30946,-0.42819,0.91326,40.916,178.2,G,0.51,2.0,12.0,407.0,-38.5,9.453,0.0, ,D,'$GNGGA,214753.0,4807.95223,N,7939.39892,W,2.0,12.0,0.51,407.0,M,-38.5,M,,0131*78','$GNRMC,214753.0,A,4807.95223,N,7939.39892,W,9.453,178.16,50624.0,,,D,V*15',,,,,,,,1,0.3307320261437909,0.5684313725490195,0.5877908496732026,1.0,10.0,0,0,F15203
4315497,21:47:50.500000,8.918333333333333,2024-06-05,599949.9891966513,5331917.724627747,17,N,21:47:50.500,48.13266073,-79.65664617,54816.15215,1,-3073,-28810,30509,-6.072,-10.769,3.481,0.11866,-0.74614,0.80639,40.959,178.2,I,,,,,,,,,,,,,,,,,,,,,,,,,,,,,,,,,,,,,,,,,,,,,,1,0.3374248366013072,0.5731372549019608,0.586640522875817,1.0,10.0,0,0,F15203
4312997,21:47:48,8.876666666666667,2024-06-05,599949.0659896109,5331931.93608533,17,N,21:47:48.000,48.1327887,-79.65665524,54824.34705,1,-4986,-32450,28558,1.219,-1.789,11.088,0.13763,-0.79813,0.58318,40.951,183.7,G,0.51,2.0,12.0,405.7,-38.5,13.882,0.0, ,D,'$GNGGA,214748.0,4807.96706,N,7939.39935,W,2.0,12.0,0.51,405.7,M,-38.5,M,,0131*7A','$GNRMC,214748.0,A,4807.96706,N,7939.39935,W,13.882,183.7,50624.0,,,D,V*2D',,,,,,,,1,0.3508104575163399,0.5825490196078431,0.5843398692810458,1.0,10.0,0,0,F15203
4310497,21:47:45.500000,8.835,2024-06-05,599949.582103642,5331948.366240615,17,N,21:47:45.500,48.1329364,-79.65664445,54835.90435,1,-5888,-29072,30059,-14.485,0.523,0.837,0.33265,-0.52336,0.70535,40.965,180.2,I,,,,,,,,,,,,,,,,,,,,,,,,,,,,,,,,,,,,,,,,,,,,,,1,0.3708888888888889,0.5966666666666666,0.5808888888888889,1.0,10.0,0,0,F15203
4307997,21:47:43,8.793333333333333,2024-06-05,599948.8584105433,5331962.830223998,17,N,21:47:43.000,48.13306661,-79.65665078,54846.32325,1,-5388,-29437,29964,9.245,-4.422,18.953,0.182,-0.73935,0.75837,40.955,176.4,G,0.51,2.0,12.0,405.1,-38.5,10.985,0.0, ,D,'$GNGGA,214743.0,4807.98374,N,7939.39903,W,2.0,12.0,0.51,405.1,M,-38.5,M,,0131*7D','$GNRMC,214743.0,A,4807.98374,N,7939.39903,W,10.985,176.41,50624.0,,,D,V*21',,,,,,,,1,0.3842745098039215,0.606078431372549,0.5785882352941177,1.0,10.0,0,0,F15203
4305497,21:47:40.500000,8.751666666666667,2024-06-05,599948.3039601182,5331975.359312687,17,N,21:47:40.500,48.13317939,-79.65665529,54861.8851,1,-8277,-29334,29610,11.787,2.806,-16.576,0.16764,-0.61866,0.81827,41.043,178.7,I,,,,,,,,,,,,,,,,,,,,,,,,,,,,,,,,,,,,,,,,,,,,,,1,0.4110457516339869,0.6249019607843137,0.5739869281045751,1.0,10.0,0,0,F15203
4302997,21:47:38,8.71,2024-06-05,599948.517554766,5331988.101936472,17,N,21:47:38.000,48.13329397,-79.65664943,54872.90745,1,-8520,-29718,29298,-3.973,0.354,-8.899,0.16814,-0.58127,0.7302,40.992,178.6,G,0.51,2.0,12.0,404.3,-38.5,9.182,0.0, ,D,'$GNGGA,214738.0,4807.99738,N,7939.39896,W,2.0,12.0,0.51,404.3,M,-38.5,M,,0131*72','$GNRMC,214738.0,A,4807.99738,N,7939.39896,W,9.182,178.57,50624.0,,,D,V*13',,,,,,,,1,0.431124183006536,0.6390196078431373,0.5705359477124182,1.0,10.0,0,0,F15203
4300497,21:47:35.500000,8.668333333333333,2024-06-05,599948.4860513465,5332001.071532707,17,N,21:47:35.500,48.13341063,-79.65664681,54883.81925,1,-9601,-29862,29052,7.046,-4.85,14.201,0.11179,-0.72013,0.6943,41.02,184.4,I,,,,,,,,,,,,,,,,,,,,,,,,,,,,,,,,,,,,,,,,,,,,,,1,0.4445098039215686,0.6484313725490196,0.5682352941176471,1.0,10.0,0,0,F15203
4297997,21:47:33,8.626666666666667,2024-06-05,599949.329729009,5332015.577342276,17,N,21:47:33.000,48.13354097,-79.65663207,54883.8645,1,-6523,-30483,29400,9.577,-7.55,7.433,0.20217,-0.59471,0.72448,41.082,180.3,G,0.51,2.0,12.0,403.4,-38.5,10.112,0.0, ,D,'$GNGGA,214733.0,4808.0122,N,7939.39793,W,2.0,12.0,0.51,403.4,M,-38.5,M,,0131*71','$GNRMC,214733.0,A,4808.0122,N,7939.39793,W,10.112,180.25,50624.0,,,D,V*23',,,,,,,,1,0.4445098039215686,0.6484313725490196,0.5682352941176471,1.0,10.0,0,0,F15203
4295497,21:47:30.500000,8.585,2024-06-05,599948.9323691261,5332030.617374479,17,N,21:47:30.500,48.13367631,-79.65663388,54882.7377,1,-5442,-29246,30112,-6.542,-1.297,-14.491,0.04073,-0.73597,0.65957,41.033,180.8,I,,,,,,,,,,,,,,,,,,,,,,,,,,,,,,,,,,,,,,,,,,,,,,1,0.4445098039215686,0.6484313725490196,0.5682352941176471,1.0,10.0,0,0,F15203
4292997,21:47:28,8.543333333333333,2024-06-05,599949.228972163,5332048.280010224,17,N,21:47:28.000,48.13383513,-79.65662575,54877.86145,1,-5819,-30543,29463,0.17,12.865,-15.374,0.13941,-0.7088,0.77511,41.088,181.5,G,0.51,2.0,12.0,402.2,-38.5,13.676,0.0, ,D,'$GNGGA,214728.0,4808.02985,N,7939.39756,W,2.0,12.0,0.51,402.2,M,-38.5,M,,0131*72','$GNRMC,214728.0,A,4808.02985,N,7939.39756,W,13.676,181.54,50624.0,,,D,V*26',,,,,,,,1,0.4378169934640523,0.6437254901960784,0.5693856209150326,1.0,10.0,0,0,F15203
4290497,21:47:25.500000,8.501666666666667,2024-06-05,599949.2182933372,5332065.3836085405,17,N,21:47:25.500,48.13398897,-79.65662188,54876.42975,1,-5586,-31449,28994,4.856,0.417,-12.706,0.15081,-0.60159,0.73363,41.117,181.6,I,,,,,,,,,,,,,,,,,,,,,,,,,,,,,,,,,,,,,,,,,,,,,,1,0.431124183006536,0.6390196078431373,0.5705359477124182,1.0,10.0,0,0,F15203
4287997,21:47:23,8.46,2024-06-05,599949.1972268966,5332083.465401605,17,N,21:47:23.000,48.13415161,-79.65661792,54886.3957,1,-5953,-30264,29606,1.766,0.572,33.396,0.20562,-0.67915,0.69294,41.094,184.0,G,0.51,2.0,12.0,402.4,-38.5,13.888,0.0, ,D,'$GNGGA,214723.0,4808.04884,N,7939.39711,W,2.0,12.0,0.51,402.4,M,-38.5,M,,0131*7A','$GNRMC,214723.0,A,4808.04884,N,7939.39711,W,13.888,184.0,50624.0,,,D,V*23',,,,,,,,1,0.4512026143790849,0.6531372549019608,0.5670849673202615,1.0,10.0,0,0,F15203
4285497,21:47:20.500000,8.418333333333333,2024-06-05,599949.0307770758,5332100.198277849,17,N,21:47:20.500,48.13430214,-79.65661623,54898.00225,1,-3663,-31374,29386,-4.033,-5.323,2.183,0.10471,-0.67041,0.6984,41.09,177.7,I,,,,,,,,,,,,,,,,,,,,,,,,,,,,,,,,,,,,,,,,,,,,,,1,0.471281045751634,0.6672549019607843,0.5636339869281046,1.0,10.0,0,0,F15203
4282997,21:47:18,8.376666666666667,2024-06-05,599948.238221951,5332116.048576364,17,N,21:47:18.000,48.13444483,-79.65662316,54923.15645,1,-6728,-31400,28968,-3.075,16.464,-28.508,0.08778,-0.61226,0.66203,41.154,179.0,G,0.51,2.0,12.0,403.4,-38.5,12.023,0.0, ,D,'$GNGGA,214718.0,4808.06643,N,7939.39739,W,2.0,12.0,0.51,403.4,M,-38.5,M,,0131*7E','$GNRMC,214718.0,A,4808.06643,N,7939.39739,W,12.023,178.99,50624.0,,,D,V*2D',,,,,,,,1,0.5047450980392156,0.6907843137254902,0.5578823529411765,1.0,10.0,0,0,F15203
4280497,21:47:15.500000,8.335,2024-06-05,599948.2877611464,5332132.899739912,17,N,21:47:15.500,48.13459639,-79.65661854,54954.61185,1,-7337,-28796,30077,-1.9,-4.554,-20.447,0.23567,-0.60285,0.82272,41.164,182.3,I,,,,,,,,,,,,,,,,,,,,,,,,,,,,,,,,,,,,,,,,,,,,,,1,0.5582875816993463,0.7284313725490197,0.5486797385620915,1.0,10.0,0,0,F15203
4277997,21:47:13,8.293333333333333,2024-06-05,599948.6302195028,5332150.961200626,17,N,21:47:13.000,48.13475879,-79.6566097,54989.9767,1,-8440,-32176,28358,5.536,3.532,-16.758,0.15382,-0.66617,0.66678,41.163,179.0,G,0.51,2.0,12.0,404.4,-38.5,14.343,0.0, ,D,'$GNGGA,214713.0,4808.08527,N,7939.39658,W,2.0,12.0,0.51,404.4,M,-38.5,M,,0131*7B','$GNRMC,214713.0,A,4808.08527,N,7939.39658,W,14.343,179.02,50624.0,,,D,V*2F',,,,,,,,1,0.5974509803921568,0.7477777777777778,0.5554901960784314,1.0,10.0,0,0,F15203
4275497,21:47:10.500000,8.251666666666667,2024-06-05,599948.5334561634,5332168.944948417,17,N,21:47:10.500,48.13492056,-79.65660678,55004.94,1,-8345,-29226,29734,3.459,-0.501,5.278,0.14527,-0.67063,0.76408,41.187,181.7,I,,,,,,,,,,,,,,,,,,,,,,,,,,,,,,,,,,,,,,,,,,,,,,1,0.6150196078431371,0.7548888888888888,0.5611372549019608,1.0,10.0,0,0,F15203
4272997,21:47:08,8.21,2024-06-05,599948.4841712294,5332186.298028785,17,N,21:47:08.000,48.13507665,-79.65660337,54970.2474,1,-5440,-30050,29784,16.872,3.715,5.195,0.12051,-0.60913,0.8386,41.198,181.5,G,0.51,2.0,12.0,406.5,-38.5,13.136,0.0, ,D,'$GNGGA,214708.0,4808.10434,N,7939.39622,W,2.0,12.0,0.51,406.5,M,-38.5,M,,0131*75','$GNRMC,214708.0,A,4808.10434,N,7939.39622,W,13.136,181.52,50624.0,,,D,V*27',,,,,,,,1,0.5798823529411764,0.7406666666666666,0.549843137254902,1.0,10.0,0,0,F15203
4270497,21:47:05.500000,8.168333333333333,2024-06-05,599949.0615455267,5332202.583616957,17,N,21:47:05.500,48.13522304,-79.65659179,54927.20175,1,-8149,-29130,29767,-0.443,-8.998,-7.782,0.22199,-0.55789,0.80469,41.229,184.6,I,,,,,,,,,,,,,,,,,,,,,,,,,,,,,,,,,,,,,,,,,,,,,,1,0.511437908496732,0.6954901960784313,0.5567320261437909,1.0,10.0,0,0,F15203
4267997,21:47:03,8.126666666666667,2024-06-05,599949.388871951,5332216.737982927,17,N,21:47:03.000,48.1353503,-79.65658407,54881.40345,1,-4252,-29389,30148,2.707,-2.297,22.314,0.18445,-0.54143,0.80401,41.239,179.8,G,0.51,2.0,12.0,409.3,-38.5,9.945,0.0, ,D,'$GNGGA,214703.0,4808.12076,N,7939.39505,W,2.0,12.0,0.51,409.3,M,-38.5,M,,0131*71','$GNRMC,214703.0,A,4808.12076,N,7939.39505,W,9.945,179.77,50624.0,,,D,V*1D',,,,,,,,1,0.4445098039215686,0.6484313725490196,0.5682352941176471,1.0,10.0,0,0,F15203
4265497,21:47:00.500000,8.085,2024-06-05,599949.7135797696,5332229.252412124,17,N,21:47:00.500,48.13546281,-79.65657677,54859.08915,1,-5052,-29903,29875,6.689,1.767,-7.579,0.13893,-0.5442,0.78,41.232,176.6,I,,,,,,,,,,,,,,,,,,,,,,,,,,,,,,,,,,,,,,,,,,,,,,1,0.4043529411764706,0.6201960784313726,0.5751372549019608,1.0,10.0,0,0,F15203
4262997,21:46:58,8.043333333333333,2024-06-05,599948.9204239168,5332242.026377743,17,N,21:46:58.000,48.13557783,-79.65658443,54846.76445,1,-5021,-30440,29611,-4.778,0.523,8.556,-0.05841,-0.73836,0.67427,41.275,181.1,G,0.51,2.0,12.0,411.4,-38.5,11.516,0.0, ,D,'$GNGGA,214658.0,4808.13441,N,7939.39508,W,2.0,12.0,0.51,411.4,M,-38.5,M,,0131*7C','$GNRMC,214658.0,A,4808.13441,N,7939.39508,W,11.516,181.11,50624.0,,,D,V*2A',,,,,,,,1,0.3842745098039215,0.606078431372549,0.5785882352941177,1.0,10.0,0,0,F15203
4260497,21:46:55.500000,8.001666666666667,2024-06-05,599948.7474600931,5332257.085899249,17,N,21:46:55.500,48.13571331,-79.65658322,54843.2284,1,-6563,-30959,29185,-12.26,-0.881,9.893,0.08314,-0.69102,0.60547,41.257,179.3,I,,,,,,,,,,,,,,,,,,,,,,,,,,,,,,,,,,,,,,,,,,,,,,1,0.3842745098039215,0.606078431372549,0.5785882352941177,1.0,10.0,0,0,F15203
4257997,21:46:53,7.96,2024-06-05,599948.9471494474,5332275.692983455,17,N,21:46:53.000,48.13588064,-79.65657617,54844.65165,1,-6950,-31505,28744,-9.103,2.627,3.524,0.11248,-0.63185,0.6359,41.256,183.5,G,0.51,2.0,12.0,413.4,-38.5,15.415,0.0, ,D,'$GNGGA,214653.0,4808.15258,N,7939.3946,W,2.0,12.0,0.51,413.4,M,-38.5,M,,0131*72','$GNRMC,214653.0,A,4808.15258,N,7939.3946,W,15.415,183.47,50624.0,,,D,V*21',,,,,,,,1,0.3842745098039215,0.606078431372549,0.5785882352941177,1.0,10.0,0,0,F15203
4255497,21:46:50.500000,7.918333333333334,2024-06-05,599949.5880162255,5332295.798685169,17,N,21:46:50.500,48.13606138,-79.65656284,54851.64585,1,-7051,-29646,29550,11.887,0.145,-13.959,0.16167,-0.71481,0.76704,41.32,184.1,I,,,,,,,,,,,,,,,,,,,,,,,,,,,,,,,,,,,,,,,,,,,,,,1,0.3976601307189542,0.6154901960784314,0.5762875816993464,1.0,10.0,0,0,F15203
4252997,21:46:48,7.876666666666667,2024-06-05,599950.2334140296,5332314.834923992,17,N,21:46:48.000,48.1362325,-79.6565497,54858.6176,1,-4886,-29763,29891,13.717,-1.285,-7.804,0.21129,-0.6083,0.83498,41.357,177.4,G,0.51,2.0,12.0,413.1,-38.5,14.795,0.0, ,D,'$GNGGA,214648.0,4808.17369,N,7939.39297,W,2.0,12.0,0.51,413.1,M,-38.5,M,,0131*72','$GNRMC,214648.0,A,4808.17369,N,7939.39297,W,14.795,177.35,50624.0,,,D,V*20',,,,,,,,1,0.4043529411764706,0.6201960784313726,0.5751372549019608,1.0,10.0,0,0,F15203
4250497,21:46:45.500000,7.835,2024-06-05,599950.6277170397,5332334.527181952,17,N,21:46:45.500,48.13640956,-79.65653978,54873.6068,1,-6564,-28315,30249,22.718,1.636,6.651,0.10003,-0.45399,0.97381,41.361,181.8,I,,,,,,,,,,,,,,,,,,,,,,,,,,,,,,,,,,,,,,,,,,,,,,1,0.431124183006536,0.6390196078431373,0.5705359477124182,1.0,10.0,0,0,F15203
4247997,21:46:43,7.793333333333334,2024-06-05,599948.7777701648,5332353.098470796,17,N,21:46:43.000,48.13657689,-79.65656028,54883.3585,1,-4398,-29991,29858,14.354,6.204,-10.865,0.26813,-0.70601,0.84001,41.396,171.7,G,0.51,2.0,12.0,412.9,-38.5,12.908,0.0, ,D,'$GNGGA,214643.0,4808.19436,N,7939.39357,W,2.0,12.0,0.51,412.9,M,-38.5,M,,0131*7E','$GNRMC,214643.0,A,4808.19436,N,7939.39357,W,12.908,171.72,50624.0,,,D,V*2C',,,,,,,,1,0.4445098039215686,0.6484313725490196,0.5682352941176471,1.0,10.0,0,0,F15203
4245497,21:46:40.500000,7.751666666666667,2024-06-05,599948.3190902075,5332369.560532303,17,N,21:46:40.500,48.13672503,-79.65656258,54904.9901,1,-10570,-30425,28560,-2.237,-3.746,5.519,0.13513,-0.65425,0.7162,41.402,185.8,I,,,,,,,,,,,,,,,,,,,,,,,,,,,,,,,,,,,,,,,,,,,,,,1,0.4779738562091504,0.6719607843137254,0.5624836601307189,1.0,10.0,0,0,F15203
4242997,21:46:38,7.71,2024-06-05,599948.6161188431,5332386.981927263,17,N,21:46:38.000,48.13688168,-79.6565545,54913.1328,1,-7699,-30590,29114,-12.715,0.251,-17.469,0.18958,-0.56984,0.60467,41.389,177.5,G,0.51,2.0,12.0,410.5,-38.5,15.209,0.0, ,D,'$GNGGA,214638.0,4808.21264,N,7939.39326,W,2.0,12.0,0.51,410.5,M,-38.5,M,,0131*70','$GNRMC,214638.0,A,4808.21264,N,7939.39326,W,15.209,177.49,50624.0,,,D,V*2F',,,,,,,,1,0.491359477124183,0.6813725490196079,0.5601830065359478,1.0,10.0,0,0,F15203
4240497,21:46:35.500000,7.668333333333334,2024-06-05,599948.8651364181,5332407.151943718,17,N,21:46:35.500,48.13706306,-79.65654642,54929.4136,1,-8437,-29478,29538,5.997,-7.829,-5.895,0.09475,-0.7098,0.77843,41.402,181.2,I,,,,,,,,,,,,,,,,,,,,,,,,,,,,,,,,,,,,,,,,,,,,,,1,0.5181307189542483,0.7001960784313725,0.5555816993464052,1.0,10.0,0,0,F15203
4237997,21:46:33,7.626666666666667,2024-06-05,599948.9596733683,5332425.557073774,17,N,21:46:33.000,48.13722859,-79.65654083,54942.55705,1,-7257,-30859,29083,4.129,-9.671,3.87,-0.04528,-0.71754,0.67047,41.375,186.6,G,0.51,2.0,12.0,405.7,-38.5,14.464,0.0, ,D,'$GNGGA,214633.0,4808.23346,N,7939.3925,W,2.0,12.0,0.51,405.7,M,-38.5,M,,0131*7E','$GNRMC,214633.0,A,4808.23346,N,7939.3925,W,14.464,186.62,50624.0,,,D,V*2C',,,,,,,,1,0.5382091503267975,0.7143137254901961,0.5521307189542484,1.0,10.0,0,0,F15203
4235497,21:46:30.500000,7.585,2024-06-05,599948.3253213363,5332442.958867766,17,N,21:46:30.500,48.13738521,-79.65654527,54957.9128,1,-6495,-28824,30169,-3.598,8.403,-16.047,0.04244,-0.63518,0.63657,41.439,183.3,I,,,,,,,,,,,,,,,,,,,,,,,,,,,,,,,,,,,,,,,,,,,,,,1,0.5649803921568627,0.7331372549019607,0.5475294117647059,1.0,10.0,0,0,F15203
4232997,21:46:28,7.543333333333334,2024-06-05,599947.9841076061,5332461.301910325,17,N,21:46:28.000,48.13755025,-79.65654555,54974.6846,1,-6408,-29157,30104,6.212,-11.436,12.016,0.33594,-0.66608,0.76807,41.471,176.7,G,0.51,2.0,12.0,401.3,-38.5,12.774,0.0, ,D,'$GNGGA,214628.0,4808.25276,N,7939.39272,W,2.0,12.0,0.51,401.3,M,-38.5,M,,0131*70','$GNRMC,214628.0,A,4808.25276,N,7939.39272,W,12.774,176.73,50624.0,,,D,V*29',,,,,,,,1,0.5842745098039215,0.7424444444444445,0.5512549019607843,1.0,10.0,0,0,F15203
4230497,21:46:25.500000,7.501666666666667,2024-06-05,599948.6580355488,5332478.404136154,17,N,21:46:25.500,48.13770397,-79.65653248,54998.92745,1,-10568,-26561,30041,6.778,-8.757,-11.142,0.19915,-0.7114,0.66139,41.482,182.2,I,,,,,,,,,,,,,,,,,,,,,,,,,,,,,,,,,,,,,,,,,,,,,,1,0.6062352941176471,0.7513333333333333,0.5583137254901961,1.0,10.0,0,0,F15203
4227997,21:46:23,7.46,2024-06-05,599948.6846073358,5332494.692342485,17,N,21:46:23.000,48.13785047,-79.6565283,55012.63925,1,-7819,-27994,30179,0.547,-0.907,0.248,0.20304,-0.68258,0.81475,41.488,178.1,G,0.51,2.0,12.0,398.2,-38.5,12.105,0.0, ,D,'$GNGGA,214623.0,4808.27077,N,7939.39169,W,2.0,12.0,0.51,398.2,M,-38.5,M,,0131*75','$GNRMC,214623.0,A,4808.27077,N,7939.39169,W,12.105,178.12,50624.0,,,D,V*23',,,,,,,,1,0.6238039215686274,0.7584444444444445,0.5639607843137255,1.0,10.0,0,0,F15203
4225497,21:46:20.500000,7.418333333333334,2024-06-05,599948.264024151,5332510.677002663,17,N,21:46:20.500,48.13799431,-79.6565302,55031.84855,1,-7696,-28947,30040,0.839,4.867,-14.301,0.12743,-0.59464,0.74852,41.525,181.0,I,,,,,,,,,,,,,,,,,,,,,,,,,,,,,,,,,,,,,,,,,,,,,,1,0.6413725490196078,0.7655555555555555,0.5696078431372549,1.0,10.0,0,0,F15203
4222997,21:46:18,7.376666666666667,2024-06-05,599948.8552881704,5332528.080193549,17,N,21:46:18.000,48.13815075,-79.65651817,55057.18875,1,-8488,-27397,30446,-2.541,-0.236,4.546,0.15012,-0.53733,0.81208,41.508,183.8,G,0.51,2.0,12.0,395.9,-38.5,12.038,0.0, ,D,'$GNGGA,214618.0,4808.28879,N,7939.39112,W,2.0,12.0,0.51,395.9,M,-38.5,M,,0131*7E','$GNRMC,214618.0,A,4808.28879,N,7939.39112,W,12.038,183.77,50624.0,,,D,V*26',,,,,,,,1,0.6677254901960784,0.7762222222222223,0.578078431372549,1.0,10.0,0,0,F15203
4220497,21:46:15.500000,7.335,2024-06-05,599948.3823376317,5332542.504096564,17,N,21:46:15.500,48.13828056,-79.65652114,55075.93065,1,-5871,-30487,29586,-1.173,-6.454,6.854,0.17943,-0.6616,0.74083,41.548,180.0,I,,,,,,,,,,,,,,,,,,,,,,,,,,,,,,,,,,,,,,,,,,,,,,1,0.6852941176470587,0.7833333333333332,0.5837254901960784,1.0,10.0,0,0,F15203
4217997,21:46:13,7.293333333333334,2024-06-05,599948.2320559875,5332556.774649586,17,N,21:46:13.000,48.13840894,-79.65651981,55099.17385,1,-7391,-30052,29699,-7.976,-2.12,-3.098,0.14653,-0.73577,0.67663,41.571,180.7,G,0.51,2.0,12.0,393.9,-38.5,10.486,0.0, ,D,'$GNGGA,214613.0,4808.30428,N,7939.3912,W,2.0,12.0,0.51,393.9,M,-38.5,M,,0131*73','$GNRMC,214613.0,A,4808.30428,N,7939.3912,W,10.486,180.74,50624.0,,,D,V*2E',,,,,,,,1,0.7116470588235293,0.7939999999999999,0.5921960784313726,1.0,10.0,0,0,F15203
4215497,21:46:10.500000,7.251666666666667,2024-06-05,599947.7740468585,5332571.621294937,17,N,21:46:10.500,48.13854255,-79.65652248,55125.27615,1,-9529,-29924,29116,10.825,2.051,-18.779,0.15746,-0.85755,0.66774,41.553,182.2,I,,,,,,,,,,,,,,,,,,,,,,,,,,,,,,,,,,,,,,,,,,,,,,1,0.7379999999999999,0.8046666666666666,0.6006666666666667,1.0,10.0,0,0,F15203
4212997,21:46:08,7.21,2024-06-05,599948.6438756872,5332588.072100839,17,N,21:46:08.000,48.13869038,-79.65650693,55154.15685,1,-10731,-28680,29474,9.608,3.008,-0.674,0.2526,-0.69294,0.74727,41.549,182.7,G,0.51,2.0,12.0,391.6,-38.5,14.865,0.0, ,D,'$GNGGA,214608.0,4808.32116,N,7939.39044,W,2.0,12.0,0.51,391.6,M,-38.5,M,,0131*7D','$GNRMC,214608.0,A,4808.32116,N,7939.39044,W,14.865,182.67,50624.0,,,D,V*28',,,,,,,,1,0.7687450980392156,0.817111111111111,0.6105490196078431,1.0,10.0,0,0,F15203
4210497,21:46:05.500000,7.168333333333334,2024-06-05,599948.9658959305,5332607.340624763,17,N,21:46:05.500,48.13886364,-79.65649808,55178.87715,1,-8453,-28544,30213,-4.512,-3.042,18.362,0.26821,-0.56879,0.71482,41.562,182.7,I,,,,,,,,,,,,,,,,,,,,,,,,,,,,,,,,,,,,,,,,,,,,,,1,0.7950980392156863,0.8277777777777777,0.6190196078431373,1.0,10.0,0,0,F15203
4207997,21:46:03,7.126666666666667,2024-06-05,599949.3096902038,5332627.875860289,17,N,21:46:03.000,48.13904829,-79.65648864,55208.47825,1,-7560,-28098,30517,4.588,-8.809,6.086,0.06659,-0.73271,0.79787,41.65,182.2,G,0.51,2.0,12.0,389.8,-38.5,16.726,0.0, ,D,'$GNGGA,214603.0,4808.34264,N,7939.38934,W,2.0,12.0,0.51,389.8,M,-38.5,M,,0131*7E','$GNRMC,214603.0,A,4808.34264,N,7939.38934,W,16.726,182.23,50624.0,,,D,V*26',,,,,,,,1,0.8258431372549019,0.8402222222222222,0.6289019607843137,1.0,10.0,0,0,F15203
4205497,21:46:00.500000,7.085,2024-06-05,599948.9781808569,5332647.792262796,17,N,21:46:00.500,48.13922748,-79.65648842,55237.08245,1,-4701,-31820,29311,-1.373,5.61,-22.972,0.03153,-0.79761,0.78633,41.621,178.3,I,,,,,,,,,,,,,,,,,,,,,,,,,,,,,,,,,,,,,,,,,,,,,,1,0.8499477124183006,0.8478823529411764,0.6342091503267974,1.0,10.0,0,0,F15203
4202997,21:45:58,7.043333333333334,2024-06-05,599948.2377959013,5332665.08659018,17,N,21:45:58.000,48.13938315,-79.65649431,55278.6158,1,-6526,-31504,29257,-17.904,8.846,7.893,0.18184,-0.63677,0.61554,41.648,183.2,G,0.51,2.0,12.0,388.1,-38.5,12.38,0.0, ,D,'$GNGGA,214558.0,4808.36273,N,7939.38969,W,2.0,12.0,0.51,388.1,M,-38.5,M,,0131*77','$GNRMC,214558.0,A,4808.36273,N,7939.38969,W,12.38,183.18,50624.0,,,D,V*22',,,,,,,,1,0.8489019607843137,0.8055294117647058,0.5850588235294117,1.0,10.0,0,0,F15203
4200497,21:45:55.500000,7.001666666666667,2024-06-05,599948.5325740206,5332682.250019229,17,N,21:45:55.500,48.13953748,-79.65648632,55325.61835,1,-5366,-30227,30172,-4.215,-2.605,-7.862,0.24848,-0.64903,0.68663,41.665,178.4,I,,,,,,,,,,,,,,,,,,,,,,,,,,,,,,,,,,,,,,,,,,,,,,1,0.8477516339869281,0.7589411764705882,0.5309934640522875,1.0,10.0,0,0,F15203
4197997,21:45:53,6.96,2024-06-05,599948.9004062003,5332700.470926991,17,N,21:45:53.000,48.13970131,-79.6564771,55397.0042,1,-7210,-32298,29019,-16.838,1.12,-19.232,0.10572,-0.75815,0.54864,41.66,177.2,G,0.51,2.0,12.0,388.0,-38.5,14.48,0.0, ,D,'$GNGGA,214553.0,4808.38182,N,7939.38861,W,2.0,12.0,0.51,388.0,M,-38.5,M,,0131*77','$GNRMC,214553.0,A,4808.38182,N,7939.38861,W,14.48,177.16,50624.0,,,D,V*27',,,,,,,,1,0.8459738562091503,0.6869411764705883,0.447437908496732,1.0,10.0,0,0,F15203
4195497,21:45:50.500000,6.918333333333334,2024-06-05,599948.9175775241,5332720.575756153,17,N,21:45:50.500,48.13988214,-79.65647215,55507.4461,1,-9510,-26032,31006,7.927,-0.172,0.948,0.15206,-0.5952,0.83199,41.691,181.4,I,,,,,,,,,,,,,,,,,,,,,,,,,,,,,,,,,,,,,,,,,,,,,,1,0.841843137254902,0.574156862745098,0.3206274509803921,1.0,10.0,0,0,F15203
4192997,21:45:48,6.876666666666667,2024-06-05,599948.9017178636,5332739.461485265,17,N,21:45:48.000,48.14005201,-79.65646793,55615.6503,1,-8859,-28092,30613,29.978,-5.979,14.034,0.08579,-0.75624,0.6601,41.691,185.3,G,0.51,2.0,12.0,388.8,-38.5,17.462,0.0, ,D,'$GNGGA,214548.0,4808.40286,N,7939.38812,W,2.0,12.0,0.51,388.8,M,-38.5,M,,0131*79','$GNRMC,214548.0,A,4808.40286,N,7939.38812,W,17.462,185.26,50624.0,,,D,V*20',,,,,,,,1,0.7901830065359476,0.37159477124183,0.2268235294117647,1.0,10.0,0,0,F15203
4190497,21:45:45.500000,6.835,2024-06-05,599948.9577223753,5332760.239628096,17,N,21:45:45.500,48.14023889,-79.6564623,55701.79545,1,-4140,-25024,32406,-5.016,-8.695,26.217,0.16263,-0.41283,0.83591,41.729,177.1,I,,,,,,,,,,,,,,,,,,,,,,,,,,,,,,,,,,,,,,,,,,,,,,1,0.7504444444444445,0.2157777777777778,0.1546666666666666,1.0,10.0,0,0,F15203
4187997,21:45:43,6.793333333333334,2024-06-05,599949.0000654793,5332780.393817813,17,N,21:45:43.000,48.14042016,-79.656457,55750.37275,1,-6540,-28853,30973,-1.128,8.225,-23.499,-0.1038,-0.58735,0.71991,41.721,179.6,G,0.51,2.0,12.0,389.6,-38.5,17.121,0.0, ,D,'$GNGGA,214543.0,4808.42495,N,7939.38742,W,2.0,12.0,0.51,389.6,M,-38.5,M,,0131*71','$GNRMC,214543.0,A,4808.42495,N,7939.38742,W,17.121,179.62,50624.0,,,D,V*26',,,,,,,,1,0.7285882352941176,0.1300784313725489,0.1149803921568627,1.0,10.0,0,0,F15203
4185497,21:45:40.500000,6.751666666666667,2024-06-05,599949.0504100418,5332800.941722305,17,N,21:45:40.500,48.14060497,-79.6564515,55773.1651,1,-7172,-27780,31182,-2.384,8.53,-32.015,0.12057,-0.51344,0.78974,41.781,182.8,I,,,,,,,,,,,,,,,,,,,,,,,,,,,,,,,,,,,,,,,,,,,,,,1,0.7166666666666667,0.0833333333333333,0.0933333333333333,1.0,10.0,0,0,F15203
4182997,21:45:38,6.71,2024-06-05,599949.2968205857,5332820.233392181,17,N,21:45:38.000,48.14077845,-79.65644366,55771.38905,1,-6754,-29556,30677,7.755,-7.966,42.358,0.22881,-0.63643,0.6721,41.738,187.6,G,0.51,2.0,12.0,389.3,-38.5,15.693,0.0, ,D,'$GNGGA,214538.0,4808.44645,N,7939.38668,W,2.0,12.0,0.51,389.3,M,-38.5,M,,0131*78','$GNRMC,214538.0,A,4808.44645,N,7939.38668,W,15.693,187.63,50624.0,,,D,V*26',,,,,,,,1,0.7186535947712419,0.0911241830065359,0.0969411764705882,1.0,10.0,0,0,F15203
4180497,21:45:35.500000,6.668333333333334,2024-06-05,599949.4945541275,5332838.9460806325,17,N,21:45:35.500,48.14094673,-79.65643661,55754.3818,1,-352,-25879,32603,-17.32,1.894,7.309,0.08018,-0.39508,0.62565,41.805,178.1,I,,,,,,,,,,,,,,,,,,,,,,,,,,,,,,,,,,,,,,,,,,,,,,1,0.7266013071895425,0.1222875816993464,0.1113725490196078,1.0,10.0,0,0,F15203
4177997,21:45:33,6.626666666666667,2024-06-05,599949.1414951849,5332859.3279541815,17,N,21:45:33.000,48.14113011,-79.65643657,55750.4916,1,-6836,-25358,31957,27.758,12.315,-7.552,0.18659,-0.73626,0.8584,41.818,181.3,G,0.51,2.0,12.0,388.5,-38.5,16.815,0.0, ,D,'$GNGGA,214533.0,4808.46755,N,7939.38621,W,2.0,12.0,0.51,388.5,M,-38.5,M,,0131*7B','$GNRMC,214533.0,A,4808.46755,N,7939.38621,W,16.815,181.33,50624.0,,,D,V*22',,,,,,,,1,0.7285882352941176,0.1300784313725489,0.1149803921568627,1.0,10.0,0,0,F15203
4175497,21:45:30.500000,6.585,2024-06-05,599949.5901862647,5332878.710991123,17,N,21:45:30.500,48.14130438,-79.65642599,55726.95345,1,-5925,-30885,29943,18.821,16.592,-22.778,0.05475,-0.61524,0.66904,41.832,183.5,I,,,,,,,,,,,,,,,,,,,,,,,,,,,,,,,,,,,,,,,,,,,,,,1,0.7385228758169936,0.1690326797385623,0.1330196078431373,1.0,10.0,0,0,F15203
4172997,21:45:28,6.543333333333334,2024-06-05,599949.6393261541,5332899.326697355,17,N,21:45:28.000,48.1414898,-79.65642049,55715.75105,1,-4515,-24011,32596,-4.952,1.273,9.607,0.21242,-0.34524,0.79176,41.908,183.0,G,0.51,2.0,12.0,388.1,-38.5,15.498,0.0, ,D,'$GNGGA,214528.0,4808.48913,N,7939.38526,W,2.0,12.0,0.51,388.1,M,-38.5,M,,0131*73','$GNRMC,214528.0,A,4808.48913,N,7939.38526,W,15.498,183.04,50624.0,,,D,V*22',,,,,,,,1,0.7444836601307189,0.1924052287581699,0.1438431372549019,1.0,10.0,0,0,F15203
4170497,21:45:25.500000,6.501666666666667,2024-06-05,599951.150848265,5332920.782894011,17,N,21:45:25.500,48.14168255,-79.65639514,55707.00285,1,-2466,-21077,33670,-15.54,-11.101,6.816,0.03673,-0.48211,0.88672,41.863,182.9,I,,,,,,,,,,,,,,,,,,,,,,,,,,,,,,,,,,,,,,,,,,,,,,1,0.7484575163398692,0.2079869281045751,0.1510588235294117,1.0,10.0,0,0,F15203
4167997,21:45:23,6.46,2024-06-05,599950.0050098514,5332942.118180408,17,N,21:45:23.000,48.14187463,-79.65640553,55695.05405,1,1096,-29130,31319,14.924,-5.324,4.282,0.06403,-0.7489,0.70307,41.884,178.2,G,0.51,2.0,12.0,387.8,-38.5,17.555,0.0, ,D,'$GNGGA,214523.0,4808.51222,N,7939.38433,W,2.0,12.0,0.51,387.8,M,-38.5,M,,0131*7A','$GNRMC,214523.0,A,4808.51222,N,7939.38433,W,17.555,178.18,50624.0,,,D,V*26',,,,,,,,1,0.7544183006535947,0.231359477124183,0.1618823529411764,1.0,10.0,0,0,F15203
4165497,21:45:20.500000,6.418333333333334,2024-06-05,599949.5849308847,5332962.374365803,17,N,21:45:20.500,48.14205689,-79.65640642,55706.1855,1,-5068,-31347,29921,-10.311,-7.024,17.437,0.27876,-0.71751,0.65256,41.899,176.7,I,,,,,,,,,,,,,,,,,,,,,,,,,,,,,,,,,,,,,,,,,,,,,,1,0.7484575163398692,0.2079869281045751,0.1510588235294117,1.0,10.0,0,0,F15203
4162997,21:45:18,6.376666666666667,2024-06-05,599948.4527731664,5332980.924853085,17,N,21:45:18.000,48.14222392,-79.65641728,55726.82225,1,-6549,-33024,29030,-7.006,1.091,16.396,0.10312,-0.7005,0.66757,41.909,187.7,G,0.51,2.0,12.0,387.8,-38.5,13.462,0.0, ,D,'$GNGGA,214518.0,4808.53318,N,7939.3851,W,2.0,12.0,0.51,387.8,M,-38.5,M,,0131*78','$GNRMC,214518.0,A,4808.53318,N,7939.3851,W,13.462,187.66,50624.0,,,D,V*2C',,,,,,,,1,0.7385228758169936,0.1690326797385623,0.1330196078431373,1.0,10.0,0,0,F15203
4160497,21:45:15.500000,6.335,2024-06-05,599949.1468241643,5332998.443257584,17,N,21:45:15.500,48.14238138,-79.65640384,55744.79965,1,-6751,-30517,30152,18.736,-3.742,20.376,0.18266,-0.56191,0.72548,41.95,184.2,I,,,,,,,,,,,,,,,,,,,,,,,,,,,,,,,,,,,,,,,,,,,,,,1,0.7305751633986928,0.1378692810457517,0.1185882352941176,1.0,10.0,0,0,F15203
4157997,21:45:13,6.293333333333334,2024-06-05,599949.2551312638,5333014.222593369,17,N,21:45:13.000,48.14252329,-79.65639868,55739.61685,1,-4596,-29369,31073,-2.586,-0.825,-10.444,0.26131,-0.57105,0.75096,41.947,175.9,G,0.51,2.0,12.0,385.7,-38.5,10.801,0.0, ,D,'$GNGGA,214513.0,4808.55114,N,7939.3839,W,2.0,12.0,0.51,385.7,M,-38.5,M,,0131*78','$GNRMC,214513.0,A,4808.55114,N,7939.3839,W,10.801,175.93,50624.0,,,D,V*2C',,,,,,,,1,0.7325620915032679,0.1456601307189542,0.1221960784313725,1.0,10.0,0,0,F15203
4155497,21:45:10.500000,6.251666666666667,2024-06-05,599948.3481011656,5333029.810752912,17,N,21:45:10.500,48.14266364,-79.65640721,55717.6119,1,-5891,-28264,31293,-10.18,-3.252,12.446,0.15765,-0.58952,0.73341,41.977,177.2,I,,,,,,,,,,,,,,,,,,,,,,,,,,,,,,,,,,,,,,,,,,,,,,1,0.7424967320261437,0.1846143790849673,0.140235294117647,1.0,10.0,0,0,F15203
4152997,21:45:08,6.21,2024-06-05,599949.0631564888,5333048.511361173,17,N,21:45:08.000,48.14283173,-79.65639321,55667.1399,1,-8379,-31137,29604,-12.831,-2.424,-0.344,0.10257,-0.85003,0.62445,42.009,184.9,G,0.51,2.0,12.0,383.5,-38.5,14.515,0.0, ,D,'$GNGGA,214508.0,4808.56965,N,7939.38363,W,2.0,12.0,0.51,383.5,M,-38.5,M,,0131*77','$GNRMC,214508.0,A,4808.56965,N,7939.38363,W,14.515,184.91,50624.0,,,D,V*27',,,,,,,,1,0.7663398692810457,0.2781045751633987,0.1835294117647058,1.0,10.0,0,0,F15203
4150497,21:45:05.500000,6.168333333333334,2024-06-05,599949.2567735368,5333067.627565683,17,N,21:45:05.500,48.14300364,-79.65638612,55587.65225,1,-5950,-28731,30971,-3.072,3.568,4.413,0.04916,-0.74589,0.76267,41.955,181.7,I,,,,,,,,,,,,,,,,,,,,,,,,,,,,,,,,,,,,,,,,,,,,,,1,0.8040915032679739,0.4261307189542483,0.252078431372549,1.0,10.0,0,0,F15203
4147997,21:45:03,6.126666666666667,2024-06-05,599949.1983098743,5333086.989520401,17,N,21:45:03.000,48.1431778,-79.65638236,55501.33715,1,-5018,-30578,30225,8.8,-3.571,1.413,0.22047,-0.6512,0.79512,42.055,178.9,G,0.51,2.0,12.0,380.5,-38.5,13.2,0.0, ,D,'$GNGGA,214503.0,4808.59041,N,7939.38294,W,2.0,12.0,0.51,380.5,M,-38.5,M,,0131*76','$GNRMC,214503.0,A,4808.59041,N,7939.38294,W,13.2,178.85,50624.0,,,D,V*27',,,,,,,,1,0.843359477124183,0.5810588235294117,0.324562091503268,1.0,10.0,0,0,F15203
4145497,21:45:00.500000,6.085,2024-06-05,599948.7550705546,5333104.566997769,17,N,21:45:00.500,48.14333597,-79.65638419,55418.6419,1,-5026,-31112,29823,5.41,2.912,6.774,-0.07841,-0.65665,0.70166,42.059,184.0,I,,,,,,,,,,,,,,,,,,,,,,,,,,,,,,,,,,,,,,,,,,,,,,1,0.8454509803921568,0.6657647058823529,0.4228627450980391,1.0,10.0,0,0,F15203
4142997,21:44:58,6.043333333333334,2024-06-05,599949.3326367459,5333123.341920526,17,N,21:44:58.000,48.14350475,-79.65637202,55304.3056,1,-5471,-36329,26850,23.95,-13.97,24.411,0.11548,-0.93783,0.55411,42.076,187.6,G,0.51,2.0,12.0,380.2,-38.5,14.45,0.0, ,D,'$GNGGA,214458.0,4808.61003,N,7939.38238,W,2.0,12.0,0.51,380.2,M,-38.5,M,,0131*75','$GNRMC,214458.0,A,4808.61003,N,7939.38238,W,14.45,187.57,50624.0,,,D,V*28',,,,,,,,1,0.8482745098039216,0.7801176470588235,0.5555686274509805,1.0,10.0,0,0,F15203
4140497,21:44:55.500000,6.001666666666667,2024-06-05,599949.049323672,5333143.39259568,17,N,21:44:55.500,48.14368514,-79.65637112,55156.83645,1,-1443,-26628,31633,5.168,1.599,-7.795,0.03099,-0.58283,0.85992,42.063,178.7,I,,,,,,,,,,,,,,,,,,,,,,,,,,,,,,,,,,,,,,,,,,,,,,1,0.7731372549019608,0.8188888888888889,0.6119607843137255,1.0,10.0,0,0,F15203
4137997,21:44:53,5.96,2024-06-05,599947.7754836358,5333162.174088775,17,N,21:44:53.000,48.14385427,-79.65638383,55033.30815,1,-3430,-29129,30547,-2.362,-8.349,2.352,0.24566,-0.35946,0.82254,42.092,174.5,G,0.51,2.0,12.0,379.9,-38.5,10.907,0.0, ,D,'$GNGGA,214453.0,4808.631,N,7939.383,W,2.0,12.0,0.51,379.9,M,-38.5,M,,0131*79','$GNRMC,214453.0,A,4808.631,N,7939.383,W,10.907,174.48,50624.0,,,D,V*20',,,,,,,,1,0.6413725490196078,0.7655555555555555,0.5696078431372549,1.0,10.0,0,0,F15203
4135497,21:44:50.500000,5.918333333333334,2024-06-05,599947.6051978355,5333178.651214764,17,N,21:44:50.500,48.1440025,-79.65638225,54973.4835,1,-9283,-28858,29665,-0.579,-2.031,5.319,0.14553,-0.66527,0.79063,42.1,188.7,I,,,,,,,,,,,,,,,,,,,,,,,,,,,,,,,,,,,,,,,,,,,,,,1,0.5798823529411764,0.7406666666666666,0.549843137254902,1.0,10.0,0,0,F15203
4132997,21:44:48,5.876666666666667,2024-06-05,599949.4701679618,5333196.94832421,17,N,21:44:48.000,48.14416678,-79.65635289,54911.2278,1,-4967,-33242,28212,7.475,3.248,-17.52,0.15897,-0.99782,0.58456,42.084,179.0,G,0.51,2.0,12.0,380.0,-38.5,14.584,0.0, ,D,'$GNGGA,214448.0,4808.64975,N,7939.38117,W,2.0,12.0,0.51,380.0,M,-38.5,M,,0131*75','$GNRMC,214448.0,A,4808.64975,N,7939.38117,W,14.584,179.02,50624.0,,,D,V*23',,,,,,,,1,0.491359477124183,0.6813725490196079,0.5601830065359478,1.0,10.0,0,0,F15203
4130497,21:44:45.500000,5.835,2024-06-05,599949.3160653869,5333214.968902123,17,N,21:44:45.500,48.14432889,-79.65635073,54873.84995,1,-4578,-29368,30073,-8.568,5.037,11.267,0.10469,-0.72961,0.71685,42.125,181.4,I,,,,,,,,,,,,,,,,,,,,,,,,,,,,,,,,,,,,,,,,,,,,,,1,0.431124183006536,0.6390196078431373,0.5705359477124182,1.0,10.0,0,0,F15203
4127997,21:44:43,5.793333333333334,2024-06-05,599949.2921008599,5333230.267862081,17,N,21:44:43.000,48.1444665,-79.65634746,54852.4394,1,-4555,-28666,30337,17.48,10.135,-16.583,0.08903,-0.59759,0.8345,42.137,180.9,G,0.51,2.0,12.0,381.2,-38.5,11.804,0.0, ,D,'$GNGGA,214443.0,4808.66773,N,7939.38086,W,2.0,12.0,0.51,381.2,M,-38.5,M,,0131*7E','$GNRMC,214443.0,A,4808.66773,N,7939.38086,W,11.804,180.92,50624.0,,,D,V*24',,,,,,,,1,0.3976601307189542,0.6154901960784314,0.5762875816993464,1.0,10.0,0,0,F15203
4125497,21:44:40.500000,5.751666666666667,2024-06-05,599948.9231781635,5333245.507429823,17,N,21:44:40.500,48.14460363,-79.65634884,54837.88415,1,-4314,-31249,29224,0.117,2.339,-36.665,0.23006,-0.83336,0.73792,42.174,183.4,I,,,,,,,,,,,,,,,,,,,,,,,,,,,,,,,,,,,,,,,,,,,,,,1,0.3708888888888889,0.5966666666666666,0.5808888888888889,1.0,10.0,0,0,F15203
4122997,21:44:38,5.71,2024-06-05,599948.6024201496,5333261.652838641,17,N,21:44:38.000,48.1447489,-79.65634936,54825.7408,1,-3371,-30949,29422,-10.34,-6.715,-4.328,0.30948,-0.66885,0.67552,42.193,172.6,G,0.51,2.0,12.0,382.2,-38.5,11.162,0.0, ,D,'$GNGGA,214438.0,4808.68468,N,7939.38092,W,2.0,12.0,0.51,382.2,M,-38.5,M,,0131*73','$GNRMC,214438.0,A,4808.68468,N,7939.38092,W,11.162,172.63,50624.0,,,D,V*20',,,,,,,,1,0.3575032679738562,0.5872549019607843,0.5831895424836602,1.0,10.0,0,0,F15203
4120497,21:44:35.500000,5.668333333333334,2024-06-05,599949.0419188897,5333276.232784208,17,N,21:44:35.500,48.14487997,-79.65634003,54821.03585,1,-6072,-30210,29434,-1.625,8.1,-16.116,0.10336,-0.76295,0.74496,42.219,181.0,I,,,,,,,,,,,,,,,,,,,,,,,,,,,,,,,,,,,,,,,,,,,,,,1,0.3441176470588235,0.577843137254902,0.5854901960784313,1.0,10.0,0,0,F15203
4117997,21:44:33,5.626666666666667,2024-06-05,599948.6059649524,5333289.218689799,17,N,21:44:33.000,48.14499684,-79.65634284,54811.64435,1,-4450,-29503,30077,4.755,-0.38,12.453,0.16165,-0.65089,0.75079,42.225,183.0,G,0.51,2.0,12.0,382.7,-38.5,10.364,0.0, ,D,'$GNGGA,214433.0,4808.69955,N,7939.3806,W,2.0,12.0,0.51,382.7,M,-38.5,M,,0131*72','$GNRMC,214433.0,A,4808.69955,N,7939.3806,W,10.364,182.98,50624.0,,,D,V*2A',,,,,,,,1,0.3307320261437909,0.5684313725490195,0.5877908496732026,1.0,10.0,0,0,F15203
4115497,21:44:30.500000,5.585,2024-06-05,599949.1923159545,5333302.33474702,17,N,21:44:30.500,48.14511472,-79.65633188,54803.99715,1,-3936,-28684,30496,-2.944,-1.358,15.127,0.15387,-0.49288,0.78577,42.263,181.5,I,,,,,,,,,,,,,,,,,,,,,,,,,,,,,,,,,,,,,,,,,,,,,,1,0.3173464052287582,0.5590196078431372,0.5900915032679738,1.0,10.0,0,0,F15203
4112997,21:44:28,5.543333333333334,2024-06-05,599949.691966169,5333316.835695585,17,N,21:44:28.000,48.14524507,-79.65632176,54794.3282,1,-2914,-31133,29310,-4.137,-1.135,-13.398,-0.06335,-0.69529,0.71958,42.236,185.7,G,0.51,2.0,12.0,382.5,-38.5,10.729,0.0, ,D,'$GNGGA,214428.0,4808.71445,N,7939.37935,W,2.0,12.0,0.51,382.5,M,-38.5,M,,0131*79','$GNRMC,214428.0,A,4808.71445,N,7939.37935,W,10.729,185.69,50624.0,,,D,V*27',,,,,,,,1,0.3039607843137255,0.5496078431372549,0.592392156862745,1.0,10.0,0,0,F15203
4110497,21:44:25.500000,5.501666666666667,2024-06-05,599949.6611972674,5333332.565914907,17,N,21:44:25.500,48.14538656,-79.65631848,54785.45625,1,-3194,-37489,26009,-45.278,16.167,-31.831,0.28911,-0.98585,0.40126,42.288,178.5,I,,,,,,,,,,,,,,,,,,,,,,,,,,,,,,,,,,,,,,,,,,,,,,1,0.2905751633986927,0.5401960784313725,0.5946928104575163,1.0,10.0,0,0,F15203
4107997,21:44:23,5.46,2024-06-05,599949.2438876502,5333351.76706952,17,N,21:44:23.000,48.14555933,-79.65631958,54779.19135,1,-4308,-29279,30032,23.074,-8.409,31.341,0.27287,-0.60202,0.80023,42.306,179.9,G,0.51,2.0,12.0,380.9,-38.5,15.358,0.0, ,D,'$GNGGA,214423.0,4808.7333,N,7939.37918,W,2.0,12.0,0.51,380.9,M,-38.5,M,,0131*74','$GNRMC,214423.0,A,4808.7333,N,7939.37918,W,15.358,179.9,50624.0,,,D,V*26',,,,,,,,1,0.2838823529411764,0.5354901960784313,0.5958431372549019,1.0,10.0,0,0,F15203
4105497,21:44:20.500000,5.418333333333334,2024-06-05,599949.0001218757,5333370.53209848,17,N,21:44:20.500,48.14572815,-79.65631845,54768.85075,1,-3436,-29191,30177,4.393,-4.775,18.631,0.06205,-0.53972,0.8018,42.325,180.2,I,,,,,,,,,,,,,,,,,,,,,,,,,,,,,,,,,,,,,,,,,,,,,,1,0.2638039215686274,0.5213725490196077,0.5992941176470589,1.0,10.0,0,0,F15203
4102997,21:44:18,5.376666666666667,2024-06-05,599949.0652318168,5333388.695485446,17,N,21:44:18.000,48.14589151,-79.65631331,54761.70475,1,-3705,-31488,29026,15.535,9.084,20.982,0.0571,-0.61954,0.75262,42.331,183.6,G,0.51,2.0,12.0,379.2,-38.5,14.441,0.0, ,D,'$GNGGA,214418.0,4808.75323,N,7939.37883,W,2.0,12.0,0.51,379.2,M,-38.5,M,,0131*76','$GNRMC,214418.0,A,4808.75323,N,7939.37883,W,14.441,183.57,50624.0,,,D,V*29',,,,,,,,1,0.2504183006535947,0.5119607843137255,0.60159477124183,1.0,10.0,0,0,F15203
4100497,21:44:15.500000,5.335,2024-06-05,599949.4998021745,5333409.645922211,17,N,21:44:15.500,48.14607988,-79.65630255,54762.92165,1,-6586,-29311,29777,-4.706,-8.34,29.66,0.22439,-0.68142,0.70834,42.316,184.5,I,,,,,,,,,,,,,,,,,,,,,,,,,,,,,,,,,,,,,,,,,,,,,,1,0.257111111111111,0.5166666666666666,0.6004444444444444,1.0,10.0,0,0,F15203
4097997,21:44:13,5.293333333333334,2024-06-05,599950.2579460382,5333428.769778254,17,N,21:44:13.000,48.14625177,-79.65628787,54756.81195,1,-4607,-37202,25799,8.137,-13.978,-8.839,0.21062,-1.15501,0.38298,42.338,184.6,G,0.51,2.0,12.0,378.6,-38.5,14.669,0.0, ,D,'$GNGGA,214413.0,4808.77485,N,7939.37731,W,2.0,12.0,0.51,378.6,M,-38.5,M,,0131*77','$GNRMC,214413.0,A,4808.77485,N,7939.37731,W,14.669,184.57,50624.0,,,D,V*22',,,,,,,,1,0.2437254901960784,0.5072549019607843,0.6027450980392157,1.0,10.0,0,0,F15203
4095497,21:44:10.500000,5.251666666666667,2024-06-05,599950.2917314812,5333447.830948656,17,N,21:44:10.500,48.14642321,-79.65628294,54753.38745,1,-1967,-32481,28775,5.489,1.739,6.357,0.00071,-0.80562,0.53719,42.354,184.0,I,,,,,,,,,,,,,,,,,,,,,,,,,,,,,,,,,,,,,,,,,,,,,,1,0.2370326797385621,0.5025490196078432,0.6038954248366013,1.0,10.0,0,0,F15203
4092997,21:44:08,5.21,2024-06-05,599950.3444170342,5333468.961496864,17,N,21:44:08.000,48.14661326,-79.65627727,54755.27475,1,-911,-35486,27121,3.666,13.664,4.254,0.30766,-0.96897,0.50542,42.358,178.0,G,0.51,2.0,12.0,377.6,-38.5,15.318,0.0, ,D,'$GNGGA,214408.0,4808.79654,N,7939.37663,W,2.0,12.0,0.51,377.6,M,-38.5,M,,0131*74','$GNRMC,214408.0,A,4808.79654,N,7939.37663,W,15.318,178.01,50624.0,,,D,V*2C',,,,,,,,1,0.2437254901960784,0.5072549019607843,0.6027450980392157,1.0,10.0,0,0,F15203
4090497,21:44:05.500000,5.168333333333334,2024-06-05,599949.3830440306,5333486.979096225,17,N,21:44:05.500,48.14677547,-79.65628596,54770.12165,1,-1239,-24999,31765,0.38,10.12,20.16,0.06746,-0.34663,0.93659,42.352,176.4,I,,,,,,,,,,,,,,,,,,,,,,,,,,,,,,,,,,,,,,,,,,,,,,1,0.2638039215686274,0.5213725490196077,0.5992941176470589,1.0,10.0,0,0,F15203
4087997,21:44:03,5.126666666666667,2024-06-05,599949.2579751031,5333503.335835505,17,N,21:44:03.000,48.14692261,-79.6562838,54792.3719,1,-6510,-29628,29745,-16.797,3.503,-28.251,0.07279,-0.52127,0.63855,42.404,182.6,G,0.51,2.0,12.0,376.8,-38.5,10.858,0.0, ,D,'$GNGGA,214403.0,4808.8151,N,7939.37705,W,2.0,12.0,0.51,376.8,M,-38.5,M,,0131*75','$GNRMC,214403.0,A,4808.8151,N,7939.37705,W,10.858,182.61,50624.0,,,D,V*2B',,,,,,,,1,0.3039607843137255,0.5496078431372549,0.592392156862745,1.0,10.0,0,0,F15203
4085497,21:44:00.500000,5.085,2024-06-05,599948.9325431912,5333517.7034118455,17,N,21:44:00.500,48.14705189,-79.6562848,54804.1631,1,-954,-28874,30405,0.474,0.509,18.551,-0.02388,-0.55793,0.72684,42.387,182.3,I,,,,,,,,,,,,,,,,,,,,,,,,,,,,,,,,,,,,,,,,,,,,,,1,0.3173464052287582,0.5590196078431372,0.5900915032679738,1.0,10.0,0,0,F15203
4082997,21:43:58,5.043333333333334,2024-06-05,599949.4715377097,5333530.84421869,17,N,21:43:58.000,48.14717,-79.65627447,54829.43185,1,-4488,-29065,30192,4.54,3.032,-10.793,0.11593,-0.55629,0.82635,42.467,181.0,G,0.51,2.0,12.0,376.9,-38.5,10.306,0.0, ,D,'$GNGGA,214358.0,4808.82994,N,7939.37648,W,2.0,12.0,0.51,376.9,M,-38.5,M,,0131*76','$GNRMC,214358.0,A,4808.82994,N,7939.37648,W,10.306,181.02,50624.0,,,D,V*2F',,,,,,,,1,0.3575032679738562,0.5872549019607843,0.5831895424836602,1.0,10.0,0,0,F15203
4080497,21:43:55.500000,5.001666666666667,2024-06-05,599949.4495473038,5333545.005856682,17,N,21:43:55.500,48.14729738,-79.65627144,54845.16685,1,-4130,-30493,29570,9.732,1.833,9.456,0.14597,-0.66081,0.65871,42.434,183.3,I,,,,,,,,,,,,,,,,,,,,,,,,,,,,,,,,,,,,,,,,,,,,,,1,0.3842745098039215,0.606078431372549,0.5785882352941177,1.0,10.0,0,0,F15203
4077997,21:43:53,4.96,2024-06-05,599950.314984713,5333561.946918461,17,N,21:43:53.000,48.14744962,-79.65625583,54852.42535,1,-3063,-30272,29761,16.964,-1.799,-14.271,0.14008,-0.6661,0.68262,42.451,180.9,G,0.51,2.0,12.0,377.1,-38.5,13.308,0.0, ,D,'$GNGGA,214353.0,4808.84672,N,7939.37536,W,2.0,12.0,0.51,377.1,M,-38.5,M,,0131*7F','$GNRMC,214353.0,A,4808.84672,N,7939.37536,W,13.308,180.87,50624.0,,,D,V*2E',,,,,,,,1,0.3976601307189542,0.6154901960784314,0.5762875816993464,1.0,10.0,0,0,F15203
4075497,21:43:50.500000,4.918333333333334,2024-06-05,599949.2194992576,5333579.719805939,17,N,21:43:50.500,48.14760965,-79.65626638,54844.4353,1,-3527,-26816,31170,14.678,10.296,-10.751,0.11979,-0.6488,0.90721,42.445,178.6,I,,,,,,,,,,,,,,,,,,,,,,,,,,,,,,,,,,,,,,,,,,,,,,1,0.3842745098039215,0.606078431372549,0.5785882352941177,1.0,10.0,0,0,F15203
4072997,21:43:48,4.876666666666667,2024-06-05,599948.5173420457,5333596.869179425,17,N,21:43:48.000,48.14776401,-79.65627179,54820.3568,1,-3328,-33374,28365,14.496,1.007,-8.51,0.17816,-0.70697,0.81188,42.504,183.2,G,0.51,2.0,12.0,377.0,-38.5,13.453,0.0, ,D,'$GNGGA,214348.0,4808.86558,N,7939.37634,W,2.0,12.0,0.51,377.0,M,-38.5,M,,0131*7C','$GNRMC,214348.0,A,4808.86558,N,7939.37634,W,13.453,183.23,50624.0,,,D,V*28',,,,,,,,1,0.3441176470588235,0.577843137254902,0.5854901960784313,1.0,10.0,0,0,F15203
4070497,21:43:45.500000,4.835,2024-06-05,599949.2027354791,5333615.554836065,17,N,21:43:45.500,48.14793197,-79.65625819,54805.4955,1,-5339,-32044,28725,8.627,-3.503,4.985,0.20056,-0.69802,0.72718,42.502,183.3,I,,,,,,,,,,,,,,,,,,,,,,,,,,,,,,,,,,,,,,,,,,,,,,1,0.3240392156862745,0.5637254901960784,0.5889411764705882,1.0,10.0,0,0,F15203
4067997,21:43:43,4.793333333333334,2024-06-05,599949.87755898,5333635.568901954,17,N,21:43:43.000,48.14811188,-79.65624442,54791.76405,1,-4787,-31316,29176,-9.784,-5.133,2.592,0.0869,-0.98426,0.51406,42.545,181.3,G,0.51,2.0,12.0,375.7,-38.5,14.794,0.0, ,D,'$GNGGA,214343.0,4808.88646,N,7939.37468,W,2.0,12.0,0.51,375.7,M,-38.5,M,,0131*7B','$GNRMC,214343.0,A,4808.88646,N,7939.37468,W,14.794,181.32,50624.0,,,D,V*27',,,,,,,,1,0.2972679738562092,0.5449019607843137,0.5935424836601306,1.0,10.0,0,0,F15203
4065497,21:43:40.500000,4.751666666666667,2024-06-05,599949.9363393396,5333654.304760177,17,N,21:43:40.500,48.14828039,-79.65623923,54784.6406,1,-2116,-24409,31897,-12.117,-11.1,4.34,0.26486,-0.66497,0.67086,42.504,177.0,I,,,,,,,,,,,,,,,,,,,,,,,,,,,,,,,,,,,,,,,,,,,,,,1,0.2905751633986927,0.5401960784313725,0.5946928104575163,1.0,10.0,0,0,F15203
4062997,21:43:38,4.71,2024-06-05,599949.3465252045,5333674.690305677,17,N,21:43:38.000,48.14846384,-79.65624237,54786.9346,1,-1564,-25100,31700,2.564,4.345,12.931,-0.05624,-0.48184,0.90081,42.509,183.2,G,0.51,2.0,12.0,373.9,-38.5,16.259,0.0, ,D,'$GNGGA,214338.0,4808.90757,N,7939.37457,W,2.0,12.0,0.51,373.9,M,-38.5,M,,0131*7B','$GNRMC,214338.0,A,4808.90757,N,7939.37457,W,16.259,183.23,50624.0,,,D,V*2B',,,,,,,,1,0.2905751633986927,0.5401960784313725,0.5946928104575163,1.0,10.0,0,0,F15203
4060497,21:43:35.500000,4.668333333333334,2024-06-05,599949.0684400628,5333695.672772742,17,N,21:43:35.500,48.14865261,-79.65624118,54814.135,1,-6868,-23063,31684,5.203,3.673,3.213,0.25996,-0.4123,0.89481,42.556,186.3,I,,,,,,,,,,,,,,,,,,,,,,,,,,,,,,,,,,,,,,,,,,,,,,1,0.3374248366013072,0.5731372549019608,0.586640522875817,1.0,10.0,0,0,F15203
4057997,21:43:33,4.626666666666667,2024-06-05,599950.4501911396,5333716.573063574,17,N,21:43:33.000,48.14884038,-79.6562177,54834.21545,1,627,-24765,31953,14.63,-19.863,-13.654,0.12964,-0.44367,0.89541,42.546,170.9,G,0.51,2.0,12.0,373.6,-38.5,15.061,0.0, ,D,'$GNGGA,214333.0,4808.93017,N,7939.373,W,2.0,12.0,0.51,373.6,M,-38.5,M,,0131*7A','$GNRMC,214333.0,A,4808.93017,N,7939.373,W,15.061,170.85,50624.0,,,D,V*2F',,,,,,,,1,0.3641960784313725,0.5919607843137255,0.5820392156862746,1.0,10.0,0,0,F15203
4055497,21:43:30.500000,4.585,2024-06-05,599948.4156329082,5333733.800332489,17,N,21:43:30.500,48.14899565,-79.656241,54880.3345,1,-5083,-29936,29829,-0.816,1.166,4.166,0.11313,-0.66558,0.71412,42.55,178.2,I,,,,,,,,,,,,,,,,,,,,,,,,,,,,,,,,,,,,,,,,,,,,,,1,0.4378169934640523,0.6437254901960784,0.5693856209150326,1.0,10.0,0,0,F15203
4052997,21:43:28,4.543333333333334,2024-06-05,599948.2992146183,5333749.490153252,17,N,21:43:28.000,48.14913679,-79.65623888,54919.43915,1,-7414,-30714,29008,2.78,2.899,0.686,0.05539,-0.7362,0.69682,42.588,185.8,G,0.51,2.0,12.0,374.1,-38.5,13.344,0.0, ,D,'$GNGGA,214328.0,4808.94795,N,7939.37438,W,2.0,12.0,0.51,374.1,M,-38.5,M,,0131*76','$GNRMC,214328.0,A,4808.94795,N,7939.37438,W,13.344,185.82,50624.0,,,D,V*2C',,,,,,,,1,0.5047450980392156,0.6907843137254902,0.5578823529411765,1.0,10.0,0,0,F15203
4050497,21:43:25.500000,4.501666666666667,2024-06-05,599949.1114393454,5333765.896630748,17,N,21:43:25.500,48.14928423,-79.65622411,54954.9678,1,-5331,-30139,29772,-0.089,-6.05,13.683,0.20553,-0.65325,0.70217,42.563,180.2,I,,,,,,,,,,,,,,,,,,,,,,,,,,,,,,,,,,,,,,,,,,,,,,1,0.5582875816993463,0.7284313725490197,0.5486797385620915,1.0,10.0,0,0,F15203
4047997,21:43:23,4.46,2024-06-05,599949.6964868077,5333782.402536191,17,N,21:43:23.000,48.1494326,-79.65621237,54991.17325,1,-6283,-28003,30427,6.016,-3.414,7.031,0.11443,-0.41593,0.83379,42.579,186.5,G,0.51,2.0,12.0,374.1,-38.5,12.108,0.0, ,D,'$GNGGA,214323.0,4808.9657,N,7939.37279,W,2.0,12.0,0.51,374.1,M,-38.5,M,,0131*75','$GNRMC,214323.0,A,4808.9657,N,7939.37279,W,12.108,186.47,50624.0,,,D,V*2E',,,,,,,,1,0.5974509803921568,0.7477777777777778,0.5554901960784314,1.0,10.0,0,0,F15203
4045497,21:43:20.500000,4.418333333333334,2024-06-05,599949.0057304215,5333797.664288169,17,N,21:43:20.500,48.14956998,-79.65621807,55003.98455,1,-1527,-31412,29559,0.423,-0.97,6.008,0.12771,-0.62436,0.75291,42.593,178.4,I,,,,,,,,,,,,,,,,,,,,,,,,,,,,,,,,,,,,,,,,,,,,,,1,0.6106274509803922,0.7531111111111112,0.5597254901960785,1.0,10.0,0,0,F15203
4391597,21:49:06.600000,10.186666666666667,2024-06-05,599999.5869860149,5331720.036341381,17,N,21:49:06.600,48.13087483,-79.65602616,54737.2395,1,-15223,-28897,27564,5.576,-12.612,2.461,0.01228,-0.0818,1.005,40.537,1.0,I,,,,,,,,,,,,,,,,,,,,,,,,,,,,,,,,,,,,,,,,,,,,,,2,0.1901830065359477,0.4696078431372549,0.6119477124183006,1.0,10.0,0,0,F15303
4394097,21:49:09.100000,10.228333333333332,2024-06-05,599999.2370747445,5331739.127448116,17,N,21:49:09.100,48.1310466,-79.65602638,54729.47155,1,-3446,-32387,28780,4.947,3.095,-27.619,0.04511,-0.18124,0.97089,40.527,0.4,I,,,,,,,,,,,,,,,,,,,,,,,,,,,,,,,,,,,,,,,,,,,,,,2,0.176797385620915,0.4601960784313725,0.6142483660130719,1.0,10.0,0,0,F15303
4396597,21:49:11.600000,10.27,2024-06-05,599999.4490234028,5331759.798219445,17,N,21:49:11.600,48.13123249,-79.65601868,54740.6705,1,-3162,-32783,28559,-19.344,-9.868,33.695,-0.17232,-0.27012,0.9839,40.51,0.9,I,,,,,,,,,,,,,,,,,,,,,,,,,,,,,,,,,,,,,,,,,,,,,,2,0.196875816993464,0.474313725490196,0.610797385620915,1.0,10.0,0,0,F15303
4399097,21:49:14.100000,10.311666666666667,2024-06-05,599998.3205089441,5331778.980232697,17,N,21:49:14.100,48.1314052,-79.65602934,54757.79575,1,-6825,-31979,28496,22.035,13.29,-4.508,-0.06646,-0.29071,0.96399,40.498,360.0,I,,,,,,,,,,,,,,,,,,,,,,,,,,,,,,,,,,,,,,,,,,,,,,2,0.2236470588235294,0.4931372549019607,0.6061960784313726,1.0,10.0,0,0,F15303
4401597,21:49:16.600000,10.353333333333332,2024-06-05,599999.4124983507,5331799.333955312,17,N,21:49:16.600,48.1315881,-79.65600989,54759.17485,1,-1409,-39071,24898,-0.58,16.229,-11.623,-0.15791,-0.27372,0.9392,40.521,1.9,I,,,,,,,,,,,,,,,,,,,,,,,,,,,,,,,,,,,,,,,,,,,,,,2,0.2236470588235294,0.4931372549019607,0.6061960784313726,1.0,10.0,0,0,F15303
4404097,21:49:19.100000,10.395,2024-06-05,599998.6170109079,5331818.0704010725,17,N,21:49:19.100,48.13175675,-79.65601618,54777.19675,1,-5614,-37217,25707,13.988,1.078,3.41,0.01296,-0.41683,0.9151,40.51,359.9,I,,,,,,,,,,,,,,,,,,,,,,,,,,,,,,,,,,,,,,,,,,,,,,2,0.2504183006535947,0.5119607843137255,0.60159477124183,1.0,10.0,0,0,F15303
4406597,21:49:21.600000,10.436666666666667,2024-06-05,599998.9881486766,5331838.617212264,17,N,21:49:21.600,48.1319415,-79.65600637,54797.9674,1,-11131,-35721,25593,-3.126,1.783,-5.835,-0.00692,-0.19652,0.98486,40.508,0.8,I,,,,,,,,,,,,,,,,,,,,,,,,,,,,,,,,,,,,,,,,,,,,,,2,0.2838823529411764,0.5354901960784313,0.5958431372549019,1.0,10.0,0,0,F15303
4409097,21:49:24.100000,10.478333333333332,2024-06-05,599998.6325679123,5331859.054601666,17,N,21:49:24.100,48.13212538,-79.65600635,54797.5032,1,-3121,-34852,27626,-2.175,-6.758,-13.937,-0.069,-0.34749,0.88494,40.498,1.5,I,,,,,,,,,,,,,,,,,,,,,,,,,,,,,,,,,,,,,,,,,,,,,,2,0.2838823529411764,0.5354901960784313,0.5958431372549019,1.0,10.0,0,0,F15303
4411597,21:49:26.600000,10.52,2024-06-05,599998.6647853156,5331878.594881476,17,N,21:49:26.600,48.13230113,-79.65600133,54805.63895,1,-1949,-33819,28281,-6.831,5.183,3.637,-0.15077,-0.2229,0.91324,40.428,1.0,I,,,,,,,,,,,,,,,,,,,,,,,,,,,,,,,,,,,,,,,,,,,,,,2,0.2972679738562092,0.5449019607843137,0.5935424836601306,1.0,10.0,0,0,F15303
4414097,21:49:29.100000,10.561666666666667,2024-06-05,599998.5928407451,5331899.112829474,17,N,21:49:29.100,48.13248569,-79.65599748,54825.35375,1,-8318,-32533,28078,1.972,-0.902,-10.561,-0.08067,-0.26467,0.96379,40.48,2.1,I,,,,,,,,,,,,,,,,,,,,,,,,,,,,,,,,,,,,,,,,,,,,,,2,0.3307320261437909,0.5684313725490195,0.5877908496732026,1.0,10.0,0,0,F15303
4416597,21:49:31.600000,10.603333333333332,2024-06-05,599998.9160623539,5331919.078451768,17,N,21:49:31.600,48.13266522,-79.65598845,54828.5424,1,-4950,-34119,27823,0.932,-8.147,11.116,-0.06088,-0.21502,0.83526,40.484,357.9,I,,,,,,,,,,,,,,,,,,,,,,,,,,,,,,,,,,,,,,,,,,,,,,2,0.3374248366013072,0.5731372549019608,0.586640522875817,1.0,10.0,0,0,F15303
4419097,21:49:34.100000,10.645,2024-06-05,599998.3038158325,5331938.487400228,17,N,21:49:34.100,48.13283989,-79.65599212,54836.1142,1,-3912,-37969,25611,-5.059,1.312,-7.802,-0.11047,-0.32842,0.91309,40.492,2.4,I,,,,,,,,,,,,,,,,,,,,,,,,,,,,,,,,,,,,,,,,,,,,,,2,0.3441176470588235,0.577843137254902,0.5854901960784313,1.0,10.0,0,0,F15303
4421597,21:49:36.600000,10.686666666666667,2024-06-05,599998.9975928311,5331957.817995011,17,N,21:49:36.600,48.13301365,-79.65597826,54844.2715,1,-4094,-37507,25934,-0.698,-9.073,0.557,-0.10611,-0.3191,0.94871,40.473,5.2,I,,,,,,,,,,,,,,,,,,,,,,,,,,,,,,,,,,,,,,,,,,,,,,2,0.3575032679738562,0.5872549019607843,0.5831895424836602,1.0,10.0,0,0,F15303
4424097,21:49:39.100000,10.728333333333332,2024-06-05,599999.5712909648,5331977.205417507,17,N,21:49:39.100,48.13318794,-79.655966,54847.6919,1,-4378,-36306,26556,-1.757,-6.145,5.421,0.03453,-0.28013,0.92315,40.43,359.4,I,,,,,,,,,,,,,,,,,,,,,,,,,,,,,,,,,,,,,,,,,,,,,,2,0.3641960784313725,0.5919607843137255,0.5820392156862746,1.0,10.0,0,0,F15303
4426597,21:49:41.600000,10.77,2024-06-05,599999.9488754411,5331997.806825032,17,N,21:49:41.600,48.13337318,-79.65595609,54846.0889,1,-6810,-32128,28530,3.09,6.011,-1.569,-0.07761,-0.10863,0.87254,40.475,3.9,I,,,,,,,,,,,,,,,,,,,,,,,,,,,,,,,,,,,,,,,,,,,,,,2,0.3641960784313725,0.5919607843137255,0.5820392156862746,1.0,10.0,0,0,F15303
4429097,21:49:44.100000,10.811666666666667,2024-06-05,599999.7270073034,5332018.172065911,17,N,21:49:44.100,48.13355639,-79.65595429,54830.15045,1,-2734,-36392,26804,9.462,-14.2,-5.223,0.03,-0.33302,0.99455,40.461,357.9,I,,,,,,,,,,,,,,,,,,,,,,,,,,,,,,,,,,,,,,,,,,,,,,2,0.3374248366013072,0.5731372549019608,0.586640522875817,1.0,10.0,0,0,F15303
4431597,21:49:46.600000,10.853333333333332,2024-06-05,599999.9839297452,5332037.5005898345,17,N,21:49:46.600,48.1337302,-79.6559463,54826.15655,1,-3936,-30268,29755,-1.56,0.095,18.241,-0.07011,-0.02853,0.86333,40.44,3.5,I,,,,,,,,,,,,,,,,,,,,,,,,,,,,,,,,,,,,,,,,,,,,,,2,0.3307320261437909,0.5684313725490195,0.5877908496732026,1.0,10.0,0,0,F15303
4434097,21:49:49.100000,10.895,2024-06-05,600000.23178431,5332058.625609935,17,N,21:49:49.100,48.13392017,-79.65593801,54831.96055,1,-6367,-32596,28303,3.68,-2.24,-1.599,0.01595,-0.13539,0.98181,40.49,2.6,I,,,,,,,,,,,,,,,,,,,,,,,,,,,,,,,,,,,,,,,,,,,,,,2,0.3374248366013072,0.5731372549019608,0.586640522875817,1.0,10.0,0,0,F15303
4436597,21:49:51.600000,10.936666666666667,2024-06-05,600000.4804884398,5332077.784999493,17,N,21:49:51.600,48.13409246,-79.65593017,54835.07385,1,-2628,-34769,27681,2.373,2.561,8.381,0.02849,-0.2813,0.92364,40.426,358.1,I,,,,,,,,,,,,,,,,,,,,,,,,,,,,,,,,,,,,,,,,,,,,,,2,0.3441176470588235,0.577843137254902,0.5854901960784313,1.0,10.0,0,0,F15303
4439097,21:49:54.100000,10.978333333333332,2024-06-05,599999.8296069797,5332097.530150128,17,N,21:49:54.100,48.13427016,-79.65593428,54862.7508,1,-8305,-33805,27475,8.442,-9.126,-1.525,0.05164,-0.16088,1.00184,40.446,2.5,I,,,,,,,,,,,,,,,,,,,,,,,,,,,,,,,,,,,,,,,,,,,,,,2,0.3909673202614379,0.6107843137254901,0.577437908496732,1.0,10.0,0,0,F15303
4441597,21:49:56.600000,11.02,2024-06-05,600000.5004987492,5332117.784249362,17,N,21:49:56.600,48.13445223,-79.65592051,54891.9153,1,-3684,-34948,27574,-2.818,-4.715,-14.59,-0.00554,-0.23169,0.97041,40.435,1.5,I,,,,,,,,,,,,,,,,,,,,,,,,,,,,,,,,,,,,,,,,,,,,,,2,0.4378169934640523,0.6437254901960784,0.5693856209150326,1.0,10.0,0,0,F15303
4444097,21:49:59.100000,11.061666666666667,2024-06-05,599999.7590706178,5332137.302125475,17,N,21:49:59.100,48.1346279,-79.65592589,54933.5255,1,-6438,-32502,28516,2.438,-0.204,-20.615,0.00637,-0.2022,1.00082,40.413,356.9,I,,,,,,,,,,,,,,,,,,,,,,,,,,,,,,,,,,,,,,,,,,,,,,2,0.5047450980392156,0.6907843137254902,0.5578823529411765,1.0,10.0,0,0,F15303
