Counter,UTC_time_stamps,elapsed_time_minutes,Date,UTME,UTMN,UTM_zone,UTM_letter,Time,Latitude,Longitude,Mag_TMI_nT,Mag_Lock,CompassX,CompassY,CompassZ,GyroscopeX,GyroscopeY,GyroscopeZ,AccelerometerX,AccelerometerY,AccelerometerZ,ImuTemperature,Track,LocationSource,Hdop,FixQuality,SatellitesUsed,Altitude,HeightOverEllipsoid,SpeedOverGround,MagneticVariation,VariationDirection,ModeIndicator,GgaSentence,RmcSentence,EventCode,EventInfo,EventDataLength,EventData,uk1,uk2,uk3,uk4,uk5,uk6,uk7,uk8,uk9,uk10,uk11,uk12,uk13,uk14,uk15,uk16,uk17,uk18,uk19,uk20,uk21,uk22,uk23,uk24,uk25,uk26,uk27,uk28,uk29,uk30,Flightline,r,g,b,a,size,range_noise,noise_bad
3422324,19:40:14.500000,9.768333333333334,2024-06-05,599400.0466786646,5331706.577027396,17,N,19:40:14.500,48.1308477,-79.66408472,54679.0414,1,-3190,-32359,28620,0.658,4.506,22.79,-0.01,-0.0101,0.98584,42.452,2.5,I,,,,,,,,,,,,,,,,,,,,,,,,,,,,,,,,,,,,,,,,,,,,,,1,0.14333333333333334,0.4366666666666666,0.62,1.0,10.0,0,0
3425824,19:40:18,9.826666666666666,2024-06-05,599399.5910773515,5331734.18366906,17,N,19:40:18.000,48.13109608,-79.6640844,54692.906,1,-2066,-31819,29044,0.59,-7.632,8.476,0.03806,-0.0394,0.93372,42.375,2.6,G,0.53,2.0,12.0,386.8,-38.5,13.879,0.0, ,D,'$GNGGA,194018.0,4807.86602,N,7939.84504,W,2.0,12.0,0.53,386.8,M,-38.5,M,,0131*7E','$GNRMC,194018.0,A,4807.86602,N,7939.84504,W,13.879,2.61,50624.0,,,D,V*24',,,,,,,,1,0.16341176470588237,0.45078431372549016,0.616549019607843,1.0,10.0,0,0
3429324,19:40:21.500000,9.885,2024-06-05,599399.4921704605,5331762.379082491,17,N,19:40:21.500,48.1313497,-79.66407915,54706.98965,1,-1239,-30797,29570,-2.41,0.023,14.339,0.05922,-0.16183,0.9657,42.412,1.0,I,,,,,,,,,,,,,,,,,,,,,,,,,,,,,,,,,,,,,,,,,,,,,,1,0.18349019607843137,0.46490196078431373,0.6130980392156862,1.0,10.0,0,0
3432824,19:40:25,9.943333333333333,2024-06-05,599399.5422116887,5331790.225759321,17,N,19:40:25.000,48.13160016,-79.66407198,54720.16195,1,-2368,-31249,29210,-0.497,-2.579,22.864,0.02635,-0.2142,0.93526,42.313,0.4,G,0.53,2.0,12.0,395.0,-38.5,15.845,0.0, ,D,'$GNGGA,194025.0,4807.89627,N,7939.84431,W,2.0,12.0,0.53,395.0,M,-38.5,M,,0131*75','$GNRMC,194025.0,A,4807.89627,N,7939.84431,W,15.845,0.39,50624.0,,,D,V*23',,,,,,,,1,0.2035686274509804,0.4790196078431372,0.6096470588235293,1.0,10.0,0,0
3436324,19:40:28.500000,10.001666666666667,2024-06-05,599399.3537380745,5331817.49238978,17,N,19:40:28.500,48.13184544,-79.66406815,54739.26455,1,477,-33723,28197,-9.266,-8.01,20.071,-0.04923,-0.21093,0.96259,42.404,0.3,I,,,,,,,,,,,,,,,,,,,,,,,,,,,,,,,,,,,,,,,,,,,,,,1,0.2370326797385621,0.5025490196078432,0.6038954248366013,1.0,10.0,0,0
3439824,19:40:32,10.06,2024-06-05,599399.674623818,5331845.47051652,17,N,19:40:32.000,48.13209704,-79.66405731,54754.8855,1,-1130,-33253,28390,-1.888,-2.919,10.263,-0.06309,-0.14878,0.96264,42.316,1.5,G,0.53,2.0,12.0,398.7,-38.5,16.181,0.0, ,D,'$GNGGA,194032.0,4807.92608,N,7939.84342,W,2.0,12.0,0.53,398.7,M,-38.5,M,,0131*7D','$GNRMC,194032.0,A,4807.92608,N,7939.84342,W,16.181,1.51,50624.0,,,D,V*2C',,,,,,,,1,0.2638039215686274,0.5213725490196077,0.5992941176470589,1.0,10.0,0,0
3443324,19:40:35.500000,10.118333333333334,2024-06-05,599399.5621483028,5331873.374411345,17,N,19:40:35.500,48.13234804,-79.66405231,54777.39575,1,-1384,-34784,27721,-7.834,-5.917,5.627,-0.03614,-0.1561,0.99507,42.336,2.6,I,,,,,,,,,,,,,,,,,,,,,,,,,,,,,,,,,,,,,,,,,,,,,,1,0.2972679738562092,0.5449019607843137,0.5935424836601306,1.0,10.0,0,0
3446824,19:40:39,10.176666666666668,2024-06-05,599399.5780140741,5331901.687450328,17,N,19:40:39.000,48.1326027,-79.66404549,54800.6442,1,-251,-32756,28709,-2.935,-1.141,-4.462,0.01701,-0.16826,0.97751,42.284,3.4,G,0.5,2.0,12.0,400.6,-38.5,14.949,0.0, ,D,'$GNGGA,194039.0,4807.95642,N,7939.8427,W,2.0,12.0,0.5,400.6,M,-38.5,M,,0131*7B','$GNRMC,194039.0,A,4807.95642,N,7939.8427,W,14.949,3.37,50624.0,,,D,V*22',,,,,,,,1,0.3374248366013072,0.5731372549019608,0.586640522875817,1.0,10.0,0,0
3450324,19:40:42.500000,10.235000000000001,2024-06-05,599399.5729597486,5331929.833359294,17,N,19:40:42.500,48.13285586,-79.66403899,54830.19305,1,982,-31286,29391,9.862,0.862,7.142,0.01662,-0.20896,0.9116,42.37,0.4,I,,,,,,,,,,,,,,,,,,,,,,,,,,,,,,,,,,,,,,,,,,,,,,1,0.3842745098039215,0.606078431372549,0.5785882352941177,1.0,10.0,0,0
3453824,19:40:46,10.293333333333333,2024-06-05,599399.9412367524,5331957.909040044,17,N,19:40:46.000,48.13310833,-79.66402749,54859.15975,1,-2894,-30094,29948,-2.155,6.611,21.302,0.00502,-0.17039,0.97246,42.3,358.8,G,0.5,2.0,12.0,401.4,-38.5,16.901,0.0, ,D,'$GNGGA,194046.0,4807.98676,N,7939.84165,W,2.0,12.0,0.5,401.4,M,-38.5,M,,0131*7D','$GNRMC,194046.0,A,4807.98676,N,7939.84165,W,16.901,358.81,50624.0,,,D,V*29',,,,,,,,1,0.43112418300653604,0.6390196078431373,0.5705359477124182,1.0,10.0,0,0
3457324,19:40:49.500000,10.351666666666667,2024-06-05,599399.8070806526,5331985.260005386,17,N,19:40:49.500,48.13335436,-79.66402291,54883.638,1,-5444,-30662,29423,-2.469,-1.04,8.531,-0.02024,-0.09144,0.99309,42.322,1.2,I,,,,,,,,,,,,,,,,,,,,,,,,,,,,,,,,,,,,,,,,,,,,,,1,0.47128104575163404,0.6672549019607843,0.5636339869281046,1.0,10.0,0,0
3460824,19:40:53,10.41,2024-06-05,599399.826085801,5332013.004981032,17,N,19:40:53.000,48.13360391,-79.66401618,54907.0437,1,-5506,-30909,29224,-1.109,0.65,-3.763,0.00261,-0.04766,0.98274,42.299,2.0,G,0.5,2.0,12.0,401.5,-38.5,15.292,0.0, ,D,'$GNGGA,194053.0,4808.01649,N,7939.84095,W,2.0,12.0,0.5,401.5,M,-38.5,M,,0131*75','$GNRMC,194053.0,A,4808.01649,N,7939.84095,W,15.292,1.99,50624.0,,,D,V*24',,,,,,,,1,0.511437908496732,0.6954901960784313,0.5567320261437909,1.0,10.0,0,0
3464324,19:40:56.500000,10.468333333333334,2024-06-05,599399.7141657833,5332041.089002731,17,N,19:40:56.500,48.13385653,-79.66401113,54928.0467,1,-3359,-31096,29493,0.414,-1.526,-9.833,0.04016,-0.07818,0.99417,42.352,1.6,I,,,,,,,,,,,,,,,,,,,,,,,,,,,,,,,,,,,,,,,,,,,,,,1,0.5449019607843137,0.7190196078431372,0.5509803921568628,1.0,10.0,0,0
3467824,19:41:00,10.526666666666667,2024-06-05,599399.7613784499,5332069.180236667,17,N,19:41:00.000,48.13410919,-79.66400394,54939.72215,1,-2061,-31371,29507,-4.179,2.704,-5.038,0.06793,-0.15651,0.97266,42.283,1.5,G,0.5,2.0,12.0,399.8,-38.5,14.745,0.0, ,D,'$GNGGA,194100.0,4808.04681,N,7939.84022,W,2.0,12.0,0.5,399.8,M,-38.5,M,,0131*74','$GNRMC,194100.0,A,4808.04681,N,7939.84022,W,14.745,1.52,50624.0,,,D,V*27',,,,,,,,1,0.5649803921568627,0.7331372549019607,0.5475294117647059,1.0,10.0,0,0
3471324,19:41:03.500000,10.585,2024-06-05,599399.6522052228,5332097.019715474,17,N,19:41:03.500,48.13435961,-79.66399891,54947.24275,1,-2090,-31389,29434,0.143,-3.916,3.136,0.07016,-0.17279,0.98948,42.37,0.4,I,,,,,,,,,,,,,,,,,,,,,,,,,,,,,,,,,,,,,,,,,,,,,,1,0.5710980392156861,0.7371111111111112,0.5470196078431373,1.0,10.0,0,0
3474824,19:41:07,10.643333333333334,2024-06-05,599399.6749751414,5332124.417884037,17,N,19:41:07.000,48.13460604,-79.66399221,54965.23825,1,-953,-32848,28744,3.342,2.034,5.81,-0.012,-0.12847,0.94409,42.333,359.3,G,0.5,2.0,12.0,397.8,-38.5,15.761,0.0, ,D,'$GNGGA,194107.0,4808.07662,N,7939.83953,W,2.0,12.0,0.5,397.8,M,-38.5,M,,0131*7B','$GNRMC,194107.0,A,4808.07662,N,7939.83953,W,15.761,359.27,50624.0,,,D,V*2D',,,,,,,,1,0.5930588235294117,0.746,0.554078431372549,1.0,10.0,0,0
3478324,19:41:10.500000,10.701666666666666,2024-06-05,599399.2644071723,5332152.213218085,17,N,19:41:10.500,48.13485611,-79.66399124,54985.1468,1,-4125,-33855,28217,2.406,0.36,3.522,0.00745,-0.15052,0.96752,42.336,0.4,I,,,,,,,,,,,,,,,,,,,,,,,,,,,,,,,,,,,,,,,,,,,,,,1,0.6150196078431371,0.7548888888888888,0.5611372549019608,1.0,10.0,0,0
3481824,19:41:14,10.76,2024-06-05,599399.4391453492,5332180.373379348,17,N,19:41:14.000,48.13510937,-79.66398232,54986.3013,1,-4018,-33600,28307,-1.124,-1.179,3.401,-0.03095,-0.19101,0.95472,42.367,0.3,G,0.5,2.0,12.0,395.1,-38.5,15.171,0.0, ,D,'$GNGGA,194114.0,4808.10682,N,7939.83893,W,2.0,12.0,0.5,395.1,M,-38.5,M,,0131*77','$GNRMC,194114.0,A,4808.10682,N,7939.83893,W,15.171,0.34,50624.0,,,D,V*20',,,,,,,,1,0.6150196078431371,0.7548888888888888,0.5611372549019608,1.0,10.0,0,0
3485324,19:41:17.500000,10.818333333333333,2024-06-05,599399.574791596,5332208.512850845,17,N,19:41:17.500,48.13536245,-79.66397393,54955.7417,1,-4293,-33509,28214,4.078,3.698,-4.912,-0.02272,-0.21902,0.96115,42.365,2.1,I,,,,,,,,,,,,,,,,,,,,,,,,,,,,,,,,,,,,,,,,,,,,,,1,0.5842745098039215,0.7424444444444445,0.5512549019607843,1.0,10.0,0,0
3488824,19:41:21,10.876666666666667,2024-06-05,599399.559101144,5332236.538516417,17,N,19:41:21.000,48.13561453,-79.6639676,54933.64925,1,-3535,-33209,28457,2.894,0.536,-1.931,0.02151,-0.18216,0.95622,42.355,2.9,G,0.5,2.0,12.0,392.8,-38.5,15.619,0.0, ,D,'$GNGGA,194121.0,4808.13713,N,7939.83803,W,2.0,12.0,0.5,392.8,M,-38.5,M,,0131*7C','$GNRMC,194121.0,A,4808.13713,N,7939.83803,W,15.619,2.9,50624.0,,,D,V*20',,,,,,,,1,0.55159477124183,0.7237254901960785,0.5498300653594771,1.0,10.0,0,0
3492324,19:41:24.500000,10.935,2024-06-05,599399.6063329205,5332264.583064792,17,N,19:41:24.500,48.13586677,-79.66396042,54938.145,1,-2395,-32780,28790,-2.252,-4.139,5.735,0.0474,-0.17757,0.99108,42.365,0.5,I,,,,,,,,,,,,,,,,,,,,,,,,,,,,,,,,,,,,,,,,,,,,,,1,0.5582875816993463,0.7284313725490197,0.5486797385620915,1.0,10.0,0,0
3495824,19:41:28,10.993333333333334,2024-06-05,599399.6012883012,5332292.166426436,17,N,19:41:28.000,48.13611487,-79.66395405,54957.3103,1,-3630,-34383,27990,0.256,-9.136,14.979,0.06282,-0.19524,0.95254,42.367,359.7,G,0.5,2.0,12.0,391.2,-38.5,15.161,0.0, ,D,'$GNGGA,194128.0,4808.16715,N,7939.83724,W,2.0,12.0,0.5,391.2,M,-38.5,M,,0131*75','$GNRMC,194128.0,A,4808.16715,N,7939.83724,W,15.161,359.67,50624.0,,,D,V*2D',,,,,,,,1,0.5842745098039215,0.7424444444444445,0.5512549019607843,1.0,10.0,0,0
3499324,19:41:31.500000,11.051666666666668,2024-06-05,599399.9570703899,5332320.355310193,17,N,19:41:31.500,48.13636836,-79.66394269,54965.7569,1,-4688,-33608,28161,3.931,-3.858,14.777,0.01612,-0.23527,0.96166,42.405,359.2,I,,,,,,,,,,,,,,,,,,,,,,,,,,,,,,,,,,,,,,,,,,,,,,1,0.5930588235294117,0.746,0.554078431372549,1.0,10.0,0,0
3502824,19:41:35,11.110000000000001,2024-06-05,599399.8403885093,5332347.981206881,17,N,19:41:35.000,48.13661686,-79.66393781,54963.3896,1,-3991,-35645,27128,-3.674,-6.425,10.972,0.00291,-0.26097,0.9433,42.427,1.6,G,0.5,2.0,12.0,390.0,-38.5,15.648,0.0, ,D,'$GNGGA,194135.0,4808.19727,N,7939.83625,W,2.0,12.0,0.5,390.0,M,-38.5,M,,0131*74','$GNRMC,194135.0,A,4808.19727,N,7939.83625,W,15.648,1.64,50624.0,,,D,V*2E',,,,,,,,1,0.5886666666666667,0.7442222222222222,0.5526666666666668,1.0,10.0,0,0
3506324,19:41:38.500000,11.168333333333333,2024-06-05,599399.4696220901,5332376.010717565,17,N,19:41:38.500,48.13686903,-79.66393625,54949.6037,1,-1667,-34850,27866,-0.743,-3.484,6.989,-0.02285,-0.22726,0.95746,42.42,1.2,I,,,,,,,,,,,,,,,,,,,,,,,,,,,,,,,,,,,,,,,,,,,,,,1,0.5754901960784313,0.7388888888888889,0.5484313725490196,1.0,10.0,0,0
3509824,19:41:42,11.226666666666667,2024-06-05,599399.6664779988,5332403.922233304,17,N,19:41:42.000,48.13712005,-79.66392709,54930.49195,1,-2661,-34313,28058,-1.869,1.16,4.475,0.02593,-0.15805,0.97981,42.408,2.7,G,0.5,2.0,12.0,389.1,-38.5,15.565,0.0, ,D,'$GNGGA,194142.0,4808.22746,N,7939.8356,W,2.0,12.0,0.5,389.1,M,-38.5,M,,0131*70','$GNRMC,194142.0,A,4808.22746,N,7939.8356,W,15.565,2.69,50624.0,,,D,V*21',,,,,,,,1,0.5449019607843137,0.7190196078431372,0.5509803921568628,1.0,10.0,0,0
3513324,19:41:45.500000,11.285,2024-06-05,599399.8077131184,5332431.865026128,17,N,19:41:45.500,48.13737136,-79.66391867,54921.0789,1,-1916,-34749,27756,1.953,0.32,9.462,0.03782,-0.16695,0.98383,42.428,2.0,I,,,,,,,,,,,,,,,,,,,,,,,,,,,,,,,,,,,,,,,,,,,,,,1,0.531516339869281,0.7096078431372549,0.553281045751634,1.0,10.0,0,0
3516824,19:41:49,11.343333333333334,2024-06-05,599399.9595718031,5332460.052598169,17,N,19:41:49.000,48.13762487,-79.66391005,54921.10405,1,-3282,-34160,27964,6.785,-1.167,7.656,0.08286,-0.18188,0.96295,42.438,1.0,G,0.5,2.0,12.0,389.8,-38.5,14.889,0.0, ,D,'$GNGGA,194149.0,4808.25775,N,7939.83459,W,2.0,12.0,0.5,389.8,M,-38.5,M,,0131*7E','$GNRMC,194149.0,A,4808.25775,N,7939.83459,W,14.889,1.04,50624.0,,,D,V*20',,,,,,,,1,0.531516339869281,0.7096078431372549,0.553281045751634,1.0,10.0,0,0
3520324,19:41:52.500000,11.401666666666667,2024-06-05,599399.9240347123,5332488.189109587,17,N,19:41:52.500,48.13787795,-79.66390396,54931.60875,1,-2832,-33635,28320,-0.639,-2.968,14.363,0.05618,-0.20728,0.96419,42.457,0.9,I,,,,,,,,,,,,,,,,,,,,,,,,,,,,,,,,,,,,,,,,,,,,,,1,0.55159477124183,0.7237254901960785,0.5498300653594771,1.0,10.0,0,0
3523824,19:41:56,11.46,2024-06-05,599399.7414936046,5332515.877241812,17,N,19:41:56.000,48.13812702,-79.66389995,54948.5785,1,-2482,-34660,27727,-1.083,-3.898,9.678,0.04312,-0.20924,0.95547,42.449,1.5,G,0.5,2.0,12.0,391.0,-38.5,15.682,0.0, ,D,'$GNGGA,194156.0,4808.28788,N,7939.83398,W,2.0,12.0,0.5,391.0,M,-38.5,M,,0131*74','$GNRMC,194156.0,A,4808.28788,N,7939.83398,W,15.682,1.47,50624.0,,,D,V*28',,,,,,,,1,0.5754901960784313,0.7388888888888889,0.5484313725490196,1.0,10.0,0,0
3527324,19:41:59.500000,11.518333333333334,2024-06-05,599399.6120966648,5332543.633005687,17,N,19:41:59.500,48.13837669,-79.66389521,54968.2342,1,-2136,-35454,27341,3.446,-2.421,0.289,0.02432,-0.20613,0.98511,42.487,0.2,I,,,,,,,,,,,,,,,,,,,,,,,,,,,,,,,,,,,,,,,,,,,,,,1,0.5974509803921568,0.7477777777777778,0.5554901960784314,1.0,10.0,0,0
3530824,19:42:03,11.576666666666666,2024-06-05,599399.3718933444,5332571.812660878,17,N,19:42:03.000,48.13863019,-79.66389186,54987.3032,1,-1404,-33262,28614,-3.236,0.963,-4.243,-0.03301,-0.18085,0.97882,42.494,359.3,G,0.5,2.0,12.0,390.1,-38.5,15.491,0.0, ,D,'$GNGGA,194203.0,4808.31807,N,7939.83351,W,2.0,12.0,0.5,390.1,M,-38.5,M,,0131*72','$GNRMC,194203.0,A,4808.31807,N,7939.83351,W,15.491,359.34,50624.0,,,D,V*24',,,,,,,,1,0.6150196078431371,0.7548888888888888,0.5611372549019608,1.0,10.0,0,0
3534324,19:42:06.500000,11.635,2024-06-05,599399.8208134449,5332599.904227016,17,N,19:42:06.500,48.13888279,-79.66387927,55014.61275,1,-4633,-33434,28334,-10.65,9.222,-2.639,0.01899,-0.191,0.95688,42.52,2.9,I,,,,,,,,,,,,,,,,,,,,,,,,,,,,,,,,,,,,,,,,,,,,,,1,0.6457647058823529,0.7673333333333333,0.5710196078431373,1.0,10.0,0,0
3537824,19:42:10,11.693333333333333,2024-06-05,599399.5623774517,5332627.462078474,17,N,19:42:10.000,48.1391307,-79.66387631,55057.98445,1,-2453,-35553,27401,6.335,-3.109,-2.694,0.04273,-0.21264,0.98072,42.529,0.4,G,0.5,2.0,12.0,388.3,-38.5,15.869,0.0, ,D,'$GNGGA,194210.0,4808.3481,N,7939.83257,W,2.0,12.0,0.5,388.3,M,-38.5,M,,0131*7F','$GNRMC,194210.0,A,4808.3481,N,7939.83257,W,15.869,0.35,50624.0,,,D,V*27',,,,,,,,1,0.6896862745098039,0.7851111111111111,0.5851372549019608,1.0,10.0,0,0
3541324,19:42:13.500000,11.751666666666667,2024-06-05,599399.2682068372,5332655.491820394,17,N,19:42:13.500,48.13938286,-79.66387372,55117.2495,1,-3499,-36074,27070,-2.197,-1.115,4.019,-0.00651,-0.26372,1.0082,42.545,358.8,I,,,,,,,,,,,,,,,,,,,,,,,,,,,,,,,,,,,,,,,,,,,,,,1,0.7555686274509803,0.8117777777777777,0.606313725490196,1.0,10.0,0,0
3544824,19:42:17,11.81,2024-06-05,599399.5174444095,5332683.125200476,17,N,19:42:17.000,48.13963137,-79.66386392,55191.20415,1,-4843,-34483,27960,-2.526,2.599,1.126,-0.02998,-0.19083,0.95767,42.551,1.0,G,0.5,2.0,12.0,385.0,-38.5,15.382,0.0, ,D,'$GNGGA,194217.0,4808.37814,N,7939.83182,W,2.0,12.0,0.5,385.0,M,-38.5,M,,0131*7A','$GNRMC,194217.0,A,4808.37814,N,7939.83182,W,15.382,0.95,50624.0,,,D,V*28',,,,,,,,1,0.8346274509803921,0.8437777777777777,0.6317254901960784,1.0,10.0,0,0
3548324,19:42:20.500000,11.868333333333334,2024-06-05,599399.4123324903,5332711.065950679,17,N,19:42:20.500,48.1398827,-79.66385881,55280.61625,1,-2045,-35253,27783,4.653,-8.941,12.314,-0.04028,-0.20141,0.97573,42.6,1.8,I,,,,,,,,,,,,,,,,,,,,,,,,,,,,,,,,,,,,,,,,,,,,,,1,0.8481699346405229,0.7758823529411765,0.5506535947712418,1.0,10.0,0,0
3551824,19:42:24,11.926666666666668,2024-06-05,599399.4019846045,5332739.248494646,17,N,19:42:24.000,48.14013619,-79.66385237,55356.99965,1,-2198,-34626,28285,-6.176,-5.015,5.035,-0.03863,-0.22441,0.96928,42.565,0.7,G,0.5,2.0,12.0,382.1,-38.5,15.28,0.0, ,D,'$GNGGA,194224.0,4808.40843,N,7939.83113,W,2.0,12.0,0.5,382.1,M,-38.5,M,,0131*76','$GNRMC,194224.0,A,4808.40843,N,7939.83113,W,15.28,0.68,50624.0,,,D,V*23',,,,,,,,1,0.8461830065359477,0.6954117647058824,0.45726797385620926,1.0,10.0,0,0
3555324,19:42:27.500000,11.985000000000001,2024-06-05,599399.5648776013,5332767.010458023,17,N,19:42:27.500,48.14038587,-79.6638437,55423.53485,1,-3095,-34624,28276,-21.123,8.463,3.574,0.02736,-0.2233,0.93139,42.6,2.3,I,,,,,,,,,,,,,,,,,,,,,,,,,,,,,,,,,,,,,,,,,,,,,,1,0.8445098039215686,0.6276470588235296,0.37862745098039224,1.0,10.0,0,0
3558824,19:42:31,12.043333333333333,2024-06-05,599399.8945421685,5332794.809785322,17,N,19:42:31.000,48.14063586,-79.66383278,55476.8059,1,-1842,-35893,27692,4.499,-1.097,3.477,-0.0083,-0.23549,0.99059,42.589,1.4,G,0.5,2.0,12.0,381.5,-38.5,15.971,0.0, ,D,'$GNGGA,194231.0,4808.43841,N,7939.82995,W,2.0,12.0,0.5,381.5,M,-38.5,M,,0131*73','$GNRMC,194231.0,A,4808.43841,N,7939.82995,W,15.971,1.41,50624.0,,,D,V*2E',,,,,,,,1,0.8398562091503269,0.5663660130718954,0.3170196078431372,1.0,10.0,0,0
3562324,19:42:34.500000,12.101666666666667,2024-06-05,599399.7369435937,5332822.686256967,17,N,19:42:34.500,48.14088662,-79.66382839,55444.3761,1,-1360,-36012,27596,-10.381,-4.617,0.991,0.02975,-0.21042,0.90656,42.602,2.5,I,,,,,,,,,,,,,,,,,,,,,,,,,,,,,,,,,,,,,,,,,,,,,,1,0.8439869281045752,0.6064705882352941,0.3540522875816993,1.0,10.0,0,0
3565824,19:42:38,12.16,2024-06-05,599398.8925295612,5332850.476308582,17,N,19:42:38.000,48.14113671,-79.66383325,55393.76885,1,1595,-34433,28508,2.343,0.87,-7.93,-0.0425,-0.14745,0.93263,42.621,358.6,G,0.5,2.0,12.0,384.8,-38.5,15.461,0.0, ,D,'$GNGGA,194238.0,4808.46846,N,7939.83,W,2.0,12.0,0.5,384.8,M,-38.5,M,,0131*74','$GNRMC,194238.0,A,4808.46846,N,7939.83,W,15.461,358.58,50624.0,,,D,V*2A',,,,,,,,1,0.8452418300653595,0.6572941176470588,0.41303267973856206,1.0,10.0,0,0
3569324,19:42:41.500000,12.218333333333334,2024-06-05,599399.2090754332,5332878.515558213,17,N,19:42:41.500,48.14138886,-79.66382245,55396.06235,1,110,-34067,28648,0.383,-0.848,-5.055,-0.0478,-0.17736,0.97782,42.625,1.5,I,,,,,,,,,,,,,,,,,,,,,,,,,,,,,,,,,,,,,,,,,,,,,,1,0.8452418300653595,0.6572941176470588,0.41303267973856206,1.0,10.0,0,0
3572824,19:42:45,12.276666666666667,2024-06-05,599399.4681705108,5332905.963451396,17,N,19:42:45.000,48.1416357,-79.66381256,55439.51075,1,520,-34385,28539,1.934,2.591,-8.543,-0.09486,-0.19718,0.94001,42.652,0.8,G,0.5,2.0,12.0,393.0,-38.5,14.769,0.0, ,D,'$GNGGA,194245.0,4808.4984,N,7939.82874,W,2.0,12.0,0.5,393.0,M,-38.5,M,,0131*73','$GNRMC,194245.0,A,4808.4984,N,7939.82874,W,14.769,0.75,50624.0,,,D,V*28',,,,,,,,1,0.8440915032679739,0.6107058823529412,0.3589673202614379,1.0,10.0,0,0
3576324,19:42:48.500000,12.335,2024-06-05,599399.5486335444,5332933.927447968,17,N,19:42:48.500,48.14188721,-79.66380495,55474.5236,1,865,-33692,28974,12.569,10.837,-17.172,-0.05388,-0.20434,0.91576,42.654,3.8,I,,,,,,,,,,,,,,,,,,,,,,,,,,,,,,,,,,,,,,,,,,,,,,1,0.841843137254902,0.574156862745098,0.32062745098039214,1.0,10.0,0,0
3579824,19:42:52,12.393333333333334,2024-06-05,599399.229349006,5332962.285856914,17,N,19:42:52.000,48.14214233,-79.66380262,55536.40265,1,3842,-32836,29303,4.137,4.25,-19.521,-0.01393,-0.24082,0.94516,42.705,0.3,G,0.5,2.0,12.0,397.0,-38.5,16.714,0.0, ,D,'$GNGGA,194252.0,4808.5288,N,7939.82815,W,2.0,12.0,0.5,397.0,M,-38.5,M,,0131*70','$GNRMC,194252.0,A,4808.5288,N,7939.82815,W,16.714,0.28,50624.0,,,D,V*2F',,,,,,,,1,0.8120392156862745,0.45729411764705885,0.26650980392156864,1.0,10.0,0,0
3583324,19:42:55.500000,12.451666666666666,2024-06-05,599399.5498747017,5332989.922713604,17,N,19:42:55.500,48.14239086,-79.66379186,55650.68075,1,2757,-33352,29161,3.165,0.42,-4.902,-0.01601,-0.17078,0.97535,42.678,0.7,I,,,,,,,,,,,,,,,,,,,,,,,,,,,,,,,,,,,,,,,,,,,,,,1,0.75640522875817,0.2391503267973856,0.16549019607843138,1.0,10.0,0,0
3586824,19:42:59,12.51,2024-06-05,599399.9795435589,5333017.230154743,17,N,19:42:59.000,48.14263641,-79.66377971,55733.40115,1,747,-36217,27769,8.869,-3.124,-2.754,0.01047,-0.13011,0.94983,42.665,0.7,G,0.5,2.0,12.0,398.2,-38.5,15.673,0.0, ,D,'$GNGGA,194259.0,4808.55844,N,7939.82677,W,2.0,12.0,0.5,398.2,M,-38.5,M,,0131*73','$GNRMC,194259.0,A,4808.55844,N,7939.82677,W,15.673,0.7,50624.0,,,D,V*2F',,,,,,,,1,0.7166666666666667,0.08333333333333333,0.09333333333333332,1.0,10.0,0,0
3590324,19:43:02.500000,12.568333333333333,2024-06-05,599399.7284953909,5333045.728726637,17,N,19:43:02.500,48.14289278,-79.66377643,55704.93335,1,-2398,-31976,29946,-7.818,-2.85,1.548,0.03883,-0.10153,0.93682,42.658,1.4,I,,,,,,,,,,,,,,,,,,,,,,,,,,,,,,,,,,,,,,,,,,,,,,1,0.7305751633986928,0.1378692810457517,0.11858823529411765,1.0,10.0,0,0
3593824,19:43:06,12.626666666666667,2024-06-05,599399.8461476251,5333073.091898072,17,N,19:43:06.000,48.14313888,-79.66376846,55628.61625,1,-2035,-35053,28300,1.771,0.339,-3.42,0.04953,-0.18253,0.96615,42.699,1.6,G,0.5,2.0,12.0,394.1,-38.5,14.462,0.0, ,D,'$GNGGA,194306.0,4808.58859,N,7939.82609,W,2.0,12.0,0.5,394.1,M,-38.5,M,,0131*7F','$GNRMC,194306.0,A,4808.58859,N,7939.82609,W,14.462,1.57,50624.0,,,D,V*2B',,,,,,,,1,0.7683267973856209,0.2858954248366013,0.18713725490196076,1.0,10.0,0,0
3597324,19:43:09.500000,12.685,2024-06-05,599399.988298011,5333101.10033408,17,N,19:43:09.500,48.14339078,-79.66376001,55509.0009,1,-2283,-35780,27698,-9.288,1.903,0.316,0.05279,-0.26495,0.96648,42.678,0.6,I,,,,,,,,,,,,,,,,,,,,,,,,,,,,,,,,,,,,,,,,,,,,,,1,0.8239607843137254,0.5040392156862745,0.288156862745098,1.0,10.0,0,0
3600824,19:43:13,12.743333333333334,2024-06-05,599399.9244078771,5333128.847256663,17,N,19:43:13.000,48.14364036,-79.66375439,55433.0034,1,-1960,-35106,28219,2.41,-6.022,0.187,0.03921,-0.23672,0.94964,42.727,2.4,G,0.5,2.0,12.0,388.8,-38.5,15.637,0.0, ,D,'$GNGGA,194313.0,4808.61868,N,7939.82524,W,2.0,12.0,0.5,388.8,M,-38.5,M,,0131*7B','$GNRMC,194313.0,A,4808.61868,N,7939.82524,W,15.637,2.44,50624.0,,,D,V*29',,,,,,,,1,0.8443006535947712,0.6191764705882353,0.368797385620915,1.0,10.0,0,0
3604324,19:43:16.500000,12.801666666666668,2024-06-05,599399.8421092995,5333156.668350559,17,N,19:43:16.500,48.14389061,-79.663749,55422.8117,1,-2638,-36617,27030,3.769,-6.922,-3.217,0.0274,-0.26924,0.98005,42.764,0.6,I,,,,,,,,,,,,,,,,,,,,,,,,,,,,,,,,,,,,,,,,,,,,,,1,0.8445098039215686,0.6276470588235296,0.37862745098039224,1.0,10.0,0,0
3607824,19:43:20,12.860000000000001,2024-06-05,599399.7849337682,5333184.713351847,17,N,19:43:20.000,48.14414287,-79.66374322,55399.71855,1,-5328,-34833,27837,0.321,-0.924,-6.541,0.09083,-0.23035,0.95776,42.74,2.5,G,0.5,2.0,12.0,386.4,-38.5,15.759,0.0, ,D,'$GNGGA,194320.0,4808.64883,N,7939.82457,W,2.0,12.0,0.5,386.4,M,-38.5,M,,0131*7C','$GNRMC,194320.0,A,4808.64883,N,7939.82457,W,15.759,2.49,50624.0,,,D,V*28',,,,,,,,1,0.8451372549019608,0.6530588235294118,0.40811764705882353,1.0,10.0,0,0
3611324,19:43:23.500000,12.918333333333333,2024-06-05,599399.8407684827,5333212.720293479,17,N,19:43:23.500,48.14439477,-79.66373593,55324.41775,1,-4124,-34634,28019,-0.523,5.254,-0.821,0.08642,-0.19787,0.97454,42.755,0.6,I,,,,,,,,,,,,,,,,,,,,,,,,,,,,,,,,,,,,,,,,,,,,,,1,0.8470196078431372,0.7292941176470589,0.4965882352941176,1.0,10.0,0,0
3614824,19:43:27,12.976666666666667,2024-06-05,599399.497836834,5333240.723643501,17,N,19:43:27.000,48.1446467,-79.663734,55344.3454,1,-3400,-33451,28768,-0.2,3.612,-8.06,0.04131,-0.17664,0.98789,42.806,359.1,G,0.5,2.0,12.0,384.8,-38.5,15.389,0.0, ,D,'$GNGGA,194327.0,4808.67906,N,7939.82404,W,2.0,12.0,0.5,384.8,M,-38.5,M,,0131*7C','$GNRMC,194327.0,A,4808.67906,N,7939.82404,W,15.389,359.12,50624.0,,,D,V*2C',,,,,,,,1,0.8464967320261437,0.7081176470588235,0.47201307189542485,1.0,10.0,0,0
3618324,19:43:30.500000,13.035,2024-06-05,599399.493270412,5333268.480497457,17,N,19:43:30.500,48.14489636,-79.66372758,55380.0493,1,-4082,-33546,28694,-1.611,-4.487,-4.544,0.04097,-0.15587,0.97415,42.801,1.2,I,,,,,,,,,,,,,,,,,,,,,,,,,,,,,,,,,,,,,,,,,,,,,,1,0.8456601307189543,0.6742352941176472,0.4326928104575163,1.0,10.0,0,0
3621824,19:43:34,13.093333333333334,2024-06-05,599399.5716296907,5333296.132061712,17,N,19:43:34.000,48.14514506,-79.66372007,55254.9268,1,-2622,-34803,28019,4.464,4.03,-3.106,0.05718,-0.15157,0.95862,42.813,2.7,G,0.5,2.0,12.0,384.4,-38.5,15.732,0.0, ,D,'$GNGGA,194334.0,4808.70896,N,7939.82318,W,2.0,12.0,0.5,384.4,M,-38.5,M,,0131*76','$GNRMC,194334.0,A,4808.70896,N,7939.82318,W,15.732,2.65,50624.0,,,D,V*23',,,,,,,,1,0.848797385620915,0.8012941176470588,0.5801437908496732,1.0,10.0,0,0
3625324,19:43:37.500000,13.151666666666667,2024-06-05,599399.3810174266,5333324.318171857,17,N,19:43:37.500,48.14539861,-79.66371605,55101.69495,1,-2841,-34913,27751,2.696,6.299,0.15,0.04847,-0.18376,0.95095,42.863,359.5,I,,,,,,,,,,,,,,,,,,,,,,,,,,,,,,,,,,,,,,,,,,,,,,1,0.7379999999999999,0.8046666666666666,0.6006666666666667,1.0,10.0,0,0
3628824,19:43:41,13.21,2024-06-05,599399.5333722123,5333352.292331537,17,N,19:43:41.000,48.1456502,-79.66370747,54998.5587,1,-4151,-33507,28176,-1.642,0.273,-3.169,0.00566,-0.18521,0.96001,42.783,358.7,G,0.5,2.0,12.0,382.7,-38.5,14.901,0.0, ,D,'$GNGGA,194341.0,4808.73927,N,7939.82245,W,2.0,12.0,0.5,382.7,M,-38.5,M,,0131*70','$GNRMC,194341.0,A,4808.73927,N,7939.82245,W,14.901,358.68,50624.0,,,D,V*2E',,,,,,,,1,0.6281960784313725,0.7602222222222222,0.5653725490196079,1.0,10.0,0,0
3632324,19:43:44.500000,13.268333333333334,2024-06-05,599399.4065025573,5333380.149350277,17,N,19:43:44.500,48.14590078,-79.66370267,54924.5518,1,-4347,-33388,28252,-4.768,-2.318,1.386,0.00757,-0.16497,0.94304,42.816,2.8,I,,,,,,,,,,,,,,,,,,,,,,,,,,,,,,,,,,,,,,,,,,,,,,1,0.5382091503267975,0.7143137254901961,0.5521307189542484,1.0,10.0,0,0
3635824,19:43:48,13.326666666666666,2024-06-05,599399.7708495553,5333407.8692608345,17,N,19:43:48.000,48.14615005,-79.6636913,54861.56165,1,-5048,-36476,26412,-5.152,2.823,-5.405,0.08331,-0.1957,0.96966,42.845,0.2,G,0.5,2.0,12.0,377.8,-38.5,14.922,0.0, ,D,'$GNGGA,194348.0,4808.76926,N,7939.82147,W,2.0,12.0,0.5,377.8,M,-38.5,M,,0131*79','$GNRMC,194348.0,A,4808.76926,N,7939.82147,W,14.922,0.19,50624.0,,,D,V*2B',,,,,,,,1,0.4378169934640523,0.6437254901960784,0.5693856209150326,1.0,10.0,0,0
3639324,19:43:51.500000,13.385,2024-06-05,599399.8701098494,5333436.071530692,17,N,19:43:51.500,48.1464037,-79.66368338,54792.99695,1,-6573,-33201,27836,1.656,5.602,-8.032,0.04746,-0.18501,0.97872,42.852,1.0,I,,,,,,,,,,,,,,,,,,,,,,,,,,,,,,,,,,,,,,,,,,,,,,1,0.32403921568627453,0.5637254901960784,0.5889411764705882,1.0,10.0,0,0
3642824,19:43:55,13.443333333333333,2024-06-05,599399.5370200616,5333464.06283205,17,N,19:43:55.000,48.14665552,-79.66368132,54749.07155,1,-4538,-33735,27806,0.32,3.439,-14.427,0.04194,-0.21461,0.9607,42.842,359.0,G,0.5,2.0,12.0,374.8,-38.5,14.955,0.0, ,D,'$GNGGA,194355.0,4808.79959,N,7939.82088,W,2.0,12.0,0.5,374.8,M,-38.5,M,,0131*73','$GNRMC,194355.0,A,4808.79959,N,7939.82088,W,14.955,359.03,50624.0,,,D,V*26',,,,,,,,1,0.25041830065359477,0.5119607843137255,0.60159477124183,1.0,10.0,0,0
3646324,19:43:58.500000,13.501666666666667,2024-06-05,599399.6884409738,5333492.3883077465,17,N,19:43:58.500,48.14691027,-79.66367267,54716.67585,1,-3753,-31461,29063,-6.272,1.788,-17.159,0.00696,-0.19642,0.98282,42.863,0.5,I,,,,,,,,,,,,,,,,,,,,,,,,,,,,,,,,,,,,,,,,,,,,,,1,0.2035686274509804,0.4790196078431372,0.6096470588235293,1.0,10.0,0,0
3649824,19:44:02,13.56,2024-06-05,599399.6063106563,5333519.766928873,17,N,19:44:02.000,48.14715654,-79.66366738,54702.6911,1,-4046,-34102,27777,4.155,7.353,-23.363,0.04557,-0.19236,0.95798,42.895,2.3,G,0.5,2.0,12.0,374.3,-38.5,15.324,0.0, ,D,'$GNGGA,194402.0,4808.82965,N,7939.82002,W,2.0,12.0,0.5,374.3,M,-38.5,M,,0131*74','$GNRMC,194402.0,A,4808.82965,N,7939.82002,W,15.324,2.27,50624.0,,,D,V*2C',,,,,,,,1,0.17679738562091504,0.4601960784313725,0.6142483660130719,1.0,10.0,0,0
3653324,19:44:05.500000,13.618333333333334,2024-06-05,599399.4392714862,5333548.178040466,17,N,19:44:05.500,48.14741211,-79.66366299,54692.8887,1,-1988,-32128,28844,7.611,7.752,-18.524,0.05509,-0.19697,0.97486,42.908,0.5,I,,,,,,,,,,,,,,,,,,,,,,,,,,,,,,,,,,,,,,,,,,,,,,1,0.16341176470588237,0.45078431372549016,0.616549019607843,1.0,10.0,0,0
3656824,19:44:09,13.676666666666668,2024-06-05,599399.1638407892,5333575.97578546,17,N,19:44:09.000,48.14766218,-79.6636602,54693.61365,1,-332,-32598,28638,7.569,4.76,-14.19,0.0319,-0.20608,0.95203,42.914,359.4,G,0.5,2.0,12.0,372.4,-38.5,15.742,0.0, ,D,'$GNGGA,194409.0,4808.85999,N,7939.81961,W,2.0,12.0,0.5,372.4,M,-38.5,M,,0131*75','$GNRMC,194409.0,A,4808.85999,N,7939.81961,W,15.742,359.35,50624.0,,,D,V*26',,,,,,,,1,0.16341176470588237,0.45078431372549016,0.616549019607843,1.0,10.0,0,0
3660324,19:44:12.500000,13.735000000000001,2024-06-05,599399.2760498545,5333603.644629007,17,N,19:44:12.500,48.14791103,-79.66365223,54700.00895,1,422,-33065,28544,9.241,2.372,-9.571,-0.05245,-0.18543,0.99483,42.923,359.6,I,,,,,,,,,,,,,,,,,,,,,,,,,,,,,,,,,,,,,,,,,,,,,,1,0.17679738562091504,0.4601960784313725,0.6142483660130719,1.0,10.0,0,0
3663824,19:44:16,13.793333333333333,2024-06-05,599399.2983303507,5333631.478679736,17,N,19:44:16.000,48.14816138,-79.66364543,54710.06955,1,578,-32795,28626,4.749,2.639,-8.263,-0.07981,-0.13779,0.96195,42.94,1.1,G,0.5,2.0,12.0,370.0,-38.5,15.488,0.0, ,D,'$GNGGA,194416.0,4808.88994,N,7939.81871,W,2.0,12.0,0.5,370.0,M,-38.5,M,,0131*7D','$GNRMC,194416.0,A,4808.88994,N,7939.81871,W,15.488,1.05,50624.0,,,D,V*20',,,,,,,,1,0.19018300653594772,0.4696078431372549,0.6119477124183006,1.0,10.0,0,0
3667324,19:44:19.500000,13.851666666666667,2024-06-05,599399.199656692,5333659.465168826,17,N,19:44:19.500,48.14841312,-79.66364022,54726.03755,1,576,-32565,28755,1.139,1.474,-2.069,-0.09353,-0.1431,0.97503,42.894,1.7,I,,,,,,,,,,,,,,,,,,,,,,,,,,,,,,,,,,,,,,,,,,,,,,1,0.2169542483660131,0.4884313725490196,0.6073464052287582,1.0,10.0,0,0
3670824,19:44:23,13.91,2024-06-05,599399.4230089413,5333687.587334395,17,N,19:44:23.000,48.14866603,-79.66363065,54747.10535,1,123,-31976,29058,0.741,-2.675,-2.3,-0.04716,-0.174,0.95798,42.974,3.2,G,0.5,2.0,12.0,367.1,-38.5,15.227,0.0, ,D,'$GNGGA,194423.0,4808.92022,N,7939.81781,W,2.0,12.0,0.5,367.1,M,-38.5,M,,0131*73','$GNRMC,194423.0,A,4808.92022,N,7939.81781,W,15.227,3.21,50624.0,,,D,V*2E',,,,,,,,1,0.25041830065359477,0.5119607843137255,0.60159477124183,1.0,10.0,0,0
3674324,19:44:26.500000,13.968333333333334,2024-06-05,599399.4768443032,5333715.188461435,17,N,19:44:26.500,48.14891428,-79.66362348,54771.9794,1,376,-33570,28386,-2.473,-0.081,-2.414,-0.00856,-0.19461,0.96798,42.998,1.1,I,,,,,,,,,,,,,,,,,,,,,,,,,,,,,,,,,,,,,,,,,,,,,,1,0.29057516339869277,0.5401960784313725,0.5946928104575163,1.0,10.0,0,0
3677824,19:44:30,14.026666666666667,2024-06-05,599399.3143106496,5333742.952598449,17,N,19:44:30.000,48.14916403,-79.66361918,54789.95405,1,-121,-34770,27657,-4.148,-2.365,-3.696,-0.04671,-0.23316,0.94992,42.98,359.2,G,0.5,2.0,12.0,364.2,-38.5,15.062,0.0, ,D,'$GNGGA,194430.0,4808.9501,N,7939.81715,W,2.0,12.0,0.5,364.2,M,-38.5,M,,0131*7A','$GNRMC,194430.0,A,4808.9501,N,7939.81715,W,15.062,359.19,50624.0,,,D,V*23',,,,,,,,1,0.3173464052287582,0.5590196078431372,0.5900915032679738,1.0,10.0,0,0
3681324,19:44:33.500000,14.085,2024-06-05,599399.4403588078,5333771.064182861,17,N,19:44:33.500,48.14941686,-79.66361092,54787.3925,1,-1411,-33261,28579,-3.094,-8.059,-2.574,-0.04719,-0.23683,0.93138,43.01,0.5,I,,,,,,,,,,,,,,,,,,,,,,,,,,,,,,,,,,,,,,,,,,,,,,1,0.3173464052287582,0.5590196078431372,0.5900915032679738,1.0,10.0,0,0
3684824,19:44:37,14.143333333333334,2024-06-05,599399.6284211325,5333798.988953701,17,N,19:44:37.000,48.149668,-79.66360187,54772.72265,1,-2357,-35437,27051,-1.729,-4.659,-4.399,-0.04084,-0.29103,0.94483,42.979,0.6,G,0.5,2.0,12.0,361.1,-38.5,16.234,0.0, ,D,'$GNGGA,194437.0,4808.98034,N,7939.8161,W,2.0,12.0,0.5,361.1,M,-38.5,M,,0131*74','$GNRMC,194437.0,A,4808.98034,N,7939.8161,W,16.234,0.57,50624.0,,,D,V*2C',,,,,,,,1,0.29057516339869277,0.5401960784313725,0.5946928104575163,1.0,10.0,0,0
3684924,19:44:37.100000,14.145000000000001,2024-06-05,599399.6166689812,5333799.793685713,17,N,19:44:37.100,48.14967524,-79.66360184,54772.06705,1,-2673,-35414,27108,3.03,-1.151,-4.148,-0.0315,-0.29425,0.94168,42.997,0.5,I,,,,,,,,,,,,,,,,,,,,,,,,,,,,,,,,,,,,,,,,,,,,,,1,0.29057516339869277,0.5401960784313725,0.5946928104575163,1.0,10.0,0,0
