Counter,UTC_time_stamps,elapsed_time_minutes,Date,UTME,UTMN,UTM_zone,UTM_letter,Time,Latitude,Longitude,Mag_TMI_nT,Mag_Lock,CompassX,CompassY,CompassZ,GyroscopeX,GyroscopeY,GyroscopeZ,AccelerometerX,AccelerometerY,AccelerometerZ,ImuTemperature,Track,LocationSource,Hdop,FixQuality,SatellitesUsed,Altitude,HeightOverEllipsoid,SpeedOverGround,MagneticVariation,VariationDirection,ModeIndicator,GgaSentence,RmcSentence,EventCode,EventInfo,EventDataLength,EventData,uk1,uk2,uk3,uk4,uk5,uk6,uk7,uk8,uk9,uk10,uk11,uk12,uk13,uk14,uk15,uk16,uk17,uk18,uk19,uk20,uk21,uk22,uk23,uk24,uk25,uk26,uk27,uk28,uk29,uk30,Flightline,r,g,b,a,size,range_noise,noise_bad
8278997,22:53:54,7.0600000000000005,2024-06-05,600249.1895811643,5331701.35287776,17,N,22:53:54.000,48.13066751,-79.65267691,54736.87865,1,1577,-27011,31089,-1.238,-4.483,24.749,0.23422,-0.43705,0.81649,40.146,179.5,G,0.49,2.0,12.0,382.8,-38.5,15.127,0.0, ,D,'$GNGGA,225354.0,4807.83979,N,7939.16062,W,2.0,12.0,0.49,382.8,M,-38.5,M,,0131*7B','$GNRMC,225354.0,A,4807.83979,N,7939.16062,W,15.127,179.47,50624.0,,,D,V*23',,,,,,,,1,0.14333333333333334,0.4366666666666666,0.62,1.0,10.0,0,0
8275497,22:53:50.500000,7.001666666666667,2024-06-05,600248.9573342563,5331729.01908143,17,N,22:53:50.500,48.13091639,-79.65267352,54749.4116,1,4392,-28122,30670,0.991,-7.784,-9.697,-0.05468,-0.5247,0.74655,40.123,181.0,I,,,,,,,,,,,,,,,,,,,,,,,,,,,,,,,,,,,,,,,,,,,,,,1,0.16341176470588237,0.45078431372549016,0.616549019607843,1.0,10.0,0,0
8271997,22:53:47,6.943333333333333,2024-06-05,600248.9970745787,5331757.89856769,17,N,22:53:47.000,48.13117614,-79.65266619,54770.77735,1,2095,-24837,31886,-3.474,9.062,33.595,0.11629,-0.39282,0.83755,40.166,183.9,G,0.49,2.0,12.0,384.3,-38.5,15.476,0.0, ,D,'$GNGGA,225347.0,4807.87031,N,7939.16001,W,2.0,12.0,0.49,384.3,M,-38.5,M,,0131*70','$GNRMC,225347.0,A,4807.87031,N,7939.16001,W,15.476,183.88,50624.0,,,D,V*22',,,,,,,,1,0.19687581699346404,0.474313725490196,0.610797385620915,1.0,10.0,0,0
8268497,22:53:43.500000,6.885000000000001,2024-06-05,600249.0754913684,5331785.759219671,17,N,22:53:43.500,48.13142672,-79.65265858,54779.5366,1,4122,-30819,29588,7.693,12.505,-17.151,-0.01235,-0.69698,0.74418,40.183,177.5,I,,,,,,,,,,,,,,,,,,,,,,,,,,,,,,,,,,,,,,,,,,,,,,1,0.21026143790849672,0.48372549019607836,0.6084967320261437,1.0,10.0,0,0
8264997,22:53:40,6.826666666666667,2024-06-05,600249.244728185,5331812.046054612,17,N,22:53:40.000,48.13166313,-79.65265012,54797.93365,1,2725,-28525,30698,8.48,-1.794,-7.412,-0.04909,-0.55534,0.79919,40.182,182.2,G,0.49,2.0,12.0,383.9,-38.5,14.12,0.0, ,D,'$GNGGA,225340.0,4807.89953,N,7939.15903,W,2.0,12.0,0.49,383.9,M,-38.5,M,,0131*71','$GNRMC,225340.0,A,4807.89953,N,7939.15903,W,14.12,182.19,50624.0,,,D,V*20',,,,,,,,1,0.2370326797385621,0.5025490196078432,0.6038954248366013,1.0,10.0,0,0
8261497,22:53:36.500000,6.7683333333333335,2024-06-05,600249.066271152,5331838.042182151,17,N,22:53:36.500,48.13189698,-79.6526464,54814.765,1,4117,-25627,31627,-0.938,0.718,2.973,-0.01371,-0.56557,0.8667,40.221,179.2,I,,,,,,,,,,,,,,,,,,,,,,,,,,,,,,,,,,,,,,,,,,,,,,1,0.2638039215686274,0.5213725490196077,0.5992941176470589,1.0,10.0,0,0
8257997,22:53:33,6.71,2024-06-05,600249.6821058855,5331866.662710487,17,N,22:53:33.000,48.13215431,-79.65263139,54833.48435,1,2773,-28952,30487,5.129,5.988,-10.569,0.04135,-0.57261,0.76462,40.236,180.1,G,0.49,2.0,12.0,384.1,-38.5,14.034,0.0, ,D,'$GNGGA,225333.0,4807.929,N,7939.15789,W,2.0,12.0,0.49,384.1,M,-38.5,M,,0131*7A','$GNRMC,225333.0,A,4807.929,N,7939.15789,W,14.034,180.12,50624.0,,,D,V*29',,,,,,,,1,0.2972679738562092,0.5449019607843137,0.5935424836601306,1.0,10.0,0,0
8254497,22:53:29.500000,6.651666666666667,2024-06-05,600249.8768221103,5331893.830534719,17,N,22:53:29.500,48.13239864,-79.65262238,54862.16675,1,993,-23827,32275,18.304,-4.052,-3.523,0.04807,-0.53134,0.88676,40.248,181.6,I,,,,,,,,,,,,,,,,,,,,,,,,,,,,,,,,,,,,,,,,,,,,,,1,0.3374248366013072,0.5731372549019608,0.586640522875817,1.0,10.0,0,0
8250997,22:53:26,6.593333333333334,2024-06-05,600249.7036390397,5331922.031441839,17,N,22:53:26.000,48.13265232,-79.65261807,54880.7241,1,4034,-25688,31733,-2.938,1.145,8.028,-0.10233,-0.53579,0.74323,40.264,178.8,G,0.49,2.0,12.0,388.0,-38.5,15.258,0.0, ,D,'$GNGGA,225326.0,4807.95888,N,7939.15708,W,2.0,12.0,0.49,388.0,M,-38.5,M,,0131*7C','$GNRMC,225326.0,A,4807.95888,N,7939.15708,W,15.258,178.75,50624.0,,,D,V*2D',,,,,,,,1,0.3708888888888889,0.5966666666666666,0.5808888888888889,1.0,10.0,0,0
8247497,22:53:22.500000,6.535,2024-06-05,600248.8026875155,5331950.226273641,17,N,22:53:22.500,48.13290606,-79.65262354,54898.12685,1,1327,-28631,30799,6.845,8.678,17.545,-0.01144,-0.58586,0.71909,40.275,180.9,I,,,,,,,,,,,,,,,,,,,,,,,,,,,,,,,,,,,,,,,,,,,,,,1,0.39766013071895423,0.6154901960784314,0.5762875816993464,1.0,10.0,0,0
8243997,22:53:19,6.4766666666666675,2024-06-05,600249.5319282026,5331978.8710298985,17,N,22:53:19.000,48.13316359,-79.652607,54909.7912,1,-218,-26550,31441,10.844,-0.651,3.473,0.11301,-0.5733,0.74512,40.342,184.9,G,0.49,2.0,12.0,390.5,-38.5,16.02,0.0, ,D,'$GNGGA,225319.0,4807.98956,N,7939.15646,W,2.0,12.0,0.49,390.5,M,-38.5,M,,0131*78','$GNRMC,225319.0,A,4807.98956,N,7939.15646,W,16.02,184.93,50624.0,,,D,V*20',,,,,,,,1,0.41773856209150323,0.6296078431372549,0.5728366013071895,1.0,10.0,0,0
8240497,22:53:15.500000,6.418333333333334,2024-06-05,600250.2445438089,5332006.849533092,17,N,22:53:15.500,48.13341513,-79.65259084,54905.4271,1,3493,-29510,30486,0.19,2.694,-15.89,-0.10503,-0.74107,0.76162,40.363,183.4,I,,,,,,,,,,,,,,,,,,,,,,,,,,,,,,,,,,,,,,,,,,,,,,1,0.4110457516339869,0.6249019607843137,0.5739869281045751,1.0,10.0,0,0
8236997,22:53:12,6.36,2024-06-05,600249.4101866548,5332033.238872499,17,N,22:53:12.000,48.13365262,-79.65259584,54901.64915,1,5433,-27411,30985,19.854,-4.563,-10.275,0.0201,-0.51335,0.88043,40.414,174.6,G,0.49,2.0,12.0,388.2,-38.5,14.195,0.0, ,D,'$GNGGA,225312.0,4808.0189,N,7939.15572,W,2.0,12.0,0.49,388.2,M,-38.5,M,,0131*7D','$GNRMC,225312.0,A,4808.0189,N,7939.15572,W,14.195,174.6,50624.0,,,D,V*25',,,,,,,,1,0.4043529411764706,0.6201960784313726,0.5751372549019608,1.0,10.0,0,0
8233497,22:53:08.500000,6.301666666666667,2024-06-05,600248.7083163871,5332059.967406683,17,N,22:53:08.500,48.13389314,-79.65259898,54902.99865,1,-34,-28381,30920,6.29,-0.637,1.712,0.10847,-0.58706,0.80189,40.396,183.0,I,,,,,,,,,,,,,,,,,,,,,,,,,,,,,,,,,,,,,,,,,,,,,,1,0.4043529411764706,0.6201960784313726,0.5751372549019608,1.0,10.0,0,0
8229997,22:53:05,6.243333333333334,2024-06-05,600250.1926909848,5332086.627505035,17,N,22:53:05.000,48.1341327,-79.65257276,54901.54755,1,3535,-25727,31618,32.369,4.535,-6.085,0.00331,-0.531,0.91166,40.432,179.9,G,0.49,2.0,12.0,385.3,-38.5,15.915,0.0, ,D,'$GNGGA,225305.0,4808.0477,N,7939.15437,W,2.0,12.0,0.49,385.3,M,-38.5,M,,0131*73','$GNRMC,225305.0,A,4808.0477,N,7939.15437,W,15.915,179.88,50624.0,,,D,V*2D',,,,,,,,1,0.4043529411764706,0.6201960784313726,0.5751372549019608,1.0,10.0,0,0
8226497,22:53:01.500000,6.1850000000000005,2024-06-05,600250.527646349,5332113.985689033,17,N,22:53:01.500,48.13437872,-79.65256182,54910.18615,1,5036,-23926,32078,3.743,-5.099,8.542,-0.05234,-0.5545,0.78409,40.458,181.3,I,,,,,,,,,,,,,,,,,,,,,,,,,,,,,,,,,,,,,,,,,,,,,,1,0.41773856209150323,0.6296078431372549,0.5728366013071895,1.0,10.0,0,0
8222997,22:52:58,6.126666666666667,2024-06-05,600250.2176971948,5332142.0041002855,17,N,22:52:58.000,48.13463078,-79.65255939,54924.91075,1,4121,-21578,32799,0.478,4.111,-0.974,-0.0654,-0.42014,0.83033,40.443,184.2,G,0.49,2.0,12.0,383.0,-38.5,14.852,0.0, ,D,'$GNGGA,225258.0,4808.07759,N,7939.1536,W,2.0,12.0,0.49,383.0,M,-38.5,M,,0131*72','$GNRMC,225258.0,A,4808.07759,N,7939.1536,W,14.852,184.2,50624.0,,,D,V*2A',,,,,,,,1,0.4378169934640523,0.6437254901960784,0.5693856209150326,1.0,10.0,0,0
8219497,22:52:54.500000,6.068333333333333,2024-06-05,600249.7170740749,5332169.4788415665,17,N,22:52:54.500,48.13487798,-79.65255965,54920.46405,1,3990,-19742,33229,2.353,0.736,-8.683,-0.00146,-0.42153,0.90013,40.466,179.9,I,,,,,,,,,,,,,,,,,,,,,,,,,,,,,,,,,,,,,,,,,,,,,,1,0.43112418300653604,0.6390196078431373,0.5705359477124182,1.0,10.0,0,0
8215997,22:52:51,6.010000000000001,2024-06-05,600249.6696511891,5332197.54966102,17,N,22:52:51.000,48.13513047,-79.65255368,54909.78645,1,1297,-23392,32467,-8.687,2.619,-4.638,0.09408,-0.50391,0.80532,40.489,180.3,G,0.49,2.0,12.0,387.5,-38.5,15.137,0.0, ,D,'$GNGGA,225251.0,4808.10757,N,7939.15323,W,2.0,12.0,0.49,387.5,M,-38.5,M,,0131*75','$GNRMC,225251.0,A,4808.10757,N,7939.15323,W,15.137,180.34,50624.0,,,D,V*26',,,,,,,,1,0.41773856209150323,0.6296078431372549,0.5728366013071895,1.0,10.0,0,0
8212497,22:52:47.500000,5.951666666666667,2024-06-05,600249.9644228511,5332225.925548316,17,N,22:52:47.500,48.13538565,-79.65254304,54911.0669,1,2488,-28522,30791,-2.419,-5.193,25.361,0.01519,-0.59369,0.76246,40.568,180.1,I,,,,,,,,,,,,,,,,,,,,,,,,,,,,,,,,,,,,,,,,,,,,,,1,0.41773856209150323,0.6296078431372549,0.5728366013071895,1.0,10.0,0,0
8208997,22:52:44,5.8933333333333335,2024-06-05,600249.822114985,5332253.252030778,17,N,22:52:44.000,48.13563146,-79.65253852,54922.4878,1,1849,-27048,31336,1.143,-6.092,19.986,-0.00759,-0.53296,0.79792,40.564,183.2,G,0.49,2.0,12.0,396.3,-38.5,14.57,0.0, ,D,'$GNGGA,225244.0,4808.13763,N,7939.15234,W,2.0,12.0,0.49,396.3,M,-38.5,M,,0131*74','$GNRMC,225244.0,A,4808.13763,N,7939.15234,W,14.57,183.2,50624.0,,,D,V*21',,,,,,,,1,0.4378169934640523,0.6437254901960784,0.5693856209150326,1.0,10.0,0,0
8205497,22:52:40.500000,5.835,2024-06-05,600250.1199642855,5332282.046008817,17,N,22:52:40.500,48.1358904,-79.65252774,54929.27935,1,3772,-28923,30620,13.379,-2.346,11.204,0.05331,-0.72088,0.75641,40.596,178.4,I,,,,,,,,,,,,,,,,,,,,,,,,,,,,,,,,,,,,,,,,,,,,,,1,0.4445098039215686,0.6484313725490196,0.5682352941176471,1.0,10.0,0,0
8201997,22:52:37,5.776666666666667,2024-06-05,600249.2669833049,5332310.219460255,17,N,22:52:37.000,48.13614394,-79.65253257,54938.3007,1,5319,-29752,30210,-6.221,-1.782,13.684,-0.11556,-0.56359,0.7707,40.606,177.4,G,0.49,2.0,12.0,399.9,-38.5,14.281,0.0, ,D,'$GNGGA,225237.0,4808.16838,N,7939.15194,W,2.0,12.0,0.49,399.9,M,-38.5,M,,0131*78','$GNRMC,225237.0,A,4808.16838,N,7939.15194,W,14.281,177.37,50624.0,,,D,V*2C',,,,,,,,1,0.46458823529411764,0.6625490196078432,0.5647843137254902,1.0,10.0,0,0
8198497,22:52:33.500000,5.718333333333334,2024-06-05,600249.0718590436,5332336.736747793,17,N,22:52:33.500,48.13638248,-79.65252895,54956.2149,1,1083,-29902,30398,-9.45,-0.904,-31.838,0.05553,-0.52698,0.75173,40.623,181.7,I,,,,,,,,,,,,,,,,,,,,,,,,,,,,,,,,,,,,,,,,,,,,,,1,0.491359477124183,0.6813725490196079,0.5601830065359478,1.0,10.0,0,0
8194997,22:52:30,5.66,2024-06-05,600249.2835191123,5332364.459675205,17,N,22:52:30.000,48.1366318,-79.65251958,54975.88815,1,-540,-27639,31332,5.615,5.518,21.751,0.04847,-0.57718,0.8734,40.665,184.2,G,0.49,2.0,12.0,401.0,-38.5,16.029,0.0, ,D,'$GNGGA,225230.0,4808.19765,N,7939.15121,W,2.0,12.0,0.49,401.0,M,-38.5,M,,0131*76','$GNRMC,225230.0,A,4808.19765,N,7939.15121,W,16.029,184.22,50624.0,,,D,V*27',,,,,,,,1,0.5181307189542483,0.7001960784313725,0.5555816993464052,1.0,10.0,0,0
8191497,22:52:26.500000,5.6016666666666675,2024-06-05,600249.6242220188,5332391.315442488,17,N,22:52:26.500,48.1368733,-79.65250868,54987.4489,1,2645,-31230,29665,-22.447,2.007,-4.45,-0.02671,-0.73088,0.62376,40.705,183.4,I,,,,,,,,,,,,,,,,,,,,,,,,,,,,,,,,,,,,,,,,,,,,,,1,0.5382091503267975,0.7143137254901961,0.5521307189542484,1.0,10.0,0,0
8187997,22:52:23,5.543333333333334,2024-06-05,600250.6056789621,5332418.424806988,17,N,22:52:23.000,48.13711698,-79.65248911,55012.88445,1,1977,-23301,32563,-8.356,-11.562,9.055,0.03793,-0.43928,0.76673,40.689,183.9,G,0.49,2.0,12.0,396.0,-38.5,15.303,0.0, ,D,'$GNGGA,225223.0,4808.22676,N,7939.14938,W,2.0,12.0,0.49,396.0,M,-38.5,M,,0131*77','$GNRMC,225223.0,A,4808.22676,N,7939.14938,W,15.303,183.85,50624.0,,,D,V*2D',,,,,,,,1,0.5754901960784313,0.7388888888888889,0.5484313725490196,1.0,10.0,0,0
8184497,22:52:19.500000,5.485,2024-06-05,600249.5630355054,5332447.016311163,17,N,22:52:19.500,48.13737431,-79.65249639,55032.4048,1,3703,-22147,32844,8.247,7.508,6.836,-0.05827,-0.54429,0.85879,40.734,178.5,I,,,,,,,,,,,,,,,,,,,,,,,,,,,,,,,,,,,,,,,,,,,,,,1,0.5974509803921568,0.7477777777777778,0.5554901960784314,1.0,10.0,0,0
8180997,22:52:16,5.426666666666667,2024-06-05,600249.6449831726,5332474.96266551,17,N,22:52:16.000,48.13762566,-79.65248871,55055.8867,1,-279,-26666,31606,14.976,6.552,3.629,0.16195,-0.5765,0.81777,40.721,178.9,G,0.49,2.0,12.0,390.7,-38.5,15.994,0.0, ,D,'$GNGGA,225216.0,4808.25728,N,7939.14932,W,2.0,12.0,0.49,390.7,M,-38.5,M,,0131*77','$GNRMC,225216.0,A,4808.25728,N,7939.14932,W,15.994,178.86,50624.0,,,D,V*2F',,,,,,,,1,0.6194117647058823,0.7566666666666667,0.5625490196078431,1.0,10.0,0,0
8177497,22:52:12.500000,5.368333333333334,2024-06-05,600249.485769662,5332503.123819582,17,N,22:52:12.500,48.13787898,-79.65248422,55080.14215,1,994,-27551,31234,5.76,-0.048,3.916,0.10789,-0.54518,0.83737,40.77,179.3,I,,,,,,,,,,,,,,,,,,,,,,,,,,,,,,,,,,,,,,,,,,,,,,1,0.6457647058823529,0.7673333333333333,0.5710196078431373,1.0,10.0,0,0
8173997,22:52:09,5.3100000000000005,2024-06-05,600249.5006145067,5332531.7138410425,17,N,22:52:09.000,48.13813613,-79.65247729,55111.057,1,-26,-30329,30235,5.246,-2.903,3.29,0.00649,-0.71044,0.73622,40.749,182.5,G,0.49,2.0,12.0,388.5,-38.5,15.771,0.0, ,D,'$GNGGA,225209.0,4808.28791,N,7939.14866,W,2.0,12.0,0.49,388.5,M,-38.5,M,,0131*7D','$GNRMC,225209.0,A,4808.28791,N,7939.14866,W,15.771,182.54,50624.0,,,D,V*21',,,,,,,,1,0.6809019607843136,0.7815555555555556,0.582313725490196,1.0,10.0,0,0
8170497,22:52:05.500000,5.251666666666667,2024-06-05,600249.2619887422,5332559.097574798,17,N,22:52:05.500,48.13838247,-79.65247405,55148.1083,1,1163,-29690,30551,3.082,-2.277,7.992,-0.05724,-0.69279,0.7133,40.798,182.3,I,,,,,,,,,,,,,,,,,,,,,,,,,,,,,,,,,,,,,,,,,,,,,,1,0.7160392156862745,0.7957777777777778,0.5936078431372549,1.0,10.0,0,0
8166997,22:52:02,5.193333333333333,2024-06-05,600249.7915669963,5332586.08562815,17,N,22:52:02.000,48.13862513,-79.65246058,55179.62255,1,1679,-29514,30682,-1.575,1.623,-6.45,-0.0383,-0.63767,0.76069,40.818,182.8,G,0.49,2.0,12.0,387.7,-38.5,14.752,0.0, ,D,'$GNGGA,225202.0,4808.31725,N,7939.14766,W,2.0,12.0,0.49,387.7,M,-38.5,M,,0131*73','$GNRMC,225202.0,A,4808.31725,N,7939.14766,W,14.752,182.77,50624.0,,,D,V*23',,,,,,,,1,0.7511764705882352,0.81,0.6049019607843137,1.0,10.0,0,0
8163497,22:51:58.500000,5.135000000000001,2024-06-05,600249.0943201995,5332612.461827386,17,N,22:51:58.500,48.13886248,-79.65246374,55191.37155,1,2150,-29394,30760,3.6,1.727,-4.333,-0.04575,-0.62814,0.7319,40.85,179.8,I,,,,,,,,,,,,,,,,,,,,,,,,,,,,,,,,,,,,,,,,,,,,,,1,0.7643529411764706,0.8153333333333334,0.6091372549019608,1.0,10.0,0,0
8159997,22:51:55,5.076666666666667,2024-06-05,600249.3450890515,5332637.608315959,17,N,22:51:55.000,48.13908862,-79.65245445,55200.9326,1,1703,-29339,30752,-1.098,-2.62,3.348,0.10481,-0.65474,0.80594,40.883,175.4,G,0.49,2.0,12.0,389.5,-38.5,12.942,0.0, ,D,'$GNGGA,225155.0,4808.34506,N,7939.14724,W,2.0,12.0,0.49,389.5,M,-38.5,M,,0131*7E','$GNRMC,225155.0,A,4808.34506,N,7939.14724,W,12.942,175.36,50624.0,,,D,V*26',,,,,,,,1,0.7731372549019608,0.8188888888888889,0.6119607843137255,1.0,10.0,0,0
8156497,22:51:51.500000,5.0183333333333335,2024-06-05,600248.7539653577,5332661.494847392,17,N,22:51:51.500,48.13930356,-79.65245677,55224.5631,1,-1559,-29373,30807,-4.334,1.718,-7.994,0.05491,-0.66726,0.74353,40.896,180.3,I,,,,,,,,,,,,,,,,,,,,,,,,,,,,,,,,,,,,,,,,,,,,,,1,0.7950980392156863,0.8277777777777777,0.6190196078431373,1.0,10.0,0,0
8152997,22:51:48,4.96,2024-06-05,600249.0879983873,5332688.471697074,17,N,22:51:48.000,48.13954615,-79.65244593,55268.0005,1,-842,-26706,31762,-2.931,1.354,-5.886,-0.01656,-0.57029,0.77592,40.905,181.3,G,0.49,2.0,12.0,389.6,-38.5,16.014,0.0, ,D,'$GNGGA,225148.0,4808.37251,N,7939.14677,W,2.0,12.0,0.49,389.6,M,-38.5,M,,0131*70','$GNRMC,225148.0,A,4808.37251,N,7939.14677,W,16.014,181.33,50624.0,,,D,V*2B',,,,,,,,1,0.8434117647058823,0.8473333333333333,0.6345490196078432,1.0,10.0,0,0
8149497,22:51:44.500000,4.901666666666667,2024-06-05,600249.8347319273,5332715.8048817655,17,N,22:51:44.500,48.13979188,-79.65242946,55348.34915,1,626,-27485,31679,-13.141,-4.504,5.852,0.09322,-0.59475,0.73954,40.956,183.8,I,,,,,,,,,,,,,,,,,,,,,,,,,,,,,,,,,,,,,,,,,,,,,,1,0.8481699346405229,0.7758823529411765,0.5506535947712418,1.0,10.0,0,0
8145997,22:51:41,4.843333333333334,2024-06-05,600250.0640644493,5332744.21188999,17,N,22:51:41.000,48.14004735,-79.65241969,55495.67865,1,3649,-22133,33270,-5.779,1.186,14.391,0.06069,-0.55863,0.84718,40.914,177.3,G,0.49,2.0,12.0,385.3,-38.5,16.654,0.0, ,D,'$GNGGA,225141.0,4808.40258,N,7939.14517,W,2.0,12.0,0.49,385.3,M,-38.5,M,,0131*7C','$GNRMC,225141.0,A,4808.40258,N,7939.14517,W,16.654,177.32,50624.0,,,D,V*24',,,,,,,,1,0.8445098039215686,0.6276470588235296,0.37862745098039224,1.0,10.0,0,0
8142497,22:51:37.500000,4.785,2024-06-05,600248.5921417895,5332773.77426523,17,N,22:51:37.500,48.14031348,-79.65243251,55709.48415,1,1156,-27936,31833,-0.37,-2.528,-1.678,-0.01012,-0.59325,0.83309,40.982,179.7,I,,,,,,,,,,,,,,,,,,,,,,,,,,,,,,,,,,,,,,,,,,,,,,1,0.7663398692810457,0.2781045751633987,0.18352941176470589,1.0,10.0,0,0
8138997,22:51:34,4.7266666666666675,2024-06-05,600248.1648467552,5332798.970029514,17,N,22:51:34.000,48.14054017,-79.65243232,55814.6359,1,-1455,-28577,31665,19.135,4.742,7.492,0.06444,-0.51352,0.94595,41.025,183.2,G,0.49,2.0,12.0,381.9,-38.5,14.253,0.0, ,D,'$GNGGA,225134.0,4808.43215,N,7939.14597,W,2.0,12.0,0.49,381.9,M,-38.5,M,,0131*72','$GNRMC,225134.0,A,4808.43215,N,7939.14597,W,14.253,183.19,50624.0,,,D,V*27',,,,,,,,1,0.7166666666666667,0.08333333333333333,0.09333333333333332,1.0,10.0,0,0
8135497,22:51:30.500000,4.668333333333334,2024-06-05,600249.3588971035,5332825.616185566,17,N,22:51:30.500,48.14077965,-79.65241,55751.76975,1,557,-30802,30771,-10.299,-5.539,-2.94,0.1558,-0.7026,0.6008,41.051,178.3,I,,,,,,,,,,,,,,,,,,,,,,,,,,,,,,,,,,,,,,,,,,,,,,1,0.7464705882352941,0.20019607843137255,0.14745098039215687,1.0,10.0,0,0
8131997,22:51:27,4.61,2024-06-05,600249.3869353469,5332853.151361271,17,N,22:51:27.000,48.14102731,-79.65240314,55623.77805,1,732,-25409,32535,-5.115,-1.53,-2.014,-0.03354,-0.52887,0.78132,41.068,183.7,G,0.49,2.0,12.0,377.2,-38.5,15.664,0.0, ,D,'$GNGGA,225127.0,4808.46138,N,7939.14422,W,2.0,12.0,0.49,377.2,M,-38.5,M,,0131*74','$GNRMC,225127.0,A,4808.46138,N,7939.14422,W,15.664,183.71,50624.0,,,D,V*2C',,,,,,,,1,0.8060784313725491,0.43392156862745096,0.2556862745098039,1.0,10.0,0,0
8128497,22:51:23.500000,4.551666666666667,2024-06-05,600249.2019989765,5332881.119741736,17,N,22:51:23.500,48.1412789,-79.65239904,55484.6841,1,2301,-30118,30679,4.005,5.493,-2.278,-0.04911,-0.68243,0.80109,41.091,179.4,I,,,,,,,,,,,,,,,,,,,,,,,,,,,,,,,,,,,,,,,,,,,,,,1,0.8448235294117648,0.6403529411764706,0.39337254901960783,1.0,10.0,0,0
8124997,22:51:20,4.493333333333334,2024-06-05,600249.0304865948,5332909.510840338,17,N,22:51:20.000,48.14153429,-79.65239466,55374.21,1,821,-27798,31550,-4.878,1.759,3.589,-0.05626,-0.63626,0.77692,41.098,180.7,G,0.53,2.0,12.0,374.9,-38.5,15.88,0.0, ,D,'$GNGGA,225120.0,4808.4918,N,7939.14369,W,2.0,12.0,0.53,374.9,M,-38.5,M,,0131*74','$GNRMC,225120.0,A,4808.4918,N,7939.14369,W,15.88,180.67,50624.0,,,D,V*2F',,,,,,,,1,0.8475424836601306,0.7504705882352941,0.5211633986928104,1.0,10.0,0,0
8121497,22:51:16.500000,4.4350000000000005,2024-06-05,600248.61183907,5332937.6519037075,17,N,22:51:16.500,48.14178747,-79.65239366,55276.7138,1,-261,-29180,30863,7.531,-4.405,-1.996,0.13453,-0.63886,0.81919,41.129,182.1,I,,,,,,,,,,,,,,,,,,,,,,,,,,,,,,,,,,,,,,,,,,,,,,1,0.8499477124183006,0.8478823529411764,0.6342091503267974,1.0,10.0,0,0
8117997,22:51:13,4.376666666666667,2024-06-05,600249.2542696912,5332965.496921961,17,N,22:51:13.000,48.14203782,-79.65237847,55204.0034,1,1379,-29846,30486,5.589,1.089,-3.835,0.03457,-0.66745,0.75149,41.152,182.0,G,0.53,2.0,12.0,373.5,-38.5,15.513,0.0, ,D,'$GNGGA,225113.0,4808.52201,N,7939.14273,W,2.0,12.0,0.53,373.5,M,-38.5,M,,0131*75','$GNRMC,225113.0,A,4808.52201,N,7939.14273,W,15.513,182.04,50624.0,,,D,V*25',,,,,,,,1,0.7775294117647059,0.8206666666666667,0.6133725490196079,1.0,10.0,0,0
8114497,22:51:09.500000,4.318333333333333,2024-06-05,600249.5367900248,5332993.370101217,17,N,22:51:09.500,48.14228848,-79.65236811,55154.06715,1,3295,-30022,30291,-0.981,2.587,-5.45,0.00354,-0.5949,0.83187,41.168,180.2,I,,,,,,,,,,,,,,,,,,,,,,,,,,,,,,,,,,,,,,,,,,,,,,1,0.7248235294117646,0.7993333333333333,0.5964313725490196,1.0,10.0,0,0
8110997,22:51:06,4.26,2024-06-05,600249.0739550517,5333019.488040669,17,N,22:51:06.000,48.14252347,-79.65236818,55115.8292,1,3964,-30673,29990,-8.257,2.277,5.143,0.00108,-0.55174,0.71361,41.158,180.1,G,0.53,2.0,12.0,376.1,-38.5,13.004,0.0, ,D,'$GNGGA,225106.0,4808.55115,N,7939.1421,W,2.0,12.0,0.53,376.1,M,-38.5,M,,0131*74','$GNRMC,225106.0,A,4808.55115,N,7939.1421,W,13.004,180.08,50624.0,,,D,V*2E',,,,,,,,1,0.6852941176470587,0.7833333333333332,0.5837254901960784,1.0,10.0,0,0
8107497,22:51:02.500000,4.201666666666666,2024-06-05,600249.3188529746,5333045.388240448,17,N,22:51:02.500,48.14275639,-79.65235879,55078.37145,1,2713,-29482,30508,-7.094,-3.476,-4.876,0.02959,-0.55473,0.69012,41.217,180.9,I,,,,,,,,,,,,,,,,,,,,,,,,,,,,,,,,,,,,,,,,,,,,,,1,0.6457647058823529,0.7673333333333333,0.5710196078431373,1.0,10.0,0,0
8103997,22:50:59,4.1433333333333335,2024-06-05,600249.1606647657,5333072.804536645,17,N,22:50:59.000,48.14300301,-79.65235446,55033.2963,1,3879,-29105,30595,-0.992,3.699,-0.712,-0.00056,-0.46839,0.73098,41.242,180.5,G,0.53,2.0,12.0,380.4,-38.5,14.928,0.0, ,D,'$GNGGA,225059.0,4808.57992,N,7939.14128,W,2.0,12.0,0.53,380.4,M,-38.5,M,,0131*7E','$GNRMC,225059.0,A,4808.57992,N,7939.14128,W,14.928,180.45,50624.0,,,D,V*21',,,,,,,,1,0.5974509803921568,0.7477777777777778,0.5554901960784314,1.0,10.0,0,0
8100497,22:50:55.500000,4.085,2024-06-05,600249.1500486743,5333100.419095601,17,N,22:50:55.500,48.14325139,-79.6523481,54997.29115,1,3020,-30797,29866,5.768,1.014,14.26,0.13917,-0.54897,0.75933,41.267,181.1,I,,,,,,,,,,,,,,,,,,,,,,,,,,,,,,,,,,,,,,,,,,,,,,1,0.5582875816993463,0.7284313725490197,0.5486797385620915,1.0,10.0,0,0
8096997,22:50:52,4.026666666666666,2024-06-05,600250.4264089568,5333129.409260269,17,N,22:50:52.000,48.14351194,-79.65232412,54969.1478,1,4120,-30789,29776,6.892,1.523,21.087,0.12442,-0.5201,0.85482,41.291,178.0,G,0.53,2.0,12.0,382.1,-38.5,13.393,0.0, ,D,'$GNGGA,225052.0,4808.61046,N,7939.13944,W,2.0,12.0,0.53,382.1,M,-38.5,M,,0131*72','$GNRMC,225052.0,A,4808.61046,N,7939.13944,W,13.393,177.98,50624.0,,,D,V*2F',,,,,,,,1,0.511437908496732,0.6954901960784313,0.5567320261437909,1.0,10.0,0,0
8093497,22:50:48.500000,3.9683333333333333,2024-06-05,600249.9474871943,5333154.745332048,17,N,22:50:48.500,48.1437399,-79.65232459,54952.5407,1,1086,-31196,29588,-3.881,1.016,20.093,0.13513,-0.64589,0.71932,41.295,179.0,I,,,,,,,,,,,,,,,,,,,,,,,,,,,,,,,,,,,,,,,,,,,,,,1,0.48466666666666675,0.6766666666666667,0.5613333333333334,1.0,10.0,0,0
8089997,22:50:45,3.9099999999999997,2024-06-05,600249.1304664577,5333177.719588143,17,N,22:50:45.000,48.14394667,-79.65233016,54931.06205,1,2396,-28141,31015,-1.191,3.147,2.559,0.06274,-0.37862,0.80631,41.32,179.0,G,0.53,2.0,12.0,382.2,-38.5,11.083,0.0, ,D,'$GNGGA,225045.0,4808.63654,N,7939.13981,W,2.0,12.0,0.53,382.2,M,-38.5,M,,0131*79','$GNRMC,225045.0,A,4808.63654,N,7939.13981,W,11.083,178.99,50624.0,,,D,V*29',,,,,,,,1,0.45120261437908493,0.6531372549019608,0.5670849673202615,1.0,10.0,0,0
8086497,22:50:41.500000,3.8516666666666666,2024-06-05,600248.9911939541,5333200.91251463,17,N,22:50:41.500,48.1441553,-79.65232657,54906.18575,1,2026,-30794,29829,5.596,6.085,-8.706,-0.04827,-0.54052,0.77478,41.328,182.9,I,,,,,,,,,,,,,,,,,,,,,,,,,,,,,,,,,,,,,,,,,,,,,,1,0.4110457516339869,0.6249019607843137,0.5739869281045751,1.0,10.0,0,0
8082997,22:50:38,3.7933333333333334,2024-06-05,600249.6577127096,5333226.867917611,17,N,22:50:38.000,48.14438865,-79.6523115,54883.965,1,2240,-31655,29350,0.816,1.553,22.405,-0.01797,-0.61143,0.74303,41.32,185.1,G,0.53,2.0,12.0,382.2,-38.5,14.13,0.0, ,D,'$GNGGA,225038.0,4808.66306,N,7939.13873,W,2.0,12.0,0.53,382.2,M,-38.5,M,,0131*78','$GNRMC,225038.0,A,4808.66306,N,7939.13873,W,14.13,185.14,50624.0,,,D,V*23',,,,,,,,1,0.37758169934640523,0.6013725490196079,0.5797385620915033,1.0,10.0,0,0
8079497,22:50:34.500000,3.735,2024-06-05,600249.7742236292,5333253.467419373,17,N,22:50:34.500,48.14462788,-79.65230367,54872.57535,1,1254,-31147,29581,7.355,-1.597,-7.896,-0.04954,-0.64216,0.79895,41.381,183.4,I,,,,,,,,,,,,,,,,,,,,,,,,,,,,,,,,,,,,,,,,,,,,,,1,0.3575032679738562,0.5872549019607843,0.5831895424836602,1.0,10.0,0,0
8075997,22:50:31,3.6766666666666667,2024-06-05,600250.6777217336,5333281.736175049,17,N,22:50:31.000,48.144882,-79.65228487,54864.27535,1,2843,-31413,29498,12.908,9.888,6.708,-0.06274,-0.66817,0.7039,41.428,182.1,G,0.53,2.0,12.0,382.3,-38.5,16.551,0.0, ,D,'$GNGGA,225031.0,4808.69266,N,7939.13711,W,2.0,12.0,0.53,382.3,M,-38.5,M,,0131*73','$GNRMC,225031.0,A,4808.69266,N,7939.13711,W,16.551,182.05,50624.0,,,D,V*2F',,,,,,,,1,0.34411764705882353,0.577843137254902,0.5854901960784313,1.0,10.0,0,0
8072497,22:50:27.500000,3.618333333333333,2024-06-05,600249.6417713094,5333308.286577801,17,N,22:50:27.500,48.14512097,-79.65229254,54863.3606,1,2475,-30141,29991,-5.172,12.819,-14.332,-0.11393,-0.65051,0.73288,41.451,180.9,I,,,,,,,,,,,,,,,,,,,,,,,,,,,,,,,,,,,,,,,,,,,,,,1,0.34411764705882353,0.577843137254902,0.5854901960784313,1.0,10.0,0,0
8068997,22:50:24,3.56,2024-06-05,600249.5099446647,5333335.171909923,17,N,22:50:24.000,48.14536281,-79.65228798,54860.6878,1,-1753,-34495,27862,14.949,-1.874,-1.306,-0.14869,-1.17667,0.4662,41.465,185.2,G,0.53,2.0,12.0,380.1,-38.5,18.296,0.0, ,D,'$GNGGA,225024.0,4808.72151,N,7939.13732,W,2.0,12.0,0.53,380.1,M,-38.5,M,,0131*7B','$GNRMC,225024.0,A,4808.72151,N,7939.13732,W,18.296,185.22,50624.0,,,D,V*27',,,,,,,,1,0.3374248366013072,0.5731372549019608,0.586640522875817,1.0,10.0,0,0
8065497,22:50:20.500000,3.5016666666666665,2024-06-05,600250.2995927524,5333360.849304747,17,N,22:50:20.500,48.14559364,-79.65227132,54850.51415,1,1154,-34167,28125,1.819,19.526,-84.763,-0.14328,-0.96783,0.31209,41.439,179.2,I,,,,,,,,,,,,,,,,,,,,,,,,,,,,,,,,,,,,,,,,,,,,,,1,0.32403921568627453,0.5637254901960784,0.5889411764705882,1.0,10.0,0,0
8061997,22:50:17,3.4433333333333334,2024-06-05,600249.3744789476,5333386.382137011,17,N,22:50:17.000,48.14582344,-79.65227774,54834.0015,1,1121,-35873,27305,-39.264,-0.893,-17.64,-0.08386,-0.9117,0.51482,41.516,179.9,G,0.53,2.0,12.0,377.8,-38.5,14.133,0.0, ,D,'$GNGGA,225017.0,4808.74915,N,7939.13667,W,2.0,12.0,0.53,377.8,M,-38.5,M,,0131*75','$GNRMC,225017.0,A,4808.74915,N,7939.13667,W,14.133,179.9,50624.0,,,D,V*22',,,,,,,,1,0.2972679738562092,0.5449019607843137,0.5935424836601306,1.0,10.0,0,0
8058497,22:50:13.500000,3.385,2024-06-05,600249.3125308567,5333412.97295966,17,N,22:50:13.500,48.14606262,-79.65227231,54827.7013,1,1530,-23128,32349,0.145,1.642,7.763,-0.0352,-0.46477,0.86453,41.502,184.4,I,,,,,,,,,,,,,,,,,,,,,,,,,,,,,,,,,,,,,,,,,,,,,,1,0.2838823529411764,0.5354901960784313,0.5958431372549019,1.0,10.0,0,0
8054997,22:50:10,3.3266666666666667,2024-06-05,600250.1686974843,5333441.264241761,17,N,22:50:10.000,48.14631695,-79.65225414,54825.8166,1,4513,-20678,32913,7.454,-9.627,-3.433,0.02299,-0.44047,0.97865,41.537,180.5,G,0.53,2.0,12.0,378.6,-38.5,15.698,0.0, ,D,'$GNGGA,225010.0,4808.77876,N,7939.13526,W,2.0,12.0,0.53,378.6,M,-38.5,M,,0131*72','$GNRMC,225010.0,A,4808.77876,N,7939.13526,W,15.698,180.47,50624.0,,,D,V*2F',,,,,,,,1,0.2838823529411764,0.5354901960784313,0.5958431372549019,1.0,10.0,0,0
8051497,22:50:06.500000,3.268333333333333,2024-06-05,600250.0038477579,5333468.928369368,17,N,22:50:06.500,48.1465658,-79.65224984,54845.20905,1,2142,-21803,32789,14.728,-5.814,8.652,0.04382,-0.58671,0.87424,41.549,182.7,I,,,,,,,,,,,,,,,,,,,,,,,,,,,,,,,,,,,,,,,,,,,,,,1,0.3106535947712418,0.5543137254901961,0.5912418300653595,1.0,10.0,0,0
8047997,22:50:03,3.21,2024-06-05,600249.7777936719,5333497.367458548,17,N,22:50:03.000,48.14682163,-79.65224618,54873.39985,1,2428,-22518,32601,7.662,0.61,7.878,-0.10676,-0.55428,0.86822,41.539,183.2,G,0.53,2.0,12.0,379.3,-38.5,16.365,0.0, ,D,'$GNGGA,225003.0,4808.80904,N,7939.1348,W,2.0,12.0,0.53,379.3,M,-38.5,M,,0131*75','$GNRMC,225003.0,A,4808.80904,N,7939.1348,W,16.365,183.18,50624.0,,,D,V*21',,,,,,,,1,0.3575032679738562,0.5872549019607843,0.5831895424836602,1.0,10.0,0,0
8044497,22:49:59.500000,3.1516666666666664,2024-06-05,600249.1389980456,5333525.115562016,17,N,22:49:59.500,48.14707131,-79.65224823,54884.7915,1,1271,-24864,31942,3.099,0.72,-0.841,-0.01868,-0.5609,0.79319,41.543,181.4,I,,,,,,,,,,,,,,,,,,,,,,,,,,,,,,,,,,,,,,,,,,,,,,1,0.37758169934640523,0.6013725490196079,0.5797385620915033,1.0,10.0,0,0
8040997,22:49:56,3.0933333333333333,2024-06-05,600249.7127221425,5333553.090597558,17,N,22:49:56.000,48.14732284,-79.65223393,54874.1656,1,3855,-26999,31292,3.78,-2.692,10.264,-0.05057,-0.58722,0.76003,41.588,177.2,G,0.53,2.0,12.0,377.3,-38.5,15.716,0.0, ,D,'$GNGGA,224956.0,4808.83911,N,7939.13402,W,2.0,12.0,0.53,377.3,M,-38.5,M,,0131*7E','$GNRMC,224956.0,A,4808.83911,N,7939.13402,W,15.716,177.22,50624.0,,,D,V*25',,,,,,,,1,0.3575032679738562,0.5872549019607843,0.5831895424836602,1.0,10.0,0,0
8037497,22:49:52.500000,3.0349999999999997,2024-06-05,600249.2412777429,5333581.096237272,17,N,22:49:52.500,48.14757481,-79.65223367,54859.83945,1,644,-25239,31815,0.557,-1.63,-1.709,0.05813,-0.57834,0.78794,41.623,180.5,I,,,,,,,,,,,,,,,,,,,,,,,,,,,,,,,,,,,,,,,,,,,,,,1,0.3374248366013072,0.5731372549019608,0.586640522875817,1.0,10.0,0,0
8033997,22:49:49,2.9766666666666666,2024-06-05,600249.8733795435,5333609.177919239,17,N,22:49:49.000,48.14782729,-79.65221856,54836.55625,1,2012,-24914,31984,2.274,0.043,1.499,0.01851,-0.58972,0.83954,41.588,178.8,G,0.53,2.0,12.0,374.4,-38.5,15.576,0.0, ,D,'$GNGGA,224949.0,4808.86938,N,7939.13311,W,2.0,12.0,0.53,374.4,M,-38.5,M,,0131*7F','$GNRMC,224949.0,A,4808.86938,N,7939.13311,W,15.576,178.83,50624.0,,,D,V*20',,,,,,,,1,0.2972679738562092,0.5449019607843137,0.5935424836601306,1.0,10.0,0,0
8030497,22:49:45.500000,2.9183333333333334,2024-06-05,600250.2222776421,5333636.564214735,17,N,22:49:45.500,48.14807356,-79.65220742,54839.54295,1,1939,-24119,32148,-6.593,-0.817,-13.858,-0.00323,-0.64743,0.81217,41.634,180.5,I,,,,,,,,,,,,,,,,,,,,,,,,,,,,,,,,,,,,,,,,,,,,,,1,0.30396078431372553,0.5496078431372549,0.592392156862745,1.0,10.0,0,0
8026997,22:49:42,2.86,2024-06-05,600250.303622291,5333664.018089334,17,N,22:49:42.000,48.14832048,-79.65219986,54871.837,1,3100,-24803,31846,13.006,-6.762,4.887,-0.02277,-0.69238,0.85326,41.607,179.0,G,0.53,2.0,12.0,369.5,-38.5,15.904,0.0, ,D,'$GNGGA,224942.0,4808.89897,N,7939.13199,W,2.0,12.0,0.53,369.5,M,-38.5,M,,0131*70','$GNRMC,224942.0,A,4808.89897,N,7939.13199,W,15.904,178.96,50624.0,,,D,V*2F',,,,,,,,1,0.3575032679738562,0.5872549019607843,0.5831895424836602,1.0,10.0,0,0
8023497,22:49:38.500000,2.8016666666666667,2024-06-05,600249.5887410227,5333691.309030432,17,N,22:49:38.500,48.14856606,-79.65220304,54936.50065,1,888,-18514,33549,-6.148,1.362,-11.915,-0.03732,-0.49631,0.9649,41.627,181.6,I,,,,,,,,,,,,,,,,,,,,,,,,,,,,,,,,,,,,,,,,,,,,,,1,0.4578954248366013,0.657843137254902,0.5659346405228758,1.0,10.0,0,0
8019997,22:49:35,2.743333333333333,2024-06-05,600249.9537768692,5333719.768495169,17,N,22:49:35.000,48.14882198,-79.65219143,54986.9214,1,1283,-21370,32946,-0.435,-6.086,23.77,0.04958,-0.4842,0.94254,41.676,183.9,G,0.53,2.0,12.0,371.1,-38.5,16.04,0.0, ,D,'$GNGGA,224935.0,4808.92906,N,7939.13152,W,2.0,12.0,0.53,371.1,M,-38.5,M,,0131*79','$GNRMC,224935.0,A,4808.92906,N,7939.13152,W,16.04,183.89,50624.0,,,D,V*2B',,,,,,,,1,0.5382091503267975,0.7143137254901961,0.5521307189542484,1.0,10.0,0,0
8016497,22:49:31.500000,2.685,2024-06-05,600249.3361269622,5333747.709319368,17,N,22:49:31.500,48.14907339,-79.65219315,55025.8633,1,4236,-24885,31996,-1.591,5.161,3.969,-0.07902,-0.45622,0.80778,41.633,180.7,I,,,,,,,,,,,,,,,,,,,,,,,,,,,,,,,,,,,,,,,,,,,,,,1,0.5886666666666667,0.7442222222222222,0.5526666666666668,1.0,10.0,0,0
8012997,22:49:28,2.6266666666666665,2024-06-05,600249.5523249576,5333775.151109035,17,N,22:49:28.000,48.14932018,-79.65218378,55058.6618,1,1176,-27151,31503,-1.738,1.062,3.293,0.05926,-0.57912,0.78639,41.684,179.4,G,0.53,2.0,12.0,381.9,-38.5,15.854,0.0, ,D,'$GNGGA,224928.0,4808.95895,N,7939.13103,W,2.0,12.0,0.53,381.9,M,-38.5,M,,0131*7A','$GNRMC,224928.0,A,4808.95895,N,7939.13103,W,15.854,179.35,50624.0,,,D,V*23',,,,,,,,1,0.6238039215686274,0.7584444444444445,0.5639607843137255,1.0,10.0,0,0
8318997,22:54:34,7.7266666666666675,2024-06-05,600299.6194382106,5331704.157520028,17,N,22:54:34.000,48.13068479,-79.65199868,54748.20015,1,972,-35698,27155,-1.371,-8.621,15.048,-0.07033,-0.33927,0.90568,39.896,2.1,G,0.49,2.0,12.0,384.0,-38.5,17.801,0.0, ,D,'$GNGGA,225434.0,4807.84135,N,7939.1199,W,2.0,12.0,0.49,384.0,M,-38.5,M,,0131*70','$GNRMC,225434.0,A,4807.84135,N,7939.1199,W,17.801,2.14,50624.0,,,D,V*22',,,,,,,,2,0.14333333333333334,0.4366666666666666,0.62,1.0,10.0,0,0
8322497,22:54:37.500000,7.785,2024-06-05,600299.7677843869,5331731.879317531,17,N,22:54:37.500,48.13093411,-79.65199016,54766.5024,1,767,-34241,28112,2.511,-5.841,13.675,-0.04919,-0.36146,0.90691,39.909,1.1,I,,,,,,,,,,,,,,,,,,,,,,,,,,,,,,,,,,,,,,,,,,,,,,2,0.18349019607843137,0.46490196078431373,0.6130980392156862,1.0,10.0,0,0
8325997,22:54:41,7.843333333333334,2024-06-05,600300.0137591327,5331759.5083248345,17,N,22:54:41.000,48.13118258,-79.65198035,54781.13405,1,591,-34855,27764,0.295,2.789,7.817,-0.08723,-0.24619,0.96181,39.891,0.5,G,0.49,2.0,12.0,383.9,-38.5,15.43,0.0, ,D,'$GNGGA,225441.0,4807.87121,N,7939.11881,W,2.0,12.0,0.49,383.9,M,-38.5,M,,0131*7B','$GNRMC,225441.0,A,4807.87121,N,7939.11881,W,15.43,0.54,50624.0,,,D,V*2D',,,,,,,,2,0.21026143790849672,0.48372549019607836,0.6084967320261437,1.0,10.0,0,0
8329497,22:54:44.500000,7.901666666666667,2024-06-05,600299.7767992584,5331787.896007284,17,N,22:54:44.500,48.13143795,-79.65197685,54800.12655,1,-2008,-35425,27384,-4.412,1.599,-2.146,-0.09874,-0.19602,0.95387,39.877,2.1,I,,,,,,,,,,,,,,,,,,,,,,,,,,,,,,,,,,,,,,,,,,,,,,2,0.25711111111111107,0.5166666666666666,0.6004444444444444,1.0,10.0,0,0
8332997,22:54:48,7.96,2024-06-05,600299.9126649025,5331815.776576334,17,N,22:54:48.000,48.1316887,-79.65196846,54817.22295,1,-1049,-35814,27192,-5.075,-7.431,-3.163,-0.05312,-0.19924,0.96221,39.869,1.6,G,0.49,2.0,12.0,383.7,-38.5,15.04,0.0, ,D,'$GNGGA,225448.0,4807.90158,N,7939.11809,W,2.0,12.0,0.49,383.7,M,-38.5,M,,0131*74','$GNRMC,225448.0,A,4807.90158,N,7939.11809,W,15.04,1.55,50624.0,,,D,V*2F',,,,,,,,2,0.29057516339869277,0.5401960784313725,0.5946928104575163,1.0,10.0,0,0
8336497,22:54:51.500000,8.018333333333334,2024-06-05,600300.5894041939,5331843.795592904,17,N,22:54:51.500,48.13194061,-79.65195277,54837.9361,1,-2366,-35915,27003,-5.4,0.158,-5.098,-0.03164,-0.21253,0.96233,39.84,2.2,I,,,,,,,,,,,,,,,,,,,,,,,,,,,,,,,,,,,,,,,,,,,,,,2,0.3374248366013072,0.5731372549019608,0.586640522875817,1.0,10.0,0,0
8339997,22:54:55,8.076666666666666,2024-06-05,600300.107453151,5331871.849895525,17,N,22:54:55.000,48.13219302,-79.65195264,54857.3569,1,-1598,-35383,27373,7.014,-3.377,-5.389,-0.02861,-0.21604,0.94606,39.882,1.9,G,0.49,2.0,12.0,383.1,-38.5,15.468,0.0, ,D,'$GNGGA,225455.0,4807.93184,N,7939.11714,W,2.0,12.0,0.49,383.1,M,-38.5,M,,0131*7F','$GNRMC,225455.0,A,4807.93184,N,7939.11714,W,15.468,1.86,50624.0,,,D,V*22',,,,,,,,2,0.37758169934640523,0.6013725490196079,0.5797385620915033,1.0,10.0,0,0
8343497,22:54:58.500000,8.135,2024-06-05,600300.1768277972,5331899.786004804,17,N,22:54:58.500,48.13244428,-79.65194513,54879.51765,1,-730,-34155,28133,8.549,-2.193,-3.046,-0.00775,-0.22612,0.97805,39.849,359.5,I,,,,,,,,,,,,,,,,,,,,,,,,,,,,,,,,,,,,,,,,,,,,,,2,0.43112418300653604,0.6390196078431373,0.5705359477124182,1.0,10.0,0,0
8346997,22:55:02,8.193333333333333,2024-06-05,600300.0345901985,5331927.608339573,17,N,22:55:02.000,48.13269455,-79.65194049,54893.30665,1,1187,-35081,27715,3.806,5.444,1.35,-0.07608,-0.13972,0.97242,39.87,0.2,G,0.49,2.0,12.0,384.0,-38.5,14.393,0.0, ,D,'$GNGGA,225502.0,4807.96193,N,7939.11642,W,2.0,12.0,0.49,384.0,M,-38.5,M,,0131*7B','$GNRMC,225502.0,A,4807.96193,N,7939.11642,W,14.393,0.18,50624.0,,,D,V*24',,,,,,,,2,0.4578954248366013,0.657843137254902,0.5659346405228758,1.0,10.0,0,0
8350497,22:55:05.500000,8.251666666666667,2024-06-05,600299.7336266332,5331955.739195879,17,N,22:55:05.500,48.13294762,-79.65193791,54900.75825,1,137,-35397,27498,-2.549,-0.594,2.891,-0.08738,-0.16131,0.96351,39.865,2.7,I,,,,,,,,,,,,,,,,,,,,,,,,,,,,,,,,,,,,,,,,,,,,,,2,0.4779738562091504,0.6719607843137254,0.5624836601307189,1.0,10.0,0,0
8353997,22:55:09,8.31,2024-06-05,600299.8835685604,5331983.875731813,17,N,22:55:09.000,48.13320067,-79.65192927,54902.60145,1,-30,-33934,28398,0.149,-0.874,0.486,-0.0782,-0.19012,0.93459,39.828,1.5,G,0.49,2.0,12.0,387.1,-38.5,15.627,0.0, ,D,'$GNGGA,225509.0,4807.9923,N,7939.11574,W,2.0,12.0,0.49,387.1,M,-38.5,M,,0131*71','$GNRMC,225509.0,A,4807.9923,N,7939.11574,W,15.627,1.51,50624.0,,,D,V*2B',,,,,,,,2,0.4779738562091504,0.6719607843137254,0.5624836601307189,1.0,10.0,0,0
8357497,22:55:12.500000,8.368333333333334,2024-06-05,600299.7282264249,5332011.383203441,17,N,22:55:12.500,48.13344811,-79.65192488,54900.65665,1,1832,-34865,27996,-7.237,5.284,1.649,-0.06184,-0.24746,0.91507,39.838,359.4,I,,,,,,,,,,,,,,,,,,,,,,,,,,,,,,,,,,,,,,,,,,,,,,2,0.4779738562091504,0.6719607843137254,0.5624836601307189,1.0,10.0,0,0
8360997,22:55:16,8.426666666666668,2024-06-05,600299.95852975,5332039.137581927,17,N,22:55:16.000,48.13369771,-79.65191525,54904.8245,1,1587,-34893,27823,7.213,-3.267,4.913,-0.07592,-0.23009,0.91227,39.832,1.1,G,0.49,2.0,12.0,387.6,-38.5,15.647,0.0, ,D,'$GNGGA,225516.0,4808.02212,N,7939.1149,W,2.0,12.0,0.49,387.6,M,-38.5,M,,0131*7E','$GNRMC,225516.0,A,4808.02212,N,7939.1149,W,15.647,1.05,50624.0,,,D,V*24',,,,,,,,2,0.48466666666666675,0.6766666666666667,0.5613333333333334,1.0,10.0,0,0
8364497,22:55:19.500000,8.485000000000001,2024-06-05,600300.2400903015,5332066.769451087,17,N,22:55:19.500,48.1339462,-79.65190496,54916.72955,1,-2150,-38393,25572,-20.101,-3.194,2.335,-0.04266,-0.25238,0.98504,39.856,3.1,I,,,,,,,,,,,,,,,,,,,,,,,,,,,,,,,,,,,,,,,,,,,,,,2,0.511437908496732,0.6954901960784313,0.5567320261437909,1.0,10.0,0,0
8367997,22:55:23,8.543333333333333,2024-06-05,600299.8915648706,5332095.149633537,17,N,22:55:23.000,48.13420152,-79.65190296,54930.32875,1,-1374,-36829,26535,28.077,7.915,5.027,-0.04969,-0.25797,1.00503,39.836,0.3,G,0.49,2.0,12.0,385.9,-38.5,15.321,0.0, ,D,'$GNGGA,225523.0,4808.05235,N,7939.11417,W,2.0,12.0,0.49,385.9,M,-38.5,M,,0131*78','$GNRMC,225523.0,A,4808.05235,N,7939.11417,W,15.321,0.28,50624.0,,,D,V*24',,,,,,,,2,0.5382091503267975,0.7143137254901961,0.5521307189542484,1.0,10.0,0,0
8371497,22:55:26.500000,8.601666666666667,2024-06-05,600299.7625488702,5332123.489192534,17,N,22:55:26.500,48.13445644,-79.65189802,54937.7181,1,332,-34834,27798,0.616,-3.903,-3.097,-0.06079,-0.24619,0.95162,39.82,0.7,I,,,,,,,,,,,,,,,,,,,,,,,,,,,,,,,,,,,,,,,,,,,,,,2,0.5582875816993463,0.7284313725490197,0.5486797385620915,1.0,10.0,0,0
8374997,22:55:30,8.66,2024-06-05,600300.062315232,5332151.354861235,17,N,22:55:30.000,48.13470703,-79.65188743,54928.7313,1,-336,-34358,28044,1.879,0.351,-8.95,-0.02754,-0.24849,0.94763,39.871,359.8,G,0.49,2.0,12.0,383.5,-38.5,15.952,0.0, ,D,'$GNGGA,225530.0,4808.08268,N,7939.11324,W,2.0,12.0,0.49,383.5,M,-38.5,M,,0131*72','$GNRMC,225530.0,A,4808.08268,N,7939.11324,W,15.952,359.78,50624.0,,,D,V*20',,,,,,,,2,0.5382091503267975,0.7143137254901961,0.5521307189542484,1.0,10.0,0,0
8378497,22:55:33.500000,8.718333333333334,2024-06-05,600299.984763358,5332178.880380662,17,N,22:55:33.500,48.13495462,-79.65188199,54923.96675,1,-854,-36109,26992,-3.477,3.865,-4.91,-0.0367,-0.24844,0.96831,39.814,1.1,I,,,,,,,,,,,,,,,,,,,,,,,,,,,,,,,,,,,,,,,,,,,,,,2,0.5248235294117647,0.7049019607843137,0.5544313725490195,1.0,10.0,0,0
8381997,22:55:37,8.776666666666667,2024-06-05,600299.8506147246,5332206.959694079,17,N,22:55:37.000,48.1352072,-79.65187718,54935.8479,1,-563,-34896,27736,3.179,-0.375,-0.896,-0.08082,-0.20355,0.9978,39.855,0.6,G,0.49,2.0,12.0,381.4,-38.5,15.206,0.0, ,D,'$GNGGA,225537.0,4808.11269,N,7939.11262,W,2.0,12.0,0.49,381.4,M,-38.5,M,,0131*7C','$GNRMC,225537.0,A,4808.11269,N,7939.11262,W,15.206,0.57,50624.0,,,D,V*25',,,,,,,,2,0.55159477124183,0.7237254901960785,0.5498300653594771,1.0,10.0,0,0
8385497,22:55:40.500000,8.835,2024-06-05,600299.7196866692,5332234.770011323,17,N,22:55:40.500,48.13545736,-79.65187239,54940.165,1,1350,-35585,27442,-1.219,2.232,-4.266,-0.12574,-0.20196,0.9231,39.863,1.8,I,,,,,,,,,,,,,,,,,,,,,,,,,,,,,,,,,,,,,,,,,,,,,,2,0.5582875816993463,0.7284313725490197,0.5486797385620915,1.0,10.0,0,0
8388997,22:55:44,8.893333333333334,2024-06-05,600299.2813838744,5332262.2414048165,17,N,22:55:44.000,48.13570452,-79.65187181,54937.52035,1,167,-35856,27337,2.262,3.766,-6.449,-0.09891,-0.23031,0.93461,39.88,0.4,G,0.49,2.0,12.0,387.3,-38.5,15.181,0.0, ,D,'$GNGGA,225544.0,4808.14253,N,7939.1123,W,2.0,12.0,0.49,387.3,M,-38.5,M,,0131*72','$GNRMC,225544.0,A,4808.14253,N,7939.1123,W,15.181,0.44,50624.0,,,D,V*24',,,,,,,,2,0.5582875816993463,0.7284313725490197,0.5486797385620915,1.0,10.0,0,0
8392497,22:55:47.500000,8.951666666666666,2024-06-05,600299.4309790327,5332289.798705061,17,N,22:55:47.500,48.13595236,-79.65186331,54939.10525,1,802,-36938,26601,-9.293,2.075,-8.996,-0.15469,-0.2677,0.89878,39.846,1.8,I,,,,,,,,,,,,,,,,,,,,,,,,,,,,,,,,,,,,,,,,,,,,,,2,0.5582875816993463,0.7284313725490197,0.5486797385620915,1.0,10.0,0,0
8395997,22:55:51,9.01,2024-06-05,600299.3066640518,5332317.740333526,17,N,22:55:51.000,48.1362037,-79.6518584,54951.30485,1,917,-36947,26610,3.626,-0.325,-12.153,-0.10902,-0.2803,0.88653,39.838,4.2,G,0.49,2.0,12.0,393.9,-38.5,15.799,0.0, ,D,'$GNGGA,225551.0,4808.17248,N,7939.11147,W,2.0,12.0,0.49,393.9,M,-38.5,M,,0131*73','$GNRMC,225551.0,A,4808.17248,N,7939.11147,W,15.799,4.2,50624.0,,,D,V*23',,,,,,,,2,0.5798823529411764,0.7406666666666666,0.549843137254902,1.0,10.0,0,0
8399497,22:55:54.500000,9.068333333333333,2024-06-05,600299.7979789453,5332345.756125397,17,N,22:55:54.500,48.13645561,-79.6518452,54966.32385,1,2096,-36176,27171,-6.649,1.683,-17.197,-0.09178,-0.2669,0.90836,39.822,0.8,I,,,,,,,,,,,,,,,,,,,,,,,,,,,,,,,,,,,,,,,,,,,,,,2,0.6018431372549019,0.7495555555555555,0.5569019607843138,1.0,10.0,0,0
8402997,22:55:58,9.126666666666667,2024-06-05,600300.057891275,5332373.768974791,17,N,22:55:58.000,48.13670753,-79.65183511,54986.91955,1,-1405,-37950,25915,10.463,3.016,-11.721,-0.04302,-0.28426,0.94537,39.881,2.8,G,0.49,2.0,12.0,393.7,-38.5,15.31,0.0, ,D,'$GNGGA,225558.0,4808.20271,N,7939.11008,W,2.0,12.0,0.49,393.7,M,-38.5,M,,0131*70','$GNRMC,225558.0,A,4808.20271,N,7939.11008,W,15.31,2.76,50624.0,,,D,V*2E',,,,,,,,2,0.6325882352941177,0.762,0.5667843137254902,1.0,10.0,0,0
8406497,22:56:01.500000,9.185,2024-06-05,600299.9717192819,5332401.571189783,17,N,22:56:01.500,48.13695761,-79.65182972,55008.48075,1,-2375,-36909,26677,2.58,0.097,-3.346,-0.029,-0.27335,0.9588,39.847,0.2,I,,,,,,,,,,,,,,,,,,,,,,,,,,,,,,,,,,,,,,,,,,,,,,2,0.6633333333333333,0.7744444444444444,0.5766666666666667,1.0,10.0,0,0
8409997,22:56:05,9.243333333333334,2024-06-05,600299.7429668803,5332429.483198131,17,N,22:56:05.000,48.1372087,-79.65182622,55030.875,1,-2460,-37469,26225,1.635,-0.765,5.493,-0.01665,-0.2873,0.94036,39.886,359.6,G,0.49,2.0,12.0,392.3,-38.5,15.461,0.0, ,D,'$GNGGA,225605.0,4808.23278,N,7939.10957,W,2.0,12.0,0.49,392.3,M,-38.5,M,,0131*76','$GNRMC,225605.0,A,4808.23278,N,7939.10957,W,15.461,359.61,50624.0,,,D,V*27',,,,,,,,2,0.694078431372549,0.786888888888889,0.5865490196078432,1.0,10.0,0,0
8413497,22:56:08.500000,9.301666666666668,2024-06-05,600299.8339716968,5332457.408594754,17,N,22:56:08.500,48.13745986,-79.65181842,55053.88465,1,-34,-36954,26781,-2.834,1.236,6.413,-0.04986,-0.26963,0.94521,39.896,0.5,I,,,,,,,,,,,,,,,,,,,,,,,,,,,,,,,,,,,,,,,,,,,,,,2,0.7292156862745097,0.8011111111111111,0.5978431372549019,1.0,10.0,0,0
8416997,22:56:12,9.360000000000001,2024-06-05,600299.861206431,5332485.575245943,17,N,22:56:12.000,48.1377132,-79.65181142,55084.62065,1,25,-34663,28056,1.209,-5.591,3.181,-0.06254,-0.22738,0.9245,39.859,1.2,G,0.49,2.0,12.0,388.6,-38.5,15.855,0.0, ,D,'$GNGGA,225612.0,4808.26305,N,7939.10867,W,2.0,12.0,0.49,388.6,M,-38.5,M,,0131*72','$GNRMC,225612.0,A,4808.26305,N,7939.10867,W,15.855,1.2,50624.0,,,D,V*2D',,,,,,,,2,0.7731372549019608,0.8188888888888889,0.6119607843137255,1.0,10.0,0,0
8420497,22:56:15.500000,9.418333333333333,2024-06-05,600299.9353973249,5332513.482561826,17,N,22:56:15.500,48.1379642,-79.65180385,55121.29465,1,-1745,-35674,27590,-1.106,-0.971,3.49,-0.03604,-0.22401,0.96771,39.883,1.4,I,,,,,,,,,,,,,,,,,,,,,,,,,,,,,,,,,,,,,,,,,,,,,,2,0.8258431372549019,0.8402222222222222,0.6289019607843137,1.0,10.0,0,0
8423997,22:56:19,9.476666666666667,2024-06-05,600299.9132621104,5332541.408202928,17,N,22:56:19.000,48.13821538,-79.65179757,55159.80355,1,-1437,-36134,27271,-2.981,-1.815,4.928,-0.0642,-0.22316,0.96744,39.863,1.1,G,0.49,2.0,12.0,386.2,-38.5,15.073,0.0, ,D,'$GNGGA,225619.0,4808.29318,N,7939.10784,W,2.0,12.0,0.49,386.2,M,-38.5,M,,0131*72','$GNRMC,225619.0,A,4808.29318,N,7939.10784,W,15.073,1.1,50624.0,,,D,V*28',,,,,,,,2,0.8493202614379085,0.8224705882352941,0.6047189542483661,1.0,10.0,0,0
8427497,22:56:22.500000,9.535,2024-06-05,600299.7585016106,5332569.300390457,17,N,22:56:22.500,48.13846628,-79.65179308,55172.1976,1,984,-36198,27223,2.286,5.583,0.284,-0.07388,-0.20267,0.95423,39.862,1.2,I,,,,,,,,,,,,,,,,,,,,,,,,,,,,,,,,,,,,,,,,,,,,,,2,0.8489019607843137,0.8055294117647058,0.5850588235294117,1.0,10.0,0,0
8430997,22:56:26,9.593333333333334,2024-06-05,600299.861703233,5332597.41945955,17,N,22:56:26.000,48.13871918,-79.65178507,55164.0444,1,623,-36778,26901,-0.557,0.989,-7.193,-0.06186,-0.25187,0.95901,39.904,1.1,G,0.49,2.0,12.0,385.5,-38.5,15.451,0.0, ,D,'$GNGGA,225626.0,4808.32341,N,7939.10709,W,2.0,12.0,0.49,385.5,M,-38.5,M,,0131*79','$GNRMC,225626.0,A,4808.32341,N,7939.10709,W,15.451,1.14,50624.0,,,D,V*27',,,,,,,,2,0.8491111111111111,0.814,0.5948888888888889,1.0,10.0,0,0
8434497,22:56:29.500000,9.651666666666667,2024-06-05,600299.8504252074,5332625.02176289,17,N,22:56:29.500,48.13896745,-79.65177872,55166.9922,1,-1110,-36757,26967,2.607,-9.399,-7.309,-0.02429,-0.2652,0.97842,39.911,1.8,I,,,,,,,,,,,,,,,,,,,,,,,,,,,,,,,,,,,,,,,,,,,,,,2,0.8490065359477125,0.8097647058823529,0.5899738562091503,1.0,10.0,0,0
8437997,22:56:33,9.71,2024-06-05,600299.9984190192,5332653.089365476,17,N,22:56:33.000,48.13921988,-79.65177012,55188.61105,1,-1282,-35691,27564,-3.071,0.715,-10.587,-0.04364,-0.23009,0.94731,39.889,1.5,G,0.49,2.0,12.0,386.6,-38.5,15.519,0.0, ,D,'$GNGGA,225633.0,4808.35345,N,7939.10619,W,2.0,12.0,0.49,386.6,M,-38.5,M,,0131*7E','$GNRMC,225633.0,A,4808.35345,N,7939.10619,W,15.519,1.5,50624.0,,,D,V*2D',,,,,,,,2,0.8482745098039216,0.7801176470588235,0.5555686274509805,1.0,10.0,0,0
8441497,22:56:36.500000,9.768333333333334,2024-06-05,600299.6920023108,5332681.098973536,17,N,22:56:36.500,48.13947186,-79.65176764,55226.32995,1,-160,-36354,27220,-3.919,-0.83,-6.741,-0.04731,-0.242,0.9319,39.877,1.0,I,,,,,,,,,,,,,,,,,,,,,,,,,,,,,,,,,,,,,,,,,,,,,,2,0.8470196078431372,0.7292941176470589,0.4965882352941176,1.0,10.0,0,0
8444997,22:56:40,9.826666666666666,2024-06-05,600299.846928361,5332708.897646172,17,N,22:56:40.000,48.13972187,-79.65175901,55287.35865,1,-243,-36209,27343,1.529,-1.276,-1.63,-0.03336,-0.21832,0.88695,39.895,0.6,G,0.49,2.0,12.0,389.3,-38.5,15.414,0.0, ,D,'$GNGGA,225640.0,4808.38357,N,7939.10553,W,2.0,12.0,0.49,389.3,M,-38.5,M,,0131*73','$GNRMC,225640.0,A,4808.38357,N,7939.10553,W,15.414,0.59,50624.0,,,D,V*2E',,,,,,,,2,0.8449281045751634,0.6445882352941177,0.3982875816993464,1.0,10.0,0,0
8448497,22:56:43.500000,9.885,2024-06-05,600299.7094249536,5332736.864634036,17,N,22:56:43.500,48.13997344,-79.65175427,55377.39385,1,-785,-35172,28105,-3.206,-0.558,6.711,-0.06928,-0.22383,0.96527,39.918,359.9,I,,,,,,,,,,,,,,,,,,,,,,,,,,,,,,,,,,,,,,,,,,,,,,2,0.8140261437908497,0.4650849673202614,0.2701176470588235,1.0,10.0,0,0
8451997,22:56:47,9.943333333333333,2024-06-05,600299.2406269345,5332764.882517413,17,N,22:56:47.000,48.14022552,-79.65175397,55480.1819,1,2169,-35748,27811,-2.823,-12.866,2.023,-0.12443,-0.27432,0.93267,39.922,0.3,G,0.49,2.0,12.0,383.9,-38.5,15.504,0.0, ,D,'$GNGGA,225647.0,4808.41379,N,7939.10523,W,2.0,12.0,0.49,383.9,M,-38.5,M,,0131*71','$GNRMC,225647.0,A,4808.41379,N,7939.10523,W,15.504,0.31,50624.0,,,D,V*22',,,,,,,,2,0.7484575163398692,0.20798692810457517,0.15105882352941175,1.0,10.0,0,0
8455497,22:56:50.500000,10.001666666666667,2024-06-05,600299.5035990042,5332792.034911982,17,N,22:56:50.500,48.1404697,-79.65174404,55525.5194,1,-260,-37354,27023,-2.519,1.061,10.469,-0.09714,-0.27397,0.94431,39.925,2.4,I,,,,,,,,,,,,,,,,,,,,,,,,,,,,,,,,,,,,,,,,,,,,,,2,0.7186535947712419,0.09112418300653592,0.09694117647058824,1.0,10.0,0,0
8458997,22:56:54,10.06,2024-06-05,600300.029467839,5332819.598832898,17,N,22:56:54.000,48.14071754,-79.65173048,55478.15045,1,-2169,-36729,27132,-7.386,-6.588,0.256,-0.05885,-0.25999,1.0034,39.914,1.7,G,0.49,2.0,12.0,376.0,-38.5,15.36,0.0, ,D,'$GNGGA,225654.0,4808.44331,N,7939.10381,W,2.0,12.0,0.49,376.0,M,-38.5,M,,0131*77','$GNRMC,225654.0,A,4808.44331,N,7939.10381,W,15.36,1.72,50624.0,,,D,V*25',,,,,,,,2,0.7484575163398692,0.20798692810457517,0.15105882352941175,1.0,10.0,0,0
8462497,22:56:57.500000,10.118333333333334,2024-06-05,600299.6517400633,5332847.8117685355,17,N,22:56:57.500,48.14097136,-79.65172891,55384.26645,1,2056,-33473,29116,-9.606,3.104,-13.083,-0.0839,-0.2046,0.9746,39.91,359.7,I,,,,,,,,,,,,,,,,,,,,,,,,,,,,,,,,,,,,,,,,,,,,,,2,0.8100522875816993,0.44950326797385615,0.2629019607843137,1.0,10.0,0,0
8465997,22:57:01,10.176666666666668,2024-06-05,600298.8999241663,5332875.503387142,17,N,22:57:01.000,48.14122055,-79.65173249,55302.54575,1,540,-34442,28500,2.479,-5.144,3.047,-0.09599,-0.13565,0.93588,39.902,0.8,G,0.49,2.0,12.0,378.4,-38.5,14.562,0.0, ,D,'$GNGGA,225701.0,4808.47349,N,7939.10394,W,2.0,12.0,0.49,378.4,M,-38.5,M,,0131*74','$GNRMC,225701.0,A,4808.47349,N,7939.10394,W,14.562,0.75,50624.0,,,D,V*2F',,,,,,,,2,0.8444052287581699,0.6234117647058823,0.37371241830065355,1.0,10.0,0,0
8469497,22:57:04.500000,10.235000000000001,2024-06-05,600299.5868734762,5332903.9373351615,17,N,22:57:04.500,48.14147619,-79.65171656,55233.7376,1,637,-34173,28607,-5.092,1.607,-5.457,-0.05993,-0.1521,0.9491,39.928,0.3,I,,,,,,,,,,,,,,,,,,,,,,,,,,,,,,,,,,,,,,,,,,,,,,2,0.8467058823529412,0.7165882352941176,0.4818431372549019,1.0,10.0,0,0
8472997,22:57:08,10.293333333333333,2024-06-05,600299.6349910501,5332931.713021874,17,N,22:57:08.000,48.14172601,-79.65170937,55181.3087,1,576,-33351,29015,3.417,-0.39,-3.132,-0.06517,-0.19472,0.94879,39.929,0.8,G,0.49,2.0,12.0,382.1,-38.5,15.853,0.0, ,D,'$GNGGA,225708.0,4808.50382,N,7939.10255,W,2.0,12.0,0.49,382.1,M,-38.5,M,,0131*70','$GNRMC,225708.0,A,4808.50382,N,7939.10255,W,15.853,0.83,50624.0,,,D,V*2C',,,,,,,,2,0.8485882352941176,0.7928235294117646,0.5703137254901961,1.0,10.0,0,0
8476497,22:57:11.500000,10.351666666666667,2024-06-05,600299.8204791967,5332959.419963173,17,N,22:57:11.500,48.14197519,-79.65170035,55138.40545,1,690,-33821,28692,2.895,-4.653,-0.229,-0.05053,-0.19505,0.95891,39.932,0.6,I,,,,,,,,,,,,,,,,,,,,,,,,,,,,,,,,,,,,,,,,,,,,,,2,0.8478039215686275,0.8491111111111111,0.6359607843137255,1.0,10.0,0,0
8479997,22:57:15,10.41,2024-06-05,600299.9225393422,5332987.513459527,17,N,22:57:15.000,48.14222786,-79.65169236,55102.5331,1,-935,-32830,29079,2.408,2.82,-5.017,-0.06922,-0.20666,0.97339,39.958,0.5,G,0.49,2.0,12.0,380.1,-38.5,15.765,0.0, ,D,'$GNGGA,225715.0,4808.53393,N,7939.10153,W,2.0,12.0,0.49,380.1,M,-38.5,M,,0131*78','$GNRMC,225715.0,A,4808.53393,N,7939.10153,W,15.765,0.51,50624.0,,,D,V*23',,,,,,,,2,0.7994901960784313,0.8295555555555556,0.6204313725490196,1.0,10.0,0,0
8483497,22:57:18.500000,10.468333333333334,2024-06-05,600299.6986200438,5333015.397784303,17,N,22:57:18.500,48.1424787,-79.6516888,55064.1569,1,-1277,-33495,28720,3.489,-0.467,-3.494,-0.07531,-0.23889,0.9646,39.955,2.4,I,,,,,,,,,,,,,,,,,,,,,,,,,,,,,,,,,,,,,,,,,,,,,,2,0.7423921568627451,0.8064444444444445,0.602078431372549,1.0,10.0,0,0
8486997,22:57:22,10.526666666666667,2024-06-05,600299.8552516657,5333042.881864808,17,N,22:57:22.000,48.14272588,-79.65168022,55022.0626,1,610,-34161,28468,-0.334,0.665,-8.971,-0.12434,-0.26021,0.95788,39.9,0.9,G,0.49,2.0,12.0,378.1,-38.5,15.788,0.0, ,D,'$GNGGA,225722.0,4808.56381,N,7939.1008,W,2.0,12.0,0.49,378.1,M,-38.5,M,,0131*72','$GNRMC,225722.0,A,4808.56381,N,7939.1008,W,15.788,0.92,50624.0,,,D,V*22',,,,,,,,2,0.6809019607843136,0.7815555555555556,0.582313725490196,1.0,10.0,0,0
8490497,22:57:25.500000,10.585,2024-06-05,600299.3239338464,5333070.600704781,17,N,22:57:25.500,48.14297528,-79.65168083,54982.52615,1,2736,-33917,28465,-1.394,5.333,-6.074,-0.16715,-0.22516,0.91547,39.922,1.2,I,,,,,,,,,,,,,,,,,,,,,,,,,,,,,,,,,,,,,,,,,,,,,,2,0.6238039215686274,0.7584444444444445,0.5639607843137255,1.0,10.0,0,0
8493997,22:57:29,10.643333333333334,2024-06-05,600299.452416489,5333098.246616328,17,N,22:57:29.000,48.14322392,-79.65167259,54956.40965,1,-1135,-35574,27438,6.735,0.582,-19.354,-0.12681,-0.1825,0.95813,39.941,2.5,G,0.49,2.0,12.0,378.0,-38.5,14.26,0.0, ,D,'$GNGGA,225729.0,4808.59369,N,7939.10033,W,2.0,12.0,0.49,378.0,M,-38.5,M,,0131*79','$GNRMC,225729.0,A,4808.59369,N,7939.10033,W,14.26,2.48,50624.0,,,D,V*2F',,,,,,,,2,0.5886666666666667,0.7442222222222222,0.5526666666666668,1.0,10.0,0,0
8497497,22:57:32.500000,10.701666666666666,2024-06-05,600299.2147243815,5333126.957879806,17,N,22:57:32.500,48.1434822,-79.65166902,54935.5798,1,-2313,-34794,27824,1.6,-0.723,-10.875,-0.13666,-0.13411,0.94547,39.976,2.2,I,,,,,,,,,,,,,,,,,,,,,,,,,,,,,,,,,,,,,,,,,,,,,,2,0.55159477124183,0.7237254901960785,0.5498300653594771,1.0,10.0,0,0
8500997,22:57:36,10.76,2024-06-05,600299.6782888408,5333155.183354379,17,N,22:57:36.000,48.143736,-79.65165614,54912.9006,1,-895,-34067,28218,2.554,-1.416,-8.477,-0.1037,-0.15032,0.95903,39.96,3.1,G,0.49,2.0,12.0,379.1,-38.5,15.018,0.0, ,D,'$GNGGA,225736.0,4808.62442,N,7939.09934,W,2.0,12.0,0.49,379.1,M,-38.5,M,,0131*77','$GNRMC,225736.0,A,4808.62442,N,7939.09934,W,15.018,3.09,50624.0,,,D,V*29',,,,,,,,2,0.5047450980392156,0.6907843137254902,0.5578823529411765,1.0,10.0,0,0
8504497,22:57:39.500000,10.818333333333333,2024-06-05,600299.707182289,5333182.990957846,17,N,22:57:39.500,48.14398611,-79.6516492,54890.46045,1,437,-33883,28385,-1.947,-0.055,-2.92,-0.11278,-0.25197,0.96045,39.964,0.1,I,,,,,,,,,,,,,,,,,,,,,,,,,,,,,,,,,,,,,,,,,,,,,,2,0.45120261437908493,0.6531372549019608,0.5670849673202615,1.0,10.0,0,0
8507997,22:57:43,10.876666666666667,2024-06-05,600299.7541813377,5333210.868923099,17,N,22:57:43.000,48.14423685,-79.651642,54876.66215,1,240,-32196,29217,-3.032,-2.923,-7.739,-0.09813,-0.21887,0.8959,39.973,1.7,G,0.49,2.0,12.0,382.3,-38.5,16.41,0.0, ,D,'$GNGGA,225743.0,4808.65447,N,7939.0985,W,2.0,12.0,0.49,382.3,M,-38.5,M,,0131*72','$GNRMC,225743.0,A,4808.65447,N,7939.0985,W,16.41,1.67,50624.0,,,D,V*2F',,,,,,,,2,0.4244313725490196,0.634313725490196,0.5716862745098039,1.0,10.0,0,0
8511497,22:57:46.500000,10.935,2024-06-05,600299.7164127119,5333238.488578948,17,N,22:57:46.500,48.14448528,-79.651636,54867.67255,1,232,-35029,27648,5.852,3.795,-6.971,-0.1295,-0.31006,0.92299,39.979,2.7,I,,,,,,,,,,,,,,,,,,,,,,,,,,,,,,,,,,,,,,,,,,,,,,2,0.4043529411764706,0.6201960784313726,0.5751372549019608,1.0,10.0,0,0
8514997,22:57:50,10.993333333333334,2024-06-05,600299.7803140384,5333266.165608258,17,N,22:57:50.000,48.14473421,-79.65162862,54870.7715,1,-992,-35380,27584,12.625,5.371,-14.114,-0.08354,-0.29995,0.9277,39.957,3.1,G,0.49,2.0,12.0,385.0,-38.5,16.159,0.0, ,D,'$GNGGA,225750.0,4808.68431,N,7939.09769,W,2.0,12.0,0.49,385.0,M,-38.5,M,,0131*7D','$GNRMC,225750.0,A,4808.68431,N,7939.09769,W,16.159,3.05,50624.0,,,D,V*2A',,,,,,,,2,0.4110457516339869,0.6249019607843137,0.5739869281045751,1.0,10.0,0,0
8518497,22:57:53.500000,11.051666666666668,2024-06-05,600300.0428524591,5333293.843897775,17,N,22:57:53.500,48.14498312,-79.65161857,54876.5229,1,857,-35808,27310,-6.877,-2.396,-10.607,-0.05014,-0.19779,0.93797,39.962,1.1,I,,,,,,,,,,,,,,,,,,,,,,,,,,,,,,,,,,,,,,,,,,,,,,2,0.4244313725490196,0.634313725490196,0.5716862745098039,1.0,10.0,0,0
8521997,22:57:57,11.110000000000001,2024-06-05,600299.9878045459,5333322.2782002445,17,N,22:57:57.000,48.14523888,-79.65161261,54877.6049,1,1985,-33850,28373,8.294,-1.869,-12.589,-0.01328,-0.12101,0.92945,40.011,359.9,G,0.49,2.0,12.0,387.4,-38.5,14.766,0.0, ,D,'$GNGGA,225757.0,4808.71459,N,7939.09675,W,2.0,12.0,0.49,387.4,M,-38.5,M,,0131*76','$GNRMC,225757.0,A,4808.71459,N,7939.09675,W,14.766,359.88,50624.0,,,D,V*26',,,,,,,,2,0.4244313725490196,0.634313725490196,0.5716862745098039,1.0,10.0,0,0
8525497,22:58:00.500000,11.168333333333333,2024-06-05,600300.1366477861,5333350.583775121,17,N,22:58:00.500,48.14549345,-79.65160394,54865.7389,1,-618,-35521,27406,7.142,-5.746,-3.017,-0.03047,-0.18085,0.9982,39.987,3.0,I,,,,,,,,,,,,,,,,,,,,,,,,,,,,,,,,,,,,,,,,,,,,,,2,0.39766013071895423,0.6154901960784314,0.5762875816993464,1.0,10.0,0,0
8528997,22:58:04,11.226666666666667,2024-06-05,600299.7929207247,5333378.507152271,17,N,22:58:04.000,48.14574466,-79.65160198,54846.4123,1,-243,-34288,28090,-2.141,1.561,-3.753,-0.06677,-0.22983,0.94842,40.047,1.9,G,0.49,2.0,12.0,384.6,-38.5,15.918,0.0, ,D,'$GNGGA,225804.0,4808.74494,N,7939.0961,W,2.0,12.0,0.49,384.6,M,-38.5,M,,0131*79','$GNRMC,225804.0,A,4808.74494,N,7939.0961,W,15.918,1.85,50624.0,,,D,V*2D',,,,,,,,2,0.3575032679738562,0.5872549019607843,0.5831895424836602,1.0,10.0,0,0
8532497,22:58:07.500000,11.285,2024-06-05,600299.725321116,5333406.128516397,17,N,22:58:07.500,48.14599311,-79.65159638,54835.15345,1,130,-32289,29155,0.821,1.767,-2.437,-0.01926,-0.25664,0.96218,39.986,0.1,I,,,,,,,,,,,,,,,,,,,,,,,,,,,,,,,,,,,,,,,,,,,,,,2,0.3307320261437909,0.5684313725490195,0.5877908496732026,1.0,10.0,0,0
8535997,22:58:11,11.343333333333334,2024-06-05,600299.817153021,5333433.568119043,17,N,22:58:11.000,48.1462399,-79.65158868,54829.621,1,294,-34841,27770,3.139,-0.068,1.092,-0.02807,-0.22346,0.97087,39.998,0.5,G,0.49,2.0,12.0,379.8,-38.5,15.134,0.0, ,D,'$GNGGA,225811.0,4808.77465,N,7939.09531,W,2.0,12.0,0.49,379.8,M,-38.5,M,,0131*7C','$GNRMC,225811.0,A,4808.77465,N,7939.09531,W,15.134,0.45,50624.0,,,D,V*2F',,,,,,,,2,0.3173464052287582,0.5590196078431372,0.5900915032679738,1.0,10.0,0,0
8539497,22:58:14.500000,11.401666666666667,2024-06-05,600299.7048474393,5333461.61674303,17,N,22:58:14.500,48.1464922,-79.65158358,54833.4347,1,1120,-33556,28510,1.635,-1.786,6.942,-0.07283,-0.15953,0.95135,40.08,1.2,I,,,,,,,,,,,,,,,,,,,,,,,,,,,,,,,,,,,,,,,,,,,,,,2,0.3307320261437909,0.5684313725490195,0.5877908496732026,1.0,10.0,0,0
8542997,22:58:18,11.46,2024-06-05,600299.8742051522,5333489.896001147,17,N,22:58:18.000,48.14674653,-79.65157464,54851.18845,1,-258,-34002,28347,-1.111,-3.307,8.255,-0.06393,-0.16953,0.94842,40.059,3.3,G,0.49,2.0,12.0,378.3,-38.5,15.198,0.0, ,D,'$GNGGA,225818.0,4808.80505,N,7939.09445,W,2.0,12.0,0.49,378.3,M,-38.5,M,,0131*72','$GNRMC,225818.0,A,4808.80505,N,7939.09445,W,15.198,3.3,50624.0,,,D,V*2C',,,,,,,,2,0.3641960784313725,0.5919607843137255,0.5820392156862746,1.0,10.0,0,0
8546497,22:58:21.500000,11.518333333333334,2024-06-05,600299.7300714258,5333517.594965961,17,N,22:58:21.500,48.14699569,-79.65157005,54866.0888,1,1098,-33535,28523,-0.064,-6.654,5.289,-0.01481,-0.16098,0.94452,40.068,358.7,I,,,,,,,,,,,,,,,,,,,,,,,,,,,,,,,,,,,,,,,,,,,,,,2,0.39766013071895423,0.6154901960784314,0.5762875816993464,1.0,10.0,0,0
