Counter,UTC_time_stamps,elapsed_time_minutes,Date,UTME,UTMN,UTM_zone,UTM_letter,Time,Latitude,Longitude,Mag_TMI_nT,Mag_Lock,CompassX,CompassY,CompassZ,GyroscopeX,GyroscopeY,GyroscopeZ,AccelerometerX,AccelerometerY,AccelerometerZ,ImuTemperature,Track,LocationSource,Hdop,FixQuality,SatellitesUsed,Altitude,HeightOverEllipsoid,SpeedOverGround,MagneticVariation,VariationDirection,ModeIndicator,GgaSentence,RmcSentence,EventCode,EventInfo,EventDataLength,EventData,uk1,uk2,uk3,uk4,uk5,uk6,uk7,uk8,uk9,uk10,uk11,uk12,uk13,uk14,uk15,uk16,uk17,uk18,uk19,uk20,uk21,uk22,uk23,uk24,uk25,uk26,uk27,uk28,uk29,uk30,Local Flightline,r,g,b,a,size,range_noise,noise_bad,Flightline
7195497,22:35:50.500000,11.785,2024-06-05,600149.5901349458,5331702.107524821,17,N,22:35:50.500,48.13068998,-79.65401494,54717.75,1,-1892,-26696,31192,3.955,-4.678,22.127,0.19964,-0.43281,0.79566,40.428,179.6,I,,,,,,,,,,,,,,,,,,,,,,,,,,,,,,,,,,,,,,,,,,,,,,1,0.1433333333333333,0.4366666666666666,0.62,1.0,10.0,0,0,F15603
7192997,22:35:48,11.743333333333334,2024-06-05,600150.0377321603,5331721.700667874,17,N,22:35:48.000,48.13086614,-79.65400432,54731.96665,1,-3203,-27746,30829,13.843,4.47,-13.782,0.10278,-0.68407,0.84453,40.389,182.5,G,0.53,2.0,12.0,388.0,-38.5,16.332,0.0, ,D,'$GNGGA,223548.0,4807.85171,N,7939.24028,W,2.0,12.0,0.53,388.0,M,-38.5,M,,0131*76','$GNRMC,223548.0,A,4807.85171,N,7939.24028,W,16.332,182.45,50624.0,,,D,V*24',,,,,,,,1,0.1634117647058823,0.4507843137254901,0.616549019607843,1.0,10.0,0,0,F15603
7190497,22:35:45.500000,11.701666666666666,2024-06-05,600149.223233873,5331742.431326742,17,N,22:35:45.500,48.13105273,-79.65401039,54741.136,1,-195,-29705,30227,-4.5,-1.892,-1.492,-0.01515,-0.72537,0.74819,40.404,179.2,I,,,,,,,,,,,,,,,,,,,,,,,,,,,,,,,,,,,,,,,,,,,,,,1,0.176797385620915,0.4601960784313725,0.6142483660130719,1.0,10.0,0,0,F15603
7187997,22:35:43,11.66,2024-06-05,600148.6795750964,5331762.570805091,17,N,22:35:43.000,48.13123396,-79.65401296,54757.12815,1,-3502,-29657,30021,1.117,-2.916,-2.241,0.06718,-0.65261,0.73689,40.414,180.8,G,0.53,2.0,12.0,390.4,-38.5,15.32,0.0, ,D,'$GNGGA,223543.0,4807.87378,N,7939.24079,W,2.0,12.0,0.53,390.4,M,-38.5,M,,0131*7D','$GNRMC,223543.0,A,4807.87378,N,7939.24079,W,15.32,180.79,50624.0,,,D,V*2F',,,,,,,,1,0.2035686274509804,0.4790196078431372,0.6096470588235293,1.0,10.0,0,0,F15603
7185497,22:35:40.500000,11.618333333333334,2024-06-05,600148.5760484382,5331781.03584503,17,N,22:35:40.500,48.13140006,-79.65401001,54766.7983,1,-4373,-28335,30468,-8.347,4.463,-4.758,0.1188,-0.57884,0.75195,40.41,181.9,I,,,,,,,,,,,,,,,,,,,,,,,,,,,,,,,,,,,,,,,,,,,,,,1,0.2169542483660131,0.4884313725490196,0.6073464052287582,1.0,10.0,0,0,F15603
7182997,22:35:38,11.576666666666666,2024-06-05,600149.1366336355,5331800.210710576,17,N,22:35:38.000,48.13157244,-79.65399797,54771.9376,1,-4431,-29404,30044,-4.91,-2.145,4.675,0.14593,-0.59708,0.67936,40.414,183.7,G,0.53,2.0,12.0,389.5,-38.5,14.219,0.0, ,D,'$GNGGA,223538.0,4807.89409,N,7939.23991,W,2.0,12.0,0.53,389.5,M,-38.5,M,,0131*7F','$GNRMC,223538.0,A,4807.89409,N,7939.23991,W,14.219,183.67,50624.0,,,D,V*22',,,,,,,,1,0.2236470588235294,0.4931372549019607,0.6061960784313726,1.0,10.0,0,0,F15603
7180497,22:35:35.500000,11.535,2024-06-05,600150.0686562065,5331820.020238237,17,N,22:35:35.500,48.13175047,-79.65398079,54776.826,1,-2336,-25770,31487,-12.428,-4.086,-1.149,0.10146,-0.75211,0.76174,40.447,182.4,I,,,,,,,,,,,,,,,,,,,,,,,,,,,,,,,,,,,,,,,,,,,,,,1,0.2303398692810457,0.4978431372549019,0.6050457516339869,1.0,10.0,0,0,F15603
7177997,22:35:33,11.493333333333334,2024-06-05,600150.2341122503,5331839.062559144,17,N,22:35:33.000,48.13192172,-79.65397409,54785.4341,1,-284,-27303,31046,8.808,2.622,-12.436,0.02589,-0.55949,0.87792,40.464,179.9,G,0.53,2.0,12.0,388.1,-38.5,16.175,0.0, ,D,'$GNGGA,223533.0,4807.91504,N,7939.23845,W,2.0,12.0,0.53,388.1,M,-38.5,M,,0131*7C','$GNRMC,223533.0,A,4807.91504,N,7939.23845,W,16.175,179.85,50624.0,,,D,V*26',,,,,,,,1,0.2437254901960784,0.5072549019607843,0.6027450980392157,1.0,10.0,0,0,F15603
7175497,22:35:30.500000,11.451666666666666,2024-06-05,600149.367932308,5331860.237033764,17,N,22:35:30.500,48.13211231,-79.65398075,54803.6736,1,-955,-24774,31930,-1.372,2.257,5.233,0.11169,-0.56553,0.8206,40.505,176.8,I,,,,,,,,,,,,,,,,,,,,,,,,,,,,,,,,,,,,,,,,,,,,,,1,0.2771895424836601,0.5307843137254902,0.5969934640522876,1.0,10.0,0,0,F15603
7172997,22:35:28,11.41,2024-06-05,600148.476430007,5331878.860616575,17,N,22:35:28.000,48.13227996,-79.65398835,54822.33615,1,-2867,-27328,31086,-3.331,-2.622,12.464,0.08245,-0.48289,0.79733,40.514,177.6,G,0.53,2.0,12.0,387.8,-38.5,12.229,0.0, ,D,'$GNGGA,223528.0,4807.93654,N,7939.23929,W,2.0,12.0,0.53,387.8,M,-38.5,M,,0131*7F','$GNRMC,223528.0,A,4807.93654,N,7939.23929,W,12.229,177.59,50624.0,,,D,V*22',,,,,,,,1,0.3039607843137255,0.5496078431372549,0.592392156862745,1.0,10.0,0,0,F15603
7170497,22:35:25.500000,11.368333333333334,2024-06-05,600148.2640454129,5331895.507088096,17,N,22:35:25.500,48.13242972,-79.65398729,54835.68075,1,-5759,-28173,30441,3.883,6.322,-3.41,0.06823,-0.67455,0.7261,40.516,183.1,I,,,,,,,,,,,,,,,,,,,,,,,,,,,,,,,,,,,,,,,,,,,,,,1,0.3240392156862745,0.5637254901960784,0.5889411764705882,1.0,10.0,0,0,F15603
7167997,22:35:23,11.326666666666666,2024-06-05,600148.6174893295,5331913.843377683,17,N,22:35:23.000,48.13259459,-79.65397823,54838.5347,1,-4037,-31652,29071,27.757,-13.421,0.286,0.17724,-0.73299,0.67862,40.545,184.3,G,0.53,2.0,12.0,388.6,-38.5,13.092,0.0, ,D,'$GNGGA,223523.0,4807.95542,N,7939.23873,W,2.0,12.0,0.53,388.6,M,-38.5,M,,0131*79','$GNRMC,223523.0,A,4807.95542,N,7939.23873,W,13.092,184.26,50624.0,,,D,V*22',,,,,,,,1,0.3307320261437909,0.5684313725490195,0.5877908496732026,1.0,10.0,0,0,F15603
7165497,22:35:20.500000,11.285,2024-06-05,600148.9644534017,5331931.401300511,17,N,22:35:20.500,48.13275246,-79.65396944,54846.0093,1,-3998,-28250,30644,-14.372,5.393,14.379,0.16523,-0.67218,0.78829,40.581,184.0,I,,,,,,,,,,,,,,,,,,,,,,,,,,,,,,,,,,,,,,,,,,,,,,1,0.3374248366013072,0.5731372549019608,0.586640522875817,1.0,10.0,0,0,F15603
7162997,22:35:18,11.243333333333334,2024-06-05,600149.7732522865,5331949.318631363,17,N,22:35:18.000,48.13291349,-79.65395436,54854.9189,1,-2189,-30282,29942,12.443,-9.211,6.56,-0.01632,-0.64738,0.72793,40.572,183.4,G,0.53,2.0,12.0,388.9,-38.5,14.923,0.0, ,D,'$GNGGA,223518.0,4807.97455,N,7939.23729,W,2.0,12.0,0.53,388.9,M,-38.5,M,,0131*7B','$GNRMC,223518.0,A,4807.97455,N,7939.23729,W,14.923,183.39,50624.0,,,D,V*22',,,,,,,,1,0.3508104575163399,0.5825490196078431,0.5843398692810458,1.0,10.0,0,0,F15603
7160497,22:35:15.500000,11.201666666666666,2024-06-05,600149.0214248584,5331968.59394681,17,N,22:35:15.500,48.13308698,-79.65395993,54867.5101,1,-1080,-30958,29601,18.372,5.616,-40.683,0.0739,-0.73367,0.66274,40.631,179.0,I,,,,,,,,,,,,,,,,,,,,,,,,,,,,,,,,,,,,,,,,,,,,,,1,0.3708888888888889,0.5966666666666666,0.5808888888888889,1.0,10.0,0,0,F15603
7157997,22:35:13,11.16,2024-06-05,600148.9932463715,5331989.045971232,17,N,22:35:13.000,48.13327094,-79.6539555,54881.37525,1,-4542,-29008,30248,14.503,-4.221,9.12,0.15892,-0.64717,0.85533,40.593,179.2,G,0.53,2.0,12.0,387.0,-38.5,14.923,0.0, ,D,'$GNGGA,223513.0,4807.996,N,7939.23733,W,2.0,12.0,0.53,387.0,M,-38.5,M,,0131*71','$GNRMC,223513.0,A,4807.996,N,7939.23733,W,14.923,179.23,50624.0,,,D,V*20',,,,,,,,1,0.3976601307189542,0.6154901960784314,0.5762875816993464,1.0,10.0,0,0,F15603
7155497,22:35:10.500000,11.118333333333334,2024-06-05,600149.0634942781,5332008.211152178,17,N,22:35:10.500,48.13344331,-79.65395005,54885.95635,1,-5186,-27462,30730,-0.121,-3.424,-8.231,0.17161,-0.67679,0.69661,40.579,181.5,I,,,,,,,,,,,,,,,,,,,,,,,,,,,,,,,,,,,,,,,,,,,,,,1,0.4043529411764706,0.6201960784313726,0.5751372549019608,1.0,10.0,0,0,F15603
7152997,22:35:08,11.076666666666666,2024-06-05,600149.4150306495,5332027.377920547,17,N,22:35:08.000,48.13361565,-79.65394082,54897.1637,1,-3298,-32682,28744,4.672,-3.645,3.86,0.17871,-0.75962,0.64591,40.663,179.4,G,0.53,2.0,12.0,384.2,-38.5,14.328,0.0, ,D,'$GNGGA,223508.0,4808.01668,N,7939.23645,W,2.0,12.0,0.53,384.2,M,-38.5,M,,0131*7A','$GNRMC,223508.0,A,4808.01668,N,7939.23645,W,14.328,179.38,50624.0,,,D,V*21',,,,,,,,1,0.4177385620915032,0.6296078431372549,0.5728366013071895,1.0,10.0,0,0,F15603
7150497,22:35:05.500000,11.035,2024-06-05,600149.4346837613,5332046.924673778,17,N,22:35:05.500,48.13379146,-79.65393596,54929.07145,1,-2718,-25688,31711,-24.044,-6.364,-21.055,0.02673,-0.49995,0.76717,40.617,184.6,I,,,,,,,,,,,,,,,,,,,,,,,,,,,,,,,,,,,,,,,,,,,,,,1,0.471281045751634,0.6672549019607843,0.5636339869281046,1.0,10.0,0,0,F15603
7147997,22:35:03,10.993333333333334,2024-06-05,600148.9795528713,5332068.213079648,17,N,22:35:03.000,48.13398301,-79.65393707,54941.99675,1,-1568,-26062,31550,30.143,-9.344,34.09,0.28368,-0.628,0.84562,40.658,172.4,G,0.53,2.0,12.0,383.6,-38.5,14.518,0.0, ,D,'$GNGGA,223503.0,4808.03873,N,7939.23618,W,2.0,12.0,0.53,383.6,M,-38.5,M,,0131*7C','$GNRMC,223503.0,A,4808.03873,N,7939.23618,W,14.518,172.39,50624.0,,,D,V*2B',,,,,,,,1,0.491359477124183,0.6813725490196079,0.5601830065359478,1.0,10.0,0,0,F15603
7145497,22:35:00.500000,10.951666666666666,2024-06-05,600148.8539760571,5332085.171265176,17,N,22:35:00.500,48.13413556,-79.65393477,54932.3159,1,-5719,-28919,30317,8.838,-5.135,9.244,0.09235,-0.84369,0.75719,40.666,181.1,I,,,,,,,,,,,,,,,,,,,,,,,,,,,,,,,,,,,,,,,,,,,,,,1,0.471281045751634,0.6672549019607843,0.5636339869281046,1.0,10.0,0,0,F15603
7142997,22:34:58,10.91,2024-06-05,600149.5201730746,5332101.878699991,17,N,22:34:58.000,48.13428573,-79.65392189,54912.49055,1,-5343,-32706,28473,-1.204,0.535,19.6,0.05779,-0.52312,0.68511,40.67,193.2,G,0.53,2.0,12.0,389.9,-38.5,12.606,0.0, ,D,'$GNGGA,223458.0,4808.05689,N,7939.23541,W,2.0,12.0,0.53,389.9,M,-38.5,M,,0131*74','$GNRMC,223458.0,A,4808.05689,N,7939.23541,W,12.606,193.16,50624.0,,,D,V*2E',,,,,,,,1,0.4445098039215686,0.6484313725490196,0.5682352941176471,1.0,10.0,0,0,F15603
7140497,22:34:55.500000,10.868333333333334,2024-06-05,600150.5050903669,5332119.637908972,17,N,22:34:55.500,48.13444531,-79.65390448,54899.2145,1,-2800,-31360,29449,-5.924,-19.843,-11.393,0.21954,-0.62411,0.76098,40.715,178.5,I,,,,,,,,,,,,,,,,,,,,,,,,,,,,,,,,,,,,,,,,,,,,,,1,0.4244313725490196,0.634313725490196,0.5716862745098039,1.0,10.0,0,0,F15603
7137997,22:34:53,10.826666666666666,2024-06-05,600150.3662370385,5332136.333480818,17,N,22:34:53.000,48.1345955,-79.65390242,54892.12155,1,-1357,-28574,30762,-6.039,-1.485,1.668,0.02452,-0.70008,0.85376,40.77,180.1,G,0.53,2.0,12.0,397.2,-38.5,14.302,0.0, ,D,'$GNGGA,223453.0,4808.07547,N,7939.23415,W,2.0,12.0,0.53,397.2,M,-38.5,M,,0131*78','$GNRMC,223453.0,A,4808.07547,N,7939.23415,W,14.302,180.13,50624.0,,,D,V*26',,,,,,,,1,0.4110457516339869,0.6249019607843137,0.5739869281045751,1.0,10.0,0,0,F15603
7135497,22:34:50.500000,10.785,2024-06-05,600149.4528324126,5332153.529146747,17,N,22:34:50.500,48.13475031,-79.65391065,54886.54085,1,-2454,-29385,30263,1.585,6.028,-32.068,0.12321,-0.40982,0.80262,40.729,178.4,I,,,,,,,,,,,,,,,,,,,,,,,,,,,,,,,,,,,,,,,,,,,,,,1,0.4043529411764706,0.6201960784313726,0.5751372549019608,1.0,10.0,0,0,F15603
7132997,22:34:48,10.743333333333334,2024-06-05,600148.3091241362,5332169.00084091,17,N,22:34:48.000,48.13488965,-79.65392238,54885.3316,1,-4886,-26482,31160,-5.951,2.608,31.525,0.20798,-0.56598,0.79892,40.771,178.2,G,0.53,2.0,12.0,403.2,-38.5,12.621,0.0, ,D,'$GNGGA,223448.0,4808.09312,N,7939.23534,W,2.0,12.0,0.53,403.2,M,-38.5,M,,0131*72','$GNRMC,223448.0,A,4808.09312,N,7939.23534,W,12.621,178.24,50624.0,,,D,V*27',,,,,,,,1,0.4043529411764706,0.6201960784313726,0.5751372549019608,1.0,10.0,0,0,F15603
7130497,22:34:45.500000,10.701666666666666,2024-06-05,600148.6860567867,5332186.119026477,17,N,22:34:45.500,48.13504356,-79.65391329,54881.36595,1,-6082,-30013,29804,-18.235,-0.901,1.912,-0.04516,-0.66231,0.61995,40.727,181.6,I,,,,,,,,,,,,,,,,,,,,,,,,,,,,,,,,,,,,,,,,,,,,,,1,0.3976601307189542,0.6154901960784314,0.5762875816993464,1.0,10.0,0,0,F15603
7127997,22:34:43,10.66,2024-06-05,600148.2934655487,5332205.0237375405,17,N,22:34:43.000,48.13521366,-79.65391412,54877.8369,1,-4388,-31823,29001,20.874,10.295,-7.782,0.08624,-0.48501,0.79993,40.781,179.5,G,0.53,2.0,12.0,406.4,-38.5,14.806,0.0, ,D,'$GNGGA,223443.0,4808.11256,N,7939.23485,W,2.0,12.0,0.53,406.4,M,-38.5,M,,0131*79','$GNRMC,223443.0,A,4808.11256,N,7939.23485,W,14.806,179.49,50624.0,,,D,V*28',,,,,,,,1,0.3909673202614379,0.6107843137254901,0.577437908496732,1.0,10.0,0,0,F15603
7125497,22:34:40.500000,10.618333333333334,2024-06-05,600147.8016956265,5332223.131782286,17,N,22:34:40.500,48.13537661,-79.65391647,54876.67655,1,-3537,-31306,29346,36.291,2.783,16.885,-0.07685,-0.49753,0.76429,40.783,186.0,I,,,,,,,,,,,,,,,,,,,,,,,,,,,,,,,,,,,,,,,,,,,,,,1,0.3909673202614379,0.6107843137254901,0.577437908496732,1.0,10.0,0,0,F15603
7122997,22:34:38,10.576666666666666,2024-06-05,600149.1682391095,5332241.578090156,17,N,22:34:38.000,48.13554231,-79.65389377,54883.1332,1,-5438,-29523,30057,-2.972,-1.945,4.602,0.16704,-0.60976,0.72867,40.809,181.3,G,0.53,2.0,12.0,409.0,-38.5,14.766,0.0, ,D,'$GNGGA,223438.0,4808.13228,N,7939.23364,W,2.0,12.0,0.53,409.0,M,-38.5,M,,0131*7D','$GNRMC,223438.0,A,4808.13228,N,7939.23364,W,14.766,181.31,50624.0,,,D,V*26',,,,,,,,1,0.3976601307189542,0.6154901960784314,0.5762875816993464,1.0,10.0,0,0,F15603
7120497,22:34:35.500000,10.535,2024-06-05,600148.9848291192,5332260.096224491,17,N,22:34:35.500,48.1357089,-79.65389188,54884.97935,1,-2583,-32577,28911,-24.734,-1.846,-2.005,0.10791,-0.66468,0.52552,40.82,180.1,I,,,,,,,,,,,,,,,,,,,,,,,,,,,,,,,,,,,,,,,,,,,,,,1,0.3976601307189542,0.6154901960784314,0.5762875816993464,1.0,10.0,0,0,F15603
7117997,22:34:33,10.493333333333334,2024-06-05,600147.7972836671,5332277.520572376,17,N,22:34:33.000,48.13586581,-79.65390374,54895.8537,1,-5088,-28240,30540,-0.277,-0.342,-11.878,0.2339,-0.49908,0.83151,40.902,177.9,G,0.53,2.0,12.0,410.3,-38.5,13.411,0.0, ,D,'$GNGGA,223433.0,4808.15169,N,7939.23422,W,2.0,12.0,0.53,410.3,M,-38.5,M,,0131*78','$GNRMC,223433.0,A,4808.15169,N,7939.23422,W,13.411,177.89,50624.0,,,D,V*26',,,,,,,,1,0.4177385620915032,0.6296078431372549,0.5728366013071895,1.0,10.0,0,0,F15603
7115497,22:34:30.500000,10.451666666666666,2024-06-05,600148.1696046072,5332293.5402298495,17,N,22:34:30.500,48.13600984,-79.65389497,54903.1841,1,-7168,-32131,28464,-8.895,-8.801,-5.158,0.1681,-0.7299,0.82432,40.846,187.5,I,,,,,,,,,,,,,,,,,,,,,,,,,,,,,,,,,,,,,,,,,,,,,,1,0.431124183006536,0.6390196078431373,0.5705359477124182,1.0,10.0,0,0,F15603
7112997,22:34:28,10.41,2024-06-05,600148.6134104449,5332308.961882854,17,N,22:34:28.000,48.13614848,-79.65388538,54907.71865,1,-3023,-29129,30397,19.629,-4.092,10.535,0.24821,-0.62086,0.81724,40.885,175.6,G,0.53,2.0,12.0,408.7,-38.5,12.28,0.0, ,D,'$GNGGA,223428.0,4808.16865,N,7939.2331,W,2.0,12.0,0.53,408.7,M,-38.5,M,,0131*7F','$GNRMC,223428.0,A,4808.16865,N,7939.2331,W,12.28,175.64,50624.0,,,D,V*22',,,,,,,,1,0.4378169934640523,0.6437254901960784,0.5693856209150326,1.0,10.0,0,0,F15603
7110497,22:34:25.500000,10.368333333333334,2024-06-05,600148.5642351417,5332323.338718768,17,N,22:34:25.500,48.1362778,-79.65388266,54917.12575,1,-4289,-28368,30513,0.589,8.087,-6.418,0.08779,-0.52828,0.82033,40.92,182.8,I,,,,,,,,,,,,,,,,,,,,,,,,,,,,,,,,,,,,,,,,,,,,,,1,0.4512026143790849,0.6531372549019608,0.5670849673202615,1.0,10.0,0,0,F15603
7107997,22:34:23,10.326666666666666,2024-06-05,600148.4970526752,5332337.256069703,17,N,22:34:23.000,48.13640299,-79.65388029,54925.09925,1,-4079,-27485,30864,-1.211,-1.667,-10.377,0.04604,-0.54797,0.73607,40.931,183.5,G,0.53,2.0,12.0,407.3,-38.5,11.88,0.0, ,D,'$GNGGA,223423.0,4808.18392,N,7939.23285,W,2.0,12.0,0.53,407.3,M,-38.5,M,,0131*7F','$GNRMC,223423.0,A,4808.18392,N,7939.23285,W,11.88,183.51,50624.0,,,D,V*2F',,,,,,,,1,0.4645882352941176,0.6625490196078432,0.5647843137254902,1.0,10.0,0,0,F15603
7105497,22:34:20.500000,10.285,2024-06-05,600149.2122534391,5332352.988216383,17,N,22:34:20.500,48.13654438,-79.65386698,54934.51035,1,-4211,-27615,30893,15.509,-1.512,11.801,0.16226,-0.65562,0.84141,40.914,182.2,I,,,,,,,,,,,,,,,,,,,,,,,,,,,,,,,,,,,,,,,,,,,,,,1,0.4779738562091504,0.6719607843137254,0.5624836601307189,1.0,10.0,0,0,F15603
7102997,22:34:18,10.243333333333334,2024-06-05,600148.9400431229,5332368.245025027,17,N,22:34:18.000,48.13668165,-79.65386705,54942.89025,1,-2392,-28770,30649,5.305,3.842,-12.976,0.07022,-0.71584,0.7951,40.937,179.8,G,0.53,2.0,12.0,405.3,-38.5,12.173,0.0, ,D,'$GNGGA,223418.0,4808.20064,N,7939.23203,W,2.0,12.0,0.53,405.3,M,-38.5,M,,0131*7A','$GNRMC,223418.0,A,4808.20064,N,7939.23203,W,12.173,179.81,50624.0,,,D,V*26',,,,,,,,1,0.491359477124183,0.6813725490196079,0.5601830065359478,1.0,10.0,0,0,F15603
7100497,22:34:15.500000,10.201666666666666,2024-06-05,600149.0065716973,5332383.366564515,17,N,22:34:15.500,48.13681765,-79.6538626,54954.05675,1,-3377,-30175,29928,1.641,-1.107,6.46,0.18401,-0.66154,0.65707,40.951,178.9,I,,,,,,,,,,,,,,,,,,,,,,,,,,,,,,,,,,,,,,,,,,,,,,1,0.511437908496732,0.6954901960784313,0.5567320261437909,1.0,10.0,0,0,F15603
7097997,22:34:13,10.16,2024-06-05,600149.0254400393,5332399.297766923,17,N,22:34:13.000,48.13696094,-79.6538586,54965.3898,1,-3275,-29264,30415,-2.113,-3.714,2.987,0.02691,-0.55122,0.71315,40.965,182.7,G,0.53,2.0,12.0,402.2,-38.5,11.461,0.0, ,D,'$GNGGA,223413.0,4808.2174,N,7939.23154,W,2.0,12.0,0.53,402.2,M,-38.5,M,,0131*76','$GNRMC,223413.0,A,4808.2174,N,7939.23154,W,11.461,182.69,50624.0,,,D,V*2B',,,,,,,,1,0.5248235294117647,0.7049019607843137,0.5544313725490195,1.0,10.0,0,0,F15603
7095497,22:34:10.500000,10.118333333333334,2024-06-05,600148.4844501074,5332414.264142212,17,N,22:34:10.500,48.13709564,-79.65386235,54977.5987,1,-3227,-27865,31018,-5.677,0.157,-9.099,0.11402,-0.71755,0.72154,41.017,176.6,I,,,,,,,,,,,,,,,,,,,,,,,,,,,,,,,,,,,,,,,,,,,,,,1,0.5449019607843137,0.7190196078431372,0.5509803921568628,1.0,10.0,0,0,F15603
7092997,22:34:08,10.076666666666666,2024-06-05,600147.4354317478,5332426.920216809,17,N,22:34:08.000,48.13720964,-79.65387347,54990.2921,1,-5429,-28666,30356,3.938,3.492,5.04,0.07218,-0.59146,0.81871,41.05,179.1,G,0.53,2.0,12.0,398.9,-38.5,9.397,0.0, ,D,'$GNGGA,223408.0,4808.23232,N,7939.23241,W,2.0,12.0,0.53,398.9,M,-38.5,M,,0131*76','$GNRMC,223408.0,A,4808.23232,N,7939.23241,W,9.397,179.12,50624.0,,,D,V*1B',,,,,,,,1,0.5649803921568627,0.7331372549019607,0.5475294117647059,1.0,10.0,0,0,F15603
7090497,22:34:05.500000,10.035,2024-06-05,600147.3971896712,5332438.545560579,17,N,22:34:05.500,48.13731421,-79.65387125,55004.0758,1,-8914,-27549,30240,-2.069,2.306,1.812,0.21541,-0.56677,0.77194,41.053,184.2,I,,,,,,,,,,,,,,,,,,,,,,,,,,,,,,,,,,,,,,,,,,,,,,1,0.5798823529411764,0.7406666666666666,0.549843137254902,1.0,10.0,0,0,F15603
7087997,22:34:03,9.993333333333334,2024-06-05,600148.8711046466,5332453.14806561,17,N,22:34:03.000,48.13744532,-79.65384801,55012.05255,1,-5386,-28718,30432,-2.718,3.188,16.977,0.22094,-0.35887,0.82039,41.083,182.3,G,0.53,2.0,12.0,396.0,-38.5,10.371,0.0, ,D,'$GNGGA,223403.0,4808.24646,N,7939.2309,W,2.0,12.0,0.53,396.0,M,-38.5,M,,0131*74','$GNRMC,223403.0,A,4808.24646,N,7939.2309,W,10.371,182.32,50624.0,,,D,V*28',,,,,,,,1,0.5886666666666667,0.7442222222222222,0.5526666666666668,1.0,10.0,0,0,F15603
7085497,22:34:00.500000,9.951666666666666,2024-06-05,600149.7944327532,5332469.3174574,17,N,22:34:00.500,48.13759061,-79.6538318,55024.90435,1,-3942,-28207,30867,-10.151,-7.49,10.591,0.0473,-0.66627,0.90052,41.105,186.0,I,,,,,,,,,,,,,,,,,,,,,,,,,,,,,,,,,,,,,,,,,,,,,,1,0.6018431372549019,0.7495555555555555,0.5569019607843138,1.0,10.0,0,0,F15603
7082997,22:33:58,9.91,2024-06-05,600150.2765796623,5332485.35238431,17,N,22:33:58.000,48.13773476,-79.65382155,55036.03775,1,-813,-29666,30560,-27.43,2.033,-1.025,0.12636,-0.69758,0.57908,41.09,177.5,G,0.53,2.0,12.0,393.9,-38.5,11.878,0.0, ,D,'$GNGGA,223358.0,4808.26383,N,7939.22928,W,2.0,12.0,0.53,393.9,M,-38.5,M,,0131*74','$GNRMC,223358.0,A,4808.26383,N,7939.22928,W,11.878,177.51,50624.0,,,D,V*28',,,,,,,,1,0.6150196078431371,0.7548888888888888,0.5611372549019608,1.0,10.0,0,0,F15603
7080497,22:33:55.500000,9.868333333333334,2024-06-05,600148.1960590413,5332500.181750382,17,N,22:33:55.500,48.13786847,-79.65384602,55052.90405,1,-1741,-28152,30983,-6.196,7.195,-12.877,0.10715,-0.58544,0.83903,41.074,175.1,I,,,,,,,,,,,,,,,,,,,,,,,,,,,,,,,,,,,,,,,,,,,,,,1,0.6325882352941177,0.762,0.5667843137254902,1.0,10.0,0,0,F15603
7077997,22:33:53,9.826666666666666,2024-06-05,600148.7050525179,5332514.3849136485,17,N,22:33:53.000,48.13799614,-79.65383584,55072.13865,1,-7378,-28666,30232,3.581,7.356,-5.591,0.04771,-0.60314,0.78125,41.092,179.6,G,0.53,2.0,12.0,394.1,-38.5,12.091,0.0, ,D,'$GNGGA,223353.0,4808.27951,N,7939.23015,W,2.0,12.0,0.53,394.1,M,-38.5,M,,0131*72','$GNRMC,223353.0,A,4808.27951,N,7939.23015,W,12.091,179.62,50624.0,,,D,V*23',,,,,,,,1,0.6501568627450979,0.7691111111111111,0.5724313725490197,1.0,10.0,0,0,F15603
7075497,22:33:50.500000,9.785,2024-06-05,600148.5271548004,5332527.398667524,17,N,22:33:50.500,48.13811322,-79.65383517,55082.97165,1,-4851,-29958,30002,8.087,-0.512,5.896,0.06628,-0.57332,0.78064,41.131,182.7,I,,,,,,,,,,,,,,,,,,,,,,,,,,,,,,,,,,,,,,,,,,,,,,1,0.6633333333333333,0.7744444444444444,0.5766666666666667,1.0,10.0,0,0,F15603
7072997,22:33:48,9.743333333333334,2024-06-05,600148.3004893062,5332537.288542769,17,N,22:33:48.000,48.13820221,-79.65383589,55098.32935,1,-7121,-26225,31017,-1.758,-5.388,0.953,0.21684,-0.50218,0.79575,41.174,189.8,G,0.53,2.0,12.0,394.4,-38.5,5.725,0.0, ,D,'$GNGGA,223348.0,4808.29188,N,7939.23023,W,2.0,12.0,0.53,394.4,M,-38.5,M,,0131*7A','$GNRMC,223348.0,A,4808.29188,N,7939.23023,W,5.725,189.75,50624.0,,,D,V*19',,,,,,,,1,0.6765098039215686,0.7797777777777778,0.5809019607843138,1.0,10.0,0,0,F15603
7070497,22:33:45.500000,9.701666666666666,2024-06-05,600148.5606325256,5332544.407456452,17,N,22:33:45.500,48.1382662,-79.65383072,55102.5235,1,-4267,-29165,30369,-6.435,-4.085,3.971,0.1504,-0.69791,0.72845,41.168,165.8,I,,,,,,,,,,,,,,,,,,,,,,,,,,,,,,,,,,,,,,,,,,,,,,1,0.6809019607843136,0.7815555555555556,0.582313725490196,1.0,10.0,0,0,F15603
7067997,22:33:43,9.66,2024-06-05,600147.2189428929,5332549.422619266,17,N,22:33:43.000,48.13831152,-79.65384757,55113.2185,1,-7845,-27087,30721,-6.408,-1.925,21.821,0.22897,-0.68526,0.74981,41.205,183.7,G,0.53,2.0,12.0,394.4,-38.5,5.226,0.0, ,D,'$GNGGA,223343.0,4808.29843,N,7939.23089,W,2.0,12.0,0.53,394.4,M,-38.5,M,,0131*7F','$GNRMC,223343.0,A,4808.29843,N,7939.23089,W,5.226,183.68,50624.0,,,D,V*1C',,,,,,,,1,0.694078431372549,0.786888888888889,0.5865490196078432,1.0,10.0,0,0,F15603
7065497,22:33:40.500000,9.618333333333334,2024-06-05,600148.1281113682,5332557.768081151,17,N,22:33:40.500,48.13838644,-79.65383339,55117.61785,1,-7054,-32868,28359,7.135,-11.407,4.19,0.09079,-0.8358,0.49317,41.25,185.9,I,,,,,,,,,,,,,,,,,,,,,,,,,,,,,,,,,,,,,,,,,,,,,,1,0.6984705882352941,0.7886666666666666,0.5879607843137256,1.0,10.0,0,0,F15603
7062997,22:33:38,9.576666666666666,2024-06-05,600148.2090187591,5332570.408355863,17,N,22:33:38.000,48.13850012,-79.65382933,55133.07885,1,-7256,-27532,30639,8.545,1.021,6.969,0.17636,-0.72347,0.75695,41.248,187.4,G,0.53,2.0,12.0,394.4,-38.5,11.315,0.0, ,D,'$GNGGA,223338.0,4808.30975,N,7939.22982,W,2.0,12.0,0.53,394.4,M,-38.5,M,,0131*7C','$GNRMC,223338.0,A,4808.30975,N,7939.22982,W,11.315,187.35,50624.0,,,D,V*27',,,,,,,,1,0.7116470588235293,0.7939999999999999,0.5921960784313726,1.0,10.0,0,0,F15603
7060497,22:33:35.500000,9.535,2024-06-05,600149.0124621964,5332586.750204512,17,N,22:33:35.500,48.13864698,-79.65381469,55149.57525,1,-4838,-29458,30330,-0.611,-6.934,42.498,0.14652,-0.74179,0.69927,41.316,179.5,I,,,,,,,,,,,,,,,,,,,,,,,,,,,,,,,,,,,,,,,,,,,,,,1,0.7292156862745097,0.8011111111111111,0.5978431372549019,1.0,10.0,0,0,F15603
7057997,22:33:33,9.493333333333334,2024-06-05,600148.2954799184,5332605.3090414,17,N,22:33:33.000,48.13881402,-79.65381996,55175.95085,1,-5528,-28800,30520,-2.419,1.854,6.211,0.08867,-0.68885,0.69811,41.328,180.7,G,0.53,2.0,12.0,392.1,-38.5,16.455,0.0, ,D,'$GNGGA,223333.0,4808.32858,N,7939.22921,W,2.0,12.0,0.53,392.1,M,-38.5,M,,0131*71','$GNRMC,223333.0,A,4808.32858,N,7939.22921,W,16.455,180.74,50624.0,,,D,V*2F',,,,,,,,1,0.7555686274509803,0.8117777777777777,0.606313725490196,1.0,10.0,0,0,F15603
7055497,22:33:30.500000,9.451666666666666,2024-06-05,600148.5105959062,5332625.587458629,17,N,22:33:30.500,48.13899638,-79.6538123,55206.6713,1,-6815,-29055,30285,6.048,-0.279,19.249,0.14546,-0.60372,0.75912,41.271,183.0,I,,,,,,,,,,,,,,,,,,,,,,,,,,,,,,,,,,,,,,,,,,,,,,1,0.7863137254901962,0.8242222222222222,0.6161960784313725,1.0,10.0,0,0,F15603
7052997,22:33:28,9.41,2024-06-05,600149.1375065502,5332645.5095275855,17,N,22:33:28.000,48.13917547,-79.65379919,55234.43465,1,-4791,-27904,30944,18.151,1.951,4.63,0.03754,-0.60388,0.84072,41.353,181.8,G,0.53,2.0,12.0,389.2,-38.5,16.136,0.0, ,D,'$GNGGA,223328.0,4808.35027,N,7939.22797,W,2.0,12.0,0.53,389.2,M,-38.5,M,,0131*76','$GNRMC,223328.0,A,4808.35027,N,7939.22797,W,16.136,181.84,50624.0,,,D,V*2F',,,,,,,,1,0.8170588235294117,0.8366666666666667,0.626078431372549,1.0,10.0,0,0,F15603
7050497,22:33:25.500000,9.368333333333334,2024-06-05,600149.4818612727,5332665.120909023,17,N,22:33:25.500,48.13935181,-79.65378995,55265.57155,1,-4427,-29610,30373,-0.353,2.31,-4.001,0.1776,-0.6842,0.73684,41.298,181.7,I,,,,,,,,,,,,,,,,,,,,,,,,,,,,,,,,,,,,,,,,,,,,,,1,0.8478039215686275,0.8491111111111111,0.6359607843137255,1.0,10.0,0,0,F15603
7047997,22:33:23,9.326666666666666,2024-06-05,600148.8254475818,5332683.875371853,17,N,22:33:23.000,48.1395206,-79.65379436,55303.05015,1,-859,-28231,31310,-7.196,-0.817,-18.424,0.0259,-0.5246,0.71942,41.375,173.1,G,0.53,2.0,12.0,386.8,-38.5,13.202,0.0, ,D,'$GNGGA,223323.0,4808.37098,N,7939.22762,W,2.0,12.0,0.53,386.8,M,-38.5,M,,0131*74','$GNRMC,223323.0,A,4808.37098,N,7939.22762,W,13.202,173.07,50624.0,,,D,V*2F',,,,,,,,1,0.8491111111111111,0.814,0.5948888888888889,1.0,10.0,0,0,F15603
7045497,22:33:20.500000,9.285,2024-06-05,600147.6887932904,5332701.879864115,17,N,22:33:20.500,48.13968272,-79.6538054,55363.85505,1,-7669,-27285,30865,-0.39,-1.247,-4.076,0.14929,-0.6134,0.78942,41.358,182.2,I,,,,,,,,,,,,,,,,,,,,,,,,,,,,,,,,,,,,,,,,,,,,,,1,0.8476470588235293,0.7547058823529412,0.5260784313725491,1.0,10.0,0,0,F15603
7042997,22:33:18,9.243333333333334,2024-06-05,600148.7248542462,5332720.192549855,17,N,22:33:18.000,48.13984727,-79.65378717,55432.5792,1,-8620,-29332,30073,-0.038,-9.188,2.904,0.15303,-0.71723,0.69637,41.388,183.9,G,0.53,2.0,12.0,388.2,-38.5,13.873,0.0, ,D,'$GNGGA,223318.0,4808.39058,N,7939.22726,W,2.0,12.0,0.53,388.2,M,-38.5,M,,0131*7A','$GNRMC,223318.0,A,4808.39058,N,7939.22726,W,13.873,183.88,50624.0,,,D,V*21',,,,,,,,1,0.8459738562091503,0.6869411764705883,0.447437908496732,1.0,10.0,0,0,F15603
7040497,22:33:15.500000,9.201666666666666,2024-06-05,600148.7503698483,5332737.697064615,17,N,22:33:15.500,48.14000471,-79.65378271,55509.8568,1,-6648,-29314,30419,13.223,0.571,19.458,0.08339,-0.58861,0.83535,41.412,185.3,I,,,,,,,,,,,,,,,,,,,,,,,,,,,,,,,,,,,,,,,,,,,,,,1,0.8440915032679739,0.6107058823529412,0.3589673202614379,1.0,10.0,0,0,F15603
7037997,22:33:13,9.16,2024-06-05,600148.7376082742,5332756.2404363975,17,N,22:33:13.000,48.1401715,-79.65377852,55591.98775,1,-87,-31922,29979,21.674,-0.333,-5.675,0.14011,-0.5715,0.70354,41.421,183.6,G,0.53,2.0,12.0,390.0,-38.5,13.851,0.0, ,D,'$GNGGA,223313.0,4808.41003,N,7939.22675,W,2.0,12.0,0.53,390.0,M,-38.5,M,,0131*7C','$GNRMC,223313.0,A,4808.41003,N,7939.22675,W,13.851,183.58,50624.0,,,D,V*21',,,,,,,,1,0.8199869281045752,0.4884575163398693,0.2809411764705882,1.0,10.0,0,0,F15603
7035497,22:33:10.500000,9.118333333333334,2024-06-05,600150.470687028,5332777.031281224,17,N,22:33:10.500,48.14035823,-79.65375034,55695.4683,1,-3151,-28106,31609,2.769,-10.865,24.178,0.42754,-0.6986,0.82955,41.477,176.0,I,,,,,,,,,,,,,,,,,,,,,,,,,,,,,,,,,,,,,,,,,,,,,,1,0.7723006535947713,0.3014771241830065,0.1943529411764706,1.0,10.0,0,0,F15603
7032997,22:33:08,9.076666666666666,2024-06-05,600149.6102202961,5332794.901635493,17,N,22:33:08.000,48.1405191,-79.6537577,55771.8889,1,-702,-29362,31340,-17.862,-0.278,-11.665,0.00857,-0.68355,0.68462,41.477,177.4,G,0.53,2.0,12.0,390.8,-38.5,12.831,0.0, ,D,'$GNGGA,223308.0,4808.43089,N,7939.22545,W,2.0,12.0,0.53,390.8,M,-38.5,M,,0131*7E','$GNRMC,223308.0,A,4808.43089,N,7939.22545,W,12.831,177.38,50624.0,,,D,V*21',,,,,,,,1,0.7365359477124183,0.1612418300653594,0.1294117647058823,1.0,10.0,0,0,F15603
7030497,22:33:05.500000,9.035,2024-06-05,600149.4857789939,5332810.386735143,17,N,22:33:05.500,48.1406584,-79.65375573,55812.1851,1,-3870,-28109,31688,-4.802,-3.145,-5.53,-0.016,-0.57297,0.75021,41.516,179.9,I,,,,,,,,,,,,,,,,,,,,,,,,,,,,,,,,,,,,,,,,,,,,,,1,0.7166666666666667,0.0833333333333333,0.0933333333333333,1.0,10.0,0,0,F15603
7027997,22:33:03,8.993333333333334,2024-06-05,600149.1395015342,5332825.196429316,17,N,22:33:03.000,48.14079166,-79.6537569,55814.21845,1,-4743,-28473,31376,13.896,0.815,6.728,0.19634,-0.4805,0.85943,41.501,182.6,G,0.53,2.0,12.0,390.3,-38.5,12.383,0.0, ,D,'$GNGGA,223303.0,4808.44724,N,7939.22544,W,2.0,12.0,0.53,390.3,M,-38.5,M,,0131*78','$GNRMC,223303.0,A,4808.44724,N,7939.22544,W,12.383,182.62,50624.0,,,D,V*2B',,,,,,,,1,0.7166666666666667,0.0833333333333333,0.0933333333333333,1.0,10.0,0,0,F15603
7025497,22:33:00.500000,8.951666666666666,2024-06-05,600150.0126082174,5332841.422767305,17,N,22:33:00.500,48.14093747,-79.65374135,55798.3673,1,-1951,-29435,31255,3.543,4.459,-26.289,0.04503,-0.59472,0.77269,41.559,182.6,I,,,,,,,,,,,,,,,,,,,,,,,,,,,,,,,,,,,,,,,,,,,,,,1,0.7246143790849673,0.1144967320261437,0.1077647058823529,1.0,10.0,0,0,F15603
7022997,22:32:58,8.91,2024-06-05,600149.7088981083,5332856.521161702,17,N,22:32:58.000,48.14107332,-79.65374188,55788.86335,1,-2045,-30775,30630,-9.561,-2.504,3.01,0.17293,-0.69875,0.64838,41.59,178.5,G,0.53,2.0,12.0,389.4,-38.5,12.134,0.0, ,D,'$GNGGA,223258.0,4808.46414,N,7939.22451,W,2.0,12.0,0.53,389.4,M,-38.5,M,,0131*7F','$GNRMC,223258.0,A,4808.46414,N,7939.22451,W,12.134,178.45,50624.0,,,D,V*2D',,,,,,,,1,0.7285882352941176,0.1300784313725489,0.1149803921568627,1.0,10.0,0,0,F15603
7020497,22:32:55.500000,8.868333333333334,2024-06-05,600149.4052829724,5332871.061437913,17,N,22:32:55.500,48.14120415,-79.65374254,55783.96515,1,-2540,-29039,31294,0.374,-4.77,8.837,0.0858,-0.57662,0.80435,41.57,177.9,I,,,,,,,,,,,,,,,,,,,,,,,,,,,,,,,,,,,,,,,,,,,,,,1,0.7305751633986928,0.1378692810457517,0.1185882352941176,1.0,10.0,0,0,F15603
7017997,22:32:53,8.826666666666666,2024-06-05,600149.0459859263,5332886.784799628,17,N,22:32:53.000,48.14134563,-79.65374367,55766.2764,1,-4962,-29484,30866,7.541,-2.414,10.557,0.02776,-0.63834,0.66039,41.6,188.9,G,0.53,2.0,12.0,388.8,-38.5,15.11,0.0, ,D,'$GNGGA,223253.0,4808.48048,N,7939.22469,W,2.0,12.0,0.53,388.8,M,-38.5,M,,0131*71','$GNRMC,223253.0,A,4808.48048,N,7939.22469,W,15.11,188.87,50624.0,,,D,V*2E',,,,,,,,1,0.7385228758169936,0.1690326797385623,0.1330196078431373,1.0,10.0,0,0,F15603
7015497,22:32:50.500000,8.785,2024-06-05,600149.6220888357,5332905.354048338,17,N,22:32:50.500,48.14151256,-79.65373156,55691.55275,1,-2476,-31575,30065,12.96,1.146,21.577,0.20915,-0.633,0.80249,41.592,180.0,I,,,,,,,,,,,,,,,,,,,,,,,,,,,,,,,,,,,,,,,,,,,,,,1,0.7742875816993464,0.3092679738562091,0.1979607843137255,1.0,10.0,0,0,F15603
7012997,22:32:48,8.743333333333334,2024-06-05,600149.6487017223,5332924.409539506,17,N,22:32:48.000,48.14168395,-79.65372672,55582.25515,1,-3532,-29599,30906,-35.248,-8.943,-19.369,0.14393,-0.59039,0.65085,41.627,185.5,G,0.53,2.0,12.0,386.6,-38.5,13.648,0.0, ,D,'$GNGGA,223248.0,4808.50078,N,7939.22365,W,2.0,12.0,0.53,386.6,M,-38.5,M,,0131*7A','$GNRMC,223248.0,A,4808.50078,N,7939.22365,W,13.648,185.47,50624.0,,,D,V*28',,,,,,,,1,0.8239607843137254,0.5040392156862745,0.288156862745098,1.0,10.0,0,0,F15603
7010497,22:32:45.500000,8.701666666666666,2024-06-05,600150.4458066667,5332944.253437825,17,N,22:32:45.500,48.14186231,-79.65371134,55465.0634,1,-3144,-22411,33082,-17.256,-18.88,39.274,0.14208,-0.52525,0.74326,41.631,181.1,I,,,,,,,,,,,,,,,,,,,,,,,,,,,,,,,,,,,,,,,,,,,,,,1,0.8451372549019608,0.6530588235294118,0.4081176470588235,1.0,10.0,0,0,F15603
7007997,22:32:43,8.66,2024-06-05,600150.0875967783,5332964.462906695,17,N,22:32:43.000,48.14204414,-79.6537114,55357.20015,1,-2920,-27251,31597,2.642,3.782,0.231,0.15161,-0.71822,0.77745,41.625,182.3,G,0.53,2.0,12.0,384.9,-38.5,16.406,0.0, ,D,'$GNGGA,223243.0,4808.52239,N,7939.22271,W,2.0,12.0,0.53,384.9,M,-38.5,M,,0131*7D','$GNRMC,223243.0,A,4808.52239,N,7939.22271,W,16.406,182.31,50624.0,,,D,V*29',,,,,,,,1,0.8478562091503268,0.7631764705882353,0.5359084967320262,1.0,10.0,0,0,F15603
7005497,22:32:40.500000,8.618333333333334,2024-06-05,600150.1089812072,5332985.049247837,17,N,22:32:40.500,48.1422293,-79.65370627,55273.4578,1,-1346,-26222,31998,-19.786,-10.997,8.989,0.17765,-0.49084,0.72773,41.686,174.4,I,,,,,,,,,,,,,,,,,,,,,,,,,,,,,,,,,,,,,,,,,,,,,,1,0.8498431372549019,0.8436470588235294,0.6292941176470588,1.0,10.0,0,0,F15603
7002997,22:32:38,8.576666666666666,2024-06-05,600149.1725600704,5333005.4309310615,17,N,22:32:38.000,48.14241277,-79.65371406,55215.576,1,-4152,-30501,30047,0.267,2.957,-21.342,0.00115,-0.64544,0.82112,41.729,180.1,G,0.53,2.0,12.0,384.9,-38.5,14.476,0.0, ,D,'$GNGGA,223238.0,4808.54451,N,7939.22285,W,2.0,12.0,0.53,384.9,M,-38.5,M,,0131*74','$GNRMC,223238.0,A,4808.54451,N,7939.22285,W,14.476,180.11,50624.0,,,D,V*25',,,,,,,,1,0.7950980392156863,0.8277777777777777,0.6190196078431373,1.0,10.0,0,0,F15603
7000497,22:32:35.500000,8.535,2024-06-05,600149.2348326101,5333024.021208094,17,N,22:32:35.500,48.14257997,-79.65370885,55169.637,1,-6206,-29500,30177,-8.893,7.776,-10.677,0.16024,-0.73064,0.74999,41.746,181.1,I,,,,,,,,,,,,,,,,,,,,,,,,,,,,,,,,,,,,,,,,,,,,,,1,0.7511764705882352,0.81,0.6049019607843137,1.0,10.0,0,0,F15603
6997997,22:32:33,8.493333333333334,2024-06-05,600149.0907904188,5333042.750183907,17,N,22:32:33.000,48.14274845,-79.65370638,55131.89295,1,-7309,-30918,29236,5.354,-9.521,23.997,0.29957,-0.97022,0.6049,41.764,181.5,G,0.53,2.0,12.0,385.6,-38.5,15.676,0.0, ,D,'$GNGGA,223233.0,4808.56465,N,7939.2224,W,2.0,12.0,0.53,385.6,M,-38.5,M,,0131*7D','$GNRMC,223233.0,A,4808.56465,N,7939.2224,W,15.676,181.54,50624.0,,,D,V*21',,,,,,,,1,0.7116470588235293,0.7939999999999999,0.5921960784313726,1.0,10.0,0,0,F15603
6995497,22:32:30.500000,8.451666666666666,2024-06-05,600149.2090667429,5333061.924022241,17,N,22:32:30.500,48.14292089,-79.65370028,55093.99195,1,-6001,-29373,30052,34.157,14.675,-45.77,-0.03286,-0.76437,0.75991,41.777,181.7,I,,,,,,,,,,,,,,,,,,,,,,,,,,,,,,,,,,,,,,,,,,,,,,1,0.6721176470588235,0.778,0.5794901960784314,1.0,10.0,0,0,F15603
6992997,22:32:28,8.41,2024-06-05,600148.5620473286,5333079.375638405,17,N,22:32:28.000,48.14307796,-79.65370487,55059.5515,1,-4694,-32783,28741,-13.731,0.803,-4.259,0.23004,-0.6655,0.69678,41.816,178.4,G,0.53,2.0,12.0,386.2,-38.5,12.154,0.0, ,D,'$GNGGA,223228.0,4808.58442,N,7939.22229,W,2.0,12.0,0.53,386.2,M,-38.5,M,,0131*74','$GNRMC,223228.0,A,4808.58442,N,7939.22229,W,12.154,178.44,50624.0,,,D,V*28',,,,,,,,1,0.6369803921568628,0.7637777777777778,0.5681960784313725,1.0,10.0,0,0,F15603
6990497,22:32:25.500000,8.368333333333334,2024-06-05,600148.1619795186,5333094.536835711,17,N,22:32:25.500,48.14321439,-79.65370668,55039.2048,1,-8241,-28762,29828,44.14,-17.813,46.623,0.27665,-0.66351,0.88527,41.805,181.9,I,,,,,,,,,,,,,,,,,,,,,,,,,,,,,,,,,,,,,,,,,,,,,,1,0.6150196078431371,0.7548888888888888,0.5611372549019608,1.0,10.0,0,0,F15603
6987997,22:32:23,8.326666666666666,2024-06-05,600148.8609264853,5333106.765458861,17,N,22:32:23.000,48.14332427,-79.65369441,55015.89765,1,-7092,-30906,29179,12.063,1.197,-13.429,0.11916,-0.71109,0.75185,41.839,185.9,G,0.53,2.0,12.0,385.3,-38.5,8.927,0.0, ,D,'$GNGGA,223223.0,4808.5992,N,7939.22171,W,2.0,12.0,0.53,385.3,M,-38.5,M,,0131*7B','$GNRMC,223223.0,A,4808.5992,N,7939.22171,W,8.927,185.91,50624.0,,,D,V*18',,,,,,,,1,0.5930588235294117,0.746,0.554078431372549,1.0,10.0,0,0,F15603
6985497,22:32:20.500000,8.285,2024-06-05,600148.9700101546,5333117.027000217,17,N,22:32:20.500,48.14341655,-79.65369053,54993.8443,1,-2932,-29764,30234,9.766,4.973,8.794,0.08316,-0.63482,0.78334,41.871,183.2,I,,,,,,,,,,,,,,,,,,,,,,,,,,,,,,,,,,,,,,,,,,,,,,1,0.5710980392156861,0.7371111111111112,0.5470196078431373,1.0,10.0,0,0,F15603
6982997,22:32:18,8.243333333333334,2024-06-05,600149.155826481,5333128.005880083,17,N,22:32:18.000,48.14351527,-79.65368545,54979.03585,1,-3982,-29969,30082,-1.226,-4.657,5.276,0.17703,-0.72049,0.68831,41.877,187.9,G,0.53,2.0,12.0,384.2,-38.5,9.256,0.0, ,D,'$GNGGA,223218.0,4808.61066,N,7939.22119,W,2.0,12.0,0.53,384.2,M,-38.5,M,,0131*7D','$GNRMC,223218.0,A,4808.61066,N,7939.22119,W,9.256,187.85,50624.0,,,D,V*15',,,,,,,,1,0.5449019607843137,0.7190196078431372,0.5509803921568628,1.0,10.0,0,0,F15603
6980497,22:32:15.500000,8.201666666666666,2024-06-05,600149.0641327564,5333140.895522995,17,N,22:32:15.500,48.14363122,-79.65368365,54959.84255,1,-2886,-29248,30360,26.847,0.972,-14.158,0.36328,-0.6797,0.74096,41.898,174.7,I,,,,,,,,,,,,,,,,,,,,,,,,,,,,,,,,,,,,,,,,,,,,,,1,0.5181307189542483,0.7001960784313725,0.5555816993464052,1.0,10.0,0,0,F15603
6977997,22:32:13,8.16,2024-06-05,600148.5869729219,5333153.87180935,17,N,22:32:13.000,48.14374801,-79.65368701,54944.4055,1,-4678,-27615,30873,7.415,2.544,1.371,0.18589,-0.69475,0.90157,41.925,177.7,G,0.53,2.0,12.0,382.6,-38.5,11.06,0.0, ,D,'$GNGGA,223213.0,4808.62462,N,7939.22121,W,2.0,12.0,0.53,382.6,M,-38.5,M,,0131*7C','$GNRMC,223213.0,A,4808.62462,N,7939.22121,W,11.06,177.67,50624.0,,,D,V*2B',,,,,,,,1,0.491359477124183,0.6813725490196079,0.5601830065359478,1.0,10.0,0,0,F15603
6975497,22:32:10.500000,8.118333333333334,2024-06-05,600148.0541659765,5333168.709376415,17,N,22:32:10.500,48.14388155,-79.65369068,54926.9995,1,-4663,-27831,30782,-3.544,4.905,7.885,0.06082,-0.51794,0.75141,41.979,182.6,I,,,,,,,,,,,,,,,,,,,,,,,,,,,,,,,,,,,,,,,,,,,,,,1,0.4645882352941176,0.6625490196078432,0.5647843137254902,1.0,10.0,0,0,F15603
6972997,22:32:08,8.076666666666666,2024-06-05,600147.8775412193,5333187.1309311045,17,N,22:32:08.000,48.14404727,-79.65368872,54907.52425,1,-5995,-29727,29843,-22.623,15.542,-15.291,0.17411,-0.72334,0.56832,41.907,181.1,G,0.53,2.0,12.0,381.5,-38.5,13.425,0.0, ,D,'$GNGGA,223208.0,4808.64258,N,7939.22134,W,2.0,12.0,0.53,381.5,M,-38.5,M,,0131*7B','$GNRMC,223208.0,A,4808.64258,N,7939.22134,W,13.425,181.11,50624.0,,,D,V*23',,,,,,,,1,0.4378169934640523,0.6437254901960784,0.5693856209150326,1.0,10.0,0,0,F15603
6970497,22:32:05.500000,8.035,2024-06-05,600148.5821099614,5333202.69281274,17,N,22:32:05.500,48.14418713,-79.65367559,54890.6006,1,-5626,-29265,30073,-0.931,-5.105,-2.201,0.1329,-0.69001,0.64573,41.968,183.5,I,,,,,,,,,,,,,,,,,,,,,,,,,,,,,,,,,,,,,,,,,,,,,,1,0.4110457516339869,0.6249019607843137,0.5739869281045751,1.0,10.0,0,0,F15603
6967997,22:32:03,7.993333333333334,2024-06-05,600149.1385638146,5333214.728827476,17,N,22:32:03.000,48.1442953,-79.65366528,54876.92745,1,-3687,-27768,30890,7.875,3.914,-3.107,0.16195,-0.5051,0.78603,41.971,179.8,G,0.53,2.0,12.0,381.4,-38.5,8.08,0.0, ,D,'$GNGGA,223203.0,4808.65746,N,7939.21992,W,2.0,12.0,0.53,381.4,M,-38.5,M,,0131*7D','$GNRMC,223203.0,A,4808.65746,N,7939.21992,W,8.08,179.75,50624.0,,,D,V*10',,,,,,,,1,0.3909673202614379,0.6107843137254901,0.577437908496732,1.0,10.0,0,0,F15603
6965497,22:32:00.500000,7.951666666666667,2024-06-05,600148.4903874802,5333223.787495354,17,N,22:32:00.500,48.14437688,-79.65367186,54869.41715,1,-3874,-27660,30867,1.67,-0.523,2.85,0.17379,-0.51265,0.73681,41.994,175.1,I,,,,,,,,,,,,,,,,,,,,,,,,,,,,,,,,,,,,,,,,,,,,,,1,0.3775816993464052,0.6013725490196079,0.5797385620915033,1.0,10.0,0,0,F15603
6962997,22:31:58,7.91,2024-06-05,600148.8033133077,5333232.775155881,17,N,22:31:58.000,48.14445767,-79.65366554,54862.32755,1,-3319,-27432,30936,4.186,-1.915,-0.318,-0.03901,-0.61534,0.80831,42.049,182.0,G,0.53,2.0,12.0,381.8,-38.5,7.696,0.0, ,D,'$GNGGA,223158.0,4808.6672,N,7939.21995,W,2.0,12.0,0.53,381.8,M,-38.5,M,,0131*78','$GNRMC,223158.0,A,4808.6672,N,7939.21995,W,7.696,182.04,50624.0,,,D,V*15',,,,,,,,1,0.3641960784313725,0.5919607843137255,0.5820392156862746,1.0,10.0,0,0,F15603
6960497,22:31:55.500000,7.868333333333334,2024-06-05,600148.9559094361,5333246.07599391,17,N,22:31:55.500,48.14457728,-79.65366036,54852.9978,1,-3821,-34105,27893,-21.053,-4.931,4.462,0.0963,-0.80111,0.54329,42.061,185.5,I,,,,,,,,,,,,,,,,,,,,,,,,,,,,,,,,,,,,,,,,,,,,,,1,0.3508104575163399,0.5825490196078431,0.5843398692810458,1.0,10.0,0,0,F15603
6957997,22:31:53,7.826666666666667,2024-06-05,600149.5421263267,5333264.359700882,17,N,22:31:53.000,48.14474164,-79.65364818,54841.83225,1,-3893,-30090,29809,-0.379,-5.714,7.568,0.13707,-0.67794,0.72862,42.08,180.7,G,0.53,2.0,12.0,382.5,-38.5,15.251,0.0, ,D,'$GNGGA,223153.0,4808.68424,N,7939.2189,W,2.0,12.0,0.53,382.5,M,-38.5,M,,0131*70','$GNRMC,223153.0,A,4808.68424,N,7939.2189,W,15.251,180.65,50624.0,,,D,V*2A',,,,,,,,1,0.3307320261437909,0.5684313725490195,0.5877908496732026,1.0,10.0,0,0,F15603
6955497,22:31:50.500000,7.785,2024-06-05,600148.0629284289,5333282.4660545485,17,N,22:31:50.500,48.14490473,-79.6536638,54828.2506,1,-2422,-28962,30446,-0.649,1.517,2.251,0.04472,-0.53446,0.57864,42.098,180.0,I,,,,,,,,,,,,,,,,,,,,,,,,,,,,,,,,,,,,,,,,,,,,,,1,0.3106535947712418,0.5543137254901961,0.5912418300653595,1.0,10.0,0,0,F15603
6952997,22:31:48,7.743333333333334,2024-06-05,600149.1379276919,5333301.390929791,17,N,22:31:48.000,48.14507478,-79.6536449,54821.87685,1,-5956,-29400,29891,-7.597,-6.047,4.1,0.10602,-0.65347,0.67708,42.082,183.2,G,0.53,2.0,12.0,381.7,-38.5,14.735,0.0, ,D,'$GNGGA,223148.0,4808.70423,N,7939.21872,W,2.0,12.0,0.53,381.7,M,-38.5,M,,0131*79','$GNRMC,223148.0,A,4808.70423,N,7939.21872,W,14.735,183.24,50624.0,,,D,V*22',,,,,,,,1,0.3039607843137255,0.5496078431372549,0.592392156862745,1.0,10.0,0,0,F15603
6950497,22:31:45.500000,7.701666666666667,2024-06-05,600149.6776519221,5333321.267025648,17,N,22:31:45.500,48.14525347,-79.65363297,54808.90925,1,-1968,-28590,30600,-17.211,-3.99,-12.791,-0.01974,-0.69139,0.66569,42.133,180.7,I,,,,,,,,,,,,,,,,,,,,,,,,,,,,,,,,,,,,,,,,,,,,,,1,0.2838823529411764,0.5354901960784313,0.5958431372549019,1.0,10.0,0,0,F15603
6947997,22:31:43,7.66,2024-06-05,600148.3941052932,5333340.65092158,17,N,22:31:43.000,48.14542802,-79.65364566,54805.0149,1,-4148,-26142,31217,-10.268,9.163,-29.005,0.09424,-0.57079,0.79368,42.141,181.3,G,0.53,2.0,12.0,377.8,-38.5,17.196,0.0, ,D,'$GNGGA,223143.0,4808.72542,N,7939.21876,W,2.0,12.0,0.53,377.8,M,-38.5,M,,0131*74','$GNRMC,223143.0,A,4808.72542,N,7939.21876,W,17.196,181.3,50624.0,,,D,V*22',,,,,,,,1,0.2771895424836601,0.5307843137254902,0.5969934640522876,1.0,10.0,0,0,F15603
6945497,22:31:40.500000,7.618333333333334,2024-06-05,600148.3427794883,5333360.796843963,17,N,22:31:40.500,48.14560923,-79.65364161,54800.2473,1,-5623,-27461,30613,-14.11,2.033,1.82,0.39418,-0.57583,0.70387,42.172,178.8,I,,,,,,,,,,,,,,,,,,,,,,,,,,,,,,,,,,,,,,,,,,,,,,1,0.2704967320261438,0.5260784313725491,0.5981437908496732,1.0,10.0,0,0,F15603
6942997,22:31:38,7.576666666666667,2024-06-05,600148.7067501604,5333379.91606862,17,N,22:31:38.000,48.14578114,-79.65363222,54797.8723,1,-6704,-26405,30753,7.521,-9.486,-9.042,0.20314,-0.48775,0.82086,42.16,181.6,G,0.53,2.0,12.0,374.1,-38.5,14.19,0.0, ,D,'$GNGGA,223138.0,4808.74661,N,7939.21795,W,2.0,12.0,0.53,374.1,M,-38.5,M,,0131*74','$GNRMC,223138.0,A,4808.74661,N,7939.21795,W,14.19,181.6,50624.0,,,D,V*28',,,,,,,,1,0.2638039215686274,0.5213725490196077,0.5992941176470589,1.0,10.0,0,0,F15603
6940497,22:31:35.500000,7.535,2024-06-05,600149.6319472451,5333398.257968653,17,N,22:31:35.500,48.14594597,-79.65361547,54792.2105,1,-3840,-27217,30895,-6.301,-5.523,7.963,0.08572,-0.50391,0.88814,42.193,181.5,I,,,,,,,,,,,,,,,,,,,,,,,,,,,,,,,,,,,,,,,,,,,,,,1,0.257111111111111,0.5166666666666666,0.6004444444444444,1.0,10.0,0,0,F15603
6937997,22:31:33,7.493333333333334,2024-06-05,600149.258418608,5333414.154533924,17,N,22:31:33.000,48.14608901,-79.65361675,54790.1956,1,-1964,-30699,29639,5.378,-2.457,-3.598,0.02852,-0.81934,0.62159,42.23,181.1,G,0.53,2.0,12.0,373.7,-38.5,13.082,0.0, ,D,'$GNGGA,223133.0,4808.76508,N,7939.21702,W,2.0,12.0,0.53,373.7,M,-38.5,M,,0131*7E','$GNRMC,223133.0,A,4808.76508,N,7939.21702,W,13.082,181.11,50624.0,,,D,V*20',,,,,,,,1,0.2504183006535947,0.5119607843137255,0.60159477124183,1.0,10.0,0,0,F15603
6935497,22:31:30.500000,7.451666666666667,2024-06-05,600148.4544811659,5333431.813541162,17,N,22:31:30.500,48.14624797,-79.6536234,54791.13255,1,-430,-35231,27573,-5.61,8.697,-17.195,0.10226,-0.94785,0.42915,42.245,177.7,I,,,,,,,,,,,,,,,,,,,,,,,,,,,,,,,,,,,,,,,,,,,,,,1,0.257111111111111,0.5166666666666666,0.6004444444444444,1.0,10.0,0,0,F15603
6932997,22:31:28,7.41,2024-06-05,600148.7773333186,5333451.155519059,17,N,22:31:28.000,48.14642189,-79.65361451,54806.9225,1,-8083,-27305,30216,15.039,-6.574,21.783,0.26598,-0.75764,0.84423,42.254,187.6,G,0.54,2.0,12.0,375.3,-38.5,15.447,0.0, ,D,'$GNGGA,223128.0,4808.78506,N,7939.21693,W,2.0,12.0,0.54,375.3,M,-38.5,M,,0131*78','$GNRMC,223128.0,A,4808.78506,N,7939.21693,W,15.447,187.62,50624.0,,,D,V*2A',,,,,,,,1,0.2771895424836601,0.5307843137254902,0.5969934640522876,1.0,10.0,0,0,F15603
6930497,22:31:25.500000,7.368333333333334,2024-06-05,600149.9379977006,5333468.881162673,17,N,22:31:25.500,48.14658114,-79.65359474,54802.66795,1,-1952,-33830,28249,3.226,9.99,-19.705,0.20699,-0.80922,0.64987,42.266,177.6,I,,,,,,,,,,,,,,,,,,,,,,,,,,,,,,,,,,,,,,,,,,,,,,1,0.2704967320261438,0.5260784313725491,0.5981437908496732,1.0,10.0,0,0,F15603
6927997,22:31:23,7.326666666666667,2024-06-05,600149.1077729674,5333485.449040787,17,N,22:31:23.000,48.14673029,-79.653602,54806.2667,1,-1026,-29053,30435,-9.103,-12.768,52.821,0.11831,-0.56474,0.70048,42.303,188.6,G,0.54,2.0,12.0,376.7,-38.5,13.876,0.0, ,D,'$GNGGA,223123.0,4808.80356,N,7939.21619,W,2.0,12.0,0.54,376.7,M,-38.5,M,,0131*72','$GNRMC,223123.0,A,4808.80356,N,7939.21619,W,13.876,188.64,50624.0,,,D,V*26',,,,,,,,1,0.2771895424836601,0.5307843137254902,0.5969934640522876,1.0,10.0,0,0,F15603
6925497,22:31:20.500000,7.285,2024-06-05,600150.2077912567,5333503.620565353,17,N,22:31:20.500,48.14689356,-79.65358294,54808.9922,1,1113,-31916,29236,-1.896,-3.337,5.883,0.14,-0.71601,0.56152,42.286,179.5,I,,,,,,,,,,,,,,,,,,,,,,,,,,,,,,,,,,,,,,,,,,,,,,1,0.2838823529411764,0.5354901960784313,0.5958431372549019,1.0,10.0,0,0,F15603
6922997,22:31:18,7.243333333333334,2024-06-05,600150.0731455883,5333522.828903759,17,N,22:31:18.000,48.14706635,-79.65358023,54827.03275,1,-1119,-27424,31065,-12.186,-6.327,8.884,0.11197,-0.50131,0.78179,42.31,180.0,G,0.54,2.0,12.0,376.5,-38.5,15.489,0.0, ,D,'$GNGGA,223118.0,4808.82372,N,7939.21482,W,2.0,12.0,0.54,376.5,M,-38.5,M,,0131*7C','$GNRMC,223118.0,A,4808.82372,N,7939.21482,W,15.489,179.96,50624.0,,,D,V*23',,,,,,,,1,0.3106535947712418,0.5543137254901961,0.5912418300653595,1.0,10.0,0,0,F15603
6920497,22:31:15.500000,7.201666666666667,2024-06-05,600149.5579932441,5333542.521994343,17,N,22:31:15.500,48.14724356,-79.65358252,54841.28325,1,-2195,-29911,30109,-2.187,6.829,-15.369,0.11453,-0.66149,0.76597,42.356,180.3,I,,,,,,,,,,,,,,,,,,,,,,,,,,,,,,,,,,,,,,,,,,,,,,1,0.3307320261437909,0.5684313725490195,0.5877908496732026,1.0,10.0,0,0,F15603
6917997,22:31:13,7.16,2024-06-05,600149.6932073712,5333561.912945513,17,N,22:31:13.000,48.14741795,-79.65357614,54843.4112,1,-4057,-28735,30429,16.311,0.176,4.901,0.17821,-0.69558,0.86173,42.341,186.4,G,0.54,2.0,12.0,376.1,-38.5,15.293,0.0, ,D,'$GNGGA,223113.0,4808.84482,N,7939.21462,W,2.0,12.0,0.54,376.1,M,-38.5,M,,0131*73','$GNRMC,223113.0,A,4808.84482,N,7939.21462,W,15.293,186.39,50624.0,,,D,V*20',,,,,,,,1,0.3374248366013072,0.5731372549019608,0.586640522875817,1.0,10.0,0,0,F15603
6915497,22:31:10.500000,7.118333333333334,2024-06-05,600150.0231058277,5333581.573024643,17,N,22:31:10.500,48.14759473,-79.65356708,54826.94585,1,-964,-24976,31797,-13.286,-0.048,11.262,0.17671,-0.46689,0.7188,42.35,179.0,I,,,,,,,,,,,,,,,,,,,,,,,,,,,,,,,,,,,,,,,,,,,,,,1,0.3106535947712418,0.5543137254901961,0.5912418300653595,1.0,10.0,0,0,F15603
6912997,22:31:08,7.076666666666667,2024-06-05,600149.4015320187,5333601.692294743,17,N,22:31:08.000,48.14777579,-79.6535707,54805.58425,1,-1873,-28374,30855,-1.242,-7.375,5.221,0.17219,-0.57118,0.93732,42.42,178.7,G,0.54,2.0,12.0,375.8,-38.5,13.854,0.0, ,D,'$GNGGA,223108.0,4808.86629,N,7939.21424,W,2.0,12.0,0.54,375.8,M,-38.5,M,,0131*70','$GNRMC,223108.0,A,4808.86629,N,7939.21424,W,13.854,178.69,50624.0,,,D,V*2A',,,,,,,,1,0.2771895424836601,0.5307843137254902,0.5969934640522876,1.0,10.0,0,0,F15603
6910497,22:31:05.500000,7.035,2024-06-05,600149.345642585,5333621.501272269,17,N,22:31:05.500,48.14795397,-79.65356679,54791.8653,1,-3519,-26493,31109,-2.895,-10.263,-4.377,-0.11641,-0.63772,0.762,42.393,183.1,I,,,,,,,,,,,,,,,,,,,,,,,,,,,,,,,,,,,,,,,,,,,,,,1,0.257111111111111,0.5166666666666666,0.6004444444444444,1.0,10.0,0,0,F15603
6907997,22:31:03,6.993333333333334,2024-06-05,600149.9176701232,5333640.377330108,17,N,22:31:03.000,48.14812366,-79.65355466,54789.95485,1,-4205,-29584,29959,-0.784,7.547,-2.668,0.12089,-0.84889,0.82029,42.391,186.2,G,0.54,2.0,12.0,376.4,-38.5,16.832,0.0, ,D,'$GNGGA,223103.0,4808.88716,N,7939.21333,W,2.0,12.0,0.54,376.4,M,-38.5,M,,0131*76','$GNRMC,223103.0,A,4808.88716,N,7939.21333,W,16.832,186.16,50624.0,,,D,V*2F',,,,,,,,1,0.2504183006535947,0.5119607843137255,0.60159477124183,1.0,10.0,0,0,F15603
6905497,22:31:00.500000,6.951666666666667,2024-06-05,600150.5864558944,5333660.908321449,17,N,22:31:00.500,48.14830822,-79.65354084,54802.03045,1,-189,-25293,31703,8.831,-3.998,0.724,0.11683,-0.38389,0.77384,42.445,181.2,I,,,,,,,,,,,,,,,,,,,,,,,,,,,,,,,,,,,,,,,,,,,,,,1,0.2704967320261438,0.5260784313725491,0.5981437908496732,1.0,10.0,0,0,F15603
6902997,22:30:58,6.91,2024-06-05,600150.1222190182,5333681.347210079,17,N,22:30:58.000,48.14849213,-79.65354227,54824.10415,1,798,-25341,31752,5.304,-8.127,8.788,0.13263,-0.67811,0.76074,42.451,176.7,G,0.54,2.0,12.0,377.3,-38.5,17.255,0.0, ,D,'$GNGGA,223058.0,4808.90927,N,7939.21252,W,2.0,12.0,0.54,377.3,M,-38.5,M,,0131*7C','$GNRMC,223058.0,A,4808.90927,N,7939.21252,W,17.255,176.67,50624.0,,,D,V*20',,,,,,,,1,0.3039607843137255,0.5496078431372549,0.592392156862745,1.0,10.0,0,0,F15603
6900497,22:30:55.500000,6.868333333333334,2024-06-05,600149.4972287121,5333701.618739255,17,N,22:30:55.500,48.14867456,-79.6535459,54862.88985,1,-1862,-26958,31224,-15.035,-2.65,-5.582,0.0116,-0.49541,0.76591,42.467,179.2,I,,,,,,,,,,,,,,,,,,,,,,,,,,,,,,,,,,,,,,,,,,,,,,1,0.3641960784313725,0.5919607843137255,0.5820392156862746,1.0,10.0,0,0,F15603
6897997,22:30:53,6.826666666666667,2024-06-05,600149.0346888297,5333720.090893862,17,N,22:30:53.000,48.14884078,-79.65354777,54905.45575,1,-3725,-28892,30436,-7.067,-8.511,-3.323,0.08801,-0.55674,0.70965,42.461,184.1,G,0.54,2.0,12.0,378.9,-38.5,13.242,0.0, ,D,'$GNGGA,223053.0,4808.93019,N,7939.2129,W,2.0,12.0,0.54,378.9,M,-38.5,M,,0131*7B','$GNRMC,223053.0,A,4808.93019,N,7939.2129,W,13.242,184.07,50624.0,,,D,V*2B',,,,,,,,1,0.431124183006536,0.6390196078431373,0.5705359477124182,1.0,10.0,0,0,F15603
6895497,22:30:50.500000,6.785,2024-06-05,600148.3296715223,5333737.369183244,17,N,22:30:50.500,48.1489963,-79.65355318,54949.8884,1,-3277,-28412,30719,-10.217,-11.102,6.202,0.0715,-0.58347,0.81778,42.461,183.4,I,,,,,,,,,,,,,,,,,,,,,,,,,,,,,,,,,,,,,,,,,,,,,,1,0.5047450980392156,0.6907843137254902,0.5578823529411765,1.0,10.0,0,0,F15603
6892997,22:30:48,6.743333333333334,2024-06-05,600148.8130758288,5333755.016271748,17,N,22:30:48.000,48.14915495,-79.65354253,54997.49965,1,-5388,-28899,30406,-4.802,-10.955,-2.565,0.1645,-0.57855,0.8149,42.473,182.9,G,0.54,2.0,12.0,381.5,-38.5,13.245,0.0, ,D,'$GNGGA,223048.0,4808.94904,N,7939.21258,W,2.0,12.0,0.54,381.5,M,-38.5,M,,0131*7D','$GNRMC,223048.0,A,4808.94904,N,7939.21258,W,13.245,182.86,50624.0,,,D,V*2F',,,,,,,,1,0.5754901960784313,0.7388888888888889,0.5484313725490196,1.0,10.0,0,0,F15603
6890497,22:30:45.500000,6.701666666666667,2024-06-05,600149.9460606948,5333772.234463205,17,N,22:30:45.500,48.14930964,-79.65352325,55029.97405,1,-4192,-30051,29986,23.291,-2.633,9.389,0.09053,-0.6854,0.8563,42.473,182.0,I,,,,,,,,,,,,,,,,,,,,,,,,,,,,,,,,,,,,,,,,,,,,,,1,0.6062352941176471,0.7513333333333333,0.5583137254901961,1.0,10.0,0,0,F15603
6887997,22:30:43,6.66,2024-06-05,600149.8330944612,5333787.312871438,17,N,22:30:43.000,48.14944528,-79.65352122,55040.86265,1,-725,-28508,30993,-13.333,12.132,13.251,0.02793,-0.80665,0.718,42.521,180.0,G,0.54,2.0,12.0,383.3,-38.5,11.641,0.0, ,D,'$GNGGA,223043.0,4808.96646,N,7939.21128,W,2.0,12.0,0.54,383.3,M,-38.5,M,,0131*7D','$GNRMC,223043.0,A,4808.96646,N,7939.21128,W,11.641,179.98,50624.0,,,D,V*22',,,,,,,,1,0.6194117647058823,0.7566666666666667,0.5625490196078431,1.0,10.0,0,0,F15603
7233897,22:36:28.900000,12.425,2024-06-05,600199.5692444616,5331701.494645934,17,N,22:36:28.900,48.1306766,-79.65334357,54740.2214,1,-6345,-31758,28696,9.433,10.0,-3.602,0.02066,-0.38773,0.85526,40.173,358.9,I,,,,,,,,,,,,,,,,,,,,,,,,,,,,,,,,,,,,,,,,,,,,,,2,0.1500261437908497,0.4413725490196077,0.6188496732026144,1.0,10.0,0,0,F15703
7236397,22:36:31.400000,12.466666666666669,2024-06-05,600199.9279618056,5331721.69105685,17,N,22:36:31.400,48.1308582,-79.653334,54737.8084,1,2836,-34411,27863,-1.493,-3.571,-30.932,0.04522,-0.03054,0.95782,40.138,1.3,I,,,,,,,,,,,,,,,,,,,,,,,,,,,,,,,,,,,,,,,,,,,,,,2,0.1500261437908497,0.4413725490196077,0.6188496732026144,1.0,10.0,0,0,F15703
7238897,22:36:33.900000,12.508333333333333,2024-06-05,600199.6282032295,5331742.470749735,17,N,22:36:33.900,48.13104515,-79.65333314,54756.9146,1,-2559,-34332,27927,-1.231,-4.498,22.963,0.01307,-0.26017,0.98356,40.159,2.0,I,,,,,,,,,,,,,,,,,,,,,,,,,,,,,,,,,,,,,,,,,,,,,,2,0.176797385620915,0.4601960784313725,0.6142483660130719,1.0,10.0,0,0,F15703
7241397,22:36:36.400000,12.55,2024-06-05,600199.7726623947,5331761.385962921,17,N,22:36:36.400,48.13121526,-79.65332675,54772.6084,1,-6496,-34782,27206,4.043,5.678,2.86,0.07811,-0.26748,0.94093,40.132,359.7,I,,,,,,,,,,,,,,,,,,,,,,,,,,,,,,,,,,,,,,,,,,,,,,2,0.2035686274509804,0.4790196078431372,0.6096470588235293,1.0,10.0,0,0,F15703
7243897,22:36:38.900000,12.591666666666669,2024-06-05,600199.9706809167,5331781.833051253,17,N,22:36:38.900,48.13139914,-79.65331928,54780.6685,1,-4768,-34493,27617,-4.464,0.065,-19.241,-0.02618,-0.07502,0.99317,40.122,3.0,I,,,,,,,,,,,,,,,,,,,,,,,,,,,,,,,,,,,,,,,,,,,,,,2,0.2102614379084967,0.4837254901960783,0.6084967320261437,1.0,10.0,0,0,F15703
7246397,22:36:41.400000,12.633333333333333,2024-06-05,600199.702545499,5331802.166359529,17,N,22:36:41.400,48.13158207,-79.6533181,54789.4352,1,-1283,-31982,29122,-12.695,7.64,5.046,0.01673,-0.2421,0.91048,40.148,0.8,I,,,,,,,,,,,,,,,,,,,,,,,,,,,,,,,,,,,,,,,,,,,,,,2,0.2236470588235294,0.4931372549019607,0.6061960784313726,1.0,10.0,0,0,F15703
7248897,22:36:43.900000,12.675,2024-06-05,600200.1185853311,5331821.807881782,17,N,22:36:43.900,48.13175867,-79.65330789,54808.05625,1,-6325,-32675,28376,-8.759,-7.786,19.024,0.0408,-0.10419,0.95981,40.129,0.7,I,,,,,,,,,,,,,,,,,,,,,,,,,,,,,,,,,,,,,,,,,,,,,,2,0.257111111111111,0.5166666666666666,0.6004444444444444,1.0,10.0,0,0,F15703
7251397,22:36:46.400000,12.716666666666669,2024-06-05,600199.8920718565,5331841.974039485,17,N,22:36:46.400,48.13194009,-79.65330619,54825.2413,1,-7611,-34752,27067,-3.576,-7.322,-6.588,0.07607,-0.19719,0.93729,40.117,0.7,I,,,,,,,,,,,,,,,,,,,,,,,,,,,,,,,,,,,,,,,,,,,,,,2,0.2838823529411764,0.5354901960784313,0.5958431372549019,1.0,10.0,0,0,F15703
7253897,22:36:48.900000,12.758333333333333,2024-06-05,600200.3500041255,5331860.922538571,17,N,22:36:48.900,48.13211045,-79.65329558,54837.04395,1,-3686,-35659,27055,-0.2,9.056,-15.67,0.05203,-0.27227,0.97122,40.127,2.6,I,,,,,,,,,,,,,,,,,,,,,,,,,,,,,,,,,,,,,,,,,,,,,,2,0.2972679738562092,0.5449019607843137,0.5935424836601306,1.0,10.0,0,0,F15703
7256397,22:36:51.400000,12.8,2024-06-05,600200.0451396196,5331881.737724028,17,N,22:36:51.400,48.13229772,-79.65329478,54848.2777,1,266,-35918,27133,0.677,3.914,8.864,0.03865,-0.16623,0.96624,40.102,359.7,I,,,,,,,,,,,,,,,,,,,,,,,,,,,,,,,,,,,,,,,,,,,,,,2,0.3173464052287582,0.5590196078431372,0.5900915032679738,1.0,10.0,0,0,F15703
7258897,22:36:53.900000,12.841666666666669,2024-06-05,600200.039278646,5331901.543078901,17,N,22:36:53.900,48.13247586,-79.6532902,54876.4208,1,-8077,-33719,27636,-2.721,-12.102,11.881,0.09503,-0.24826,0.99102,40.096,1.4,I,,,,,,,,,,,,,,,,,,,,,,,,,,,,,,,,,,,,,,,,,,,,,,2,0.3575032679738562,0.5872549019607843,0.5831895424836602,1.0,10.0,0,0,F15703
7261397,22:36:56.400000,12.883333333333333,2024-06-05,600200.0504699538,5331921.904628844,17,N,22:36:56.400,48.132659,-79.65328526,54884.0492,1,-5930,-34467,27600,-9.268,1.92,-18.107,0.06158,-0.15471,0.97108,40.109,1.3,I,,,,,,,,,,,,,,,,,,,,,,,,,,,,,,,,,,,,,,,,,,,,,,2,0.3708888888888889,0.5966666666666666,0.5808888888888889,1.0,10.0,0,0,F15703
7263897,22:36:58.900000,12.925,2024-06-05,600200.0774694148,5331941.830633847,17,N,22:36:58.900,48.13283822,-79.65328021,54886.56245,1,-2938,-34204,28030,1.948,-2.161,2.52,0.08757,-0.20771,0.97235,40.092,0.9,I,,,,,,,,,,,,,,,,,,,,,,,,,,,,,,,,,,,,,,,,,,,,,,2,0.3708888888888889,0.5966666666666666,0.5808888888888889,1.0,10.0,0,0,F15703
7266397,22:37:01.400000,12.966666666666669,2024-06-05,600200.0119065607,5331961.687199717,17,N,22:37:01.400,48.13301683,-79.65327642,54894.1416,1,-6656,-33973,27744,-0.385,-1.569,11.149,0.0562,-0.18391,0.95794,40.096,1.0,I,,,,,,,,,,,,,,,,,,,,,,,,,,,,,,,,,,,,,,,,,,,,,,2,0.3842745098039215,0.606078431372549,0.5785882352941177,1.0,10.0,0,0,F15703
7268897,22:37:03.900000,13.008333333333333,2024-06-05,600199.8569256752,5331981.932439716,17,N,22:37:03.900,48.13319895,-79.65327374,54888.43165,1,-3430,-33050,28553,-9.299,-1.627,13.419,0.11411,-0.18937,0.94805,40.072,359.6,I,,,,,,,,,,,,,,,,,,,,,,,,,,,,,,,,,,,,,,,,,,,,,,2,0.3775816993464052,0.6013725490196079,0.5797385620915033,1.0,10.0,0,0,F15703
7271397,22:37:06.400000,13.05,2024-06-05,600199.9749543109,5332001.462018879,17,N,22:37:06.400,48.13337459,-79.65326756,54897.7212,1,-9446,-32837,27779,3.584,0.353,19.752,0.07734,-0.19145,0.96981,40.119,1.4,I,,,,,,,,,,,,,,,,,,,,,,,,,,,,,,,,,,,,,,,,,,,,,,2,0.3909673202614379,0.6107843137254901,0.577437908496732,1.0,10.0,0,0,F15703
7273897,22:37:08.900000,13.091666666666669,2024-06-05,600199.909267817,5332021.707711711,17,N,22:37:08.900,48.1335567,-79.65326368,54895.3488,1,-4488,-33790,28164,3.948,-0.312,-27.904,0.04706,-0.1645,0.95889,40.102,1.4,I,,,,,,,,,,,,,,,,,,,,,,,,,,,,,,,,,,,,,,,,,,,,,,2,0.3842745098039215,0.606078431372549,0.5785882352941177,1.0,10.0,0,0,F15703
7276397,22:37:11.400000,13.133333333333333,2024-06-05,600200.0196964481,5332041.45840575,17,N,22:37:11.400,48.13373433,-79.65325755,54893.4607,1,222,-32456,29155,1.168,-5.493,7.966,0.04165,-0.15826,0.97346,40.086,1.0,I,,,,,,,,,,,,,,,,,,,,,,,,,,,,,,,,,,,,,,,,,,,,,,2,0.3842745098039215,0.606078431372549,0.5785882352941177,1.0,10.0,0,0,F15703
7278897,22:37:13.900000,13.175,2024-06-05,600199.732369047,5332061.695772338,17,N,22:37:13.900,48.1339164,-79.65325665,54899.89215,1,-6806,-33369,28021,-2.17,-8.387,20.983,0.01215,-0.19291,1.01292,40.064,0.2,I,,,,,,,,,,,,,,,,,,,,,,,,,,,,,,,,,,,,,,,,,,,,,,2,0.3909673202614379,0.6107843137254901,0.577437908496732,1.0,10.0,0,0,F15703
7281397,22:37:16.400000,13.216666666666669,2024-06-05,600199.5557003549,5332081.393634211,17,N,22:37:16.400,48.1340936,-79.65325439,54890.69915,1,-5037,-35984,26765,-1.197,6.635,-14.972,0.0338,-0.29592,0.95045,40.125,359.5,I,,,,,,,,,,,,,,,,,,,,,,,,,,,,,,,,,,,,,,,,,,,,,,2,0.3775816993464052,0.6013725490196079,0.5797385620915033,1.0,10.0,0,0,F15703
7283897,22:37:18.900000,13.258333333333333,2024-06-05,600199.4024974792,5332101.026311801,17,N,22:37:18.900,48.13427021,-79.65325183,54884.75715,1,-2099,-32166,29114,-0.371,2.729,0.193,-0.02731,-0.1507,1.00897,40.102,1.9,I,,,,,,,,,,,,,,,,,,,,,,,,,,,,,,,,,,,,,,,,,,,,,,2,0.3708888888888889,0.5966666666666666,0.5808888888888889,1.0,10.0,0,0,F15703
