Counter,UTC_time_stamps,elapsed_time_minutes,Date,UTME,UTMN,UTM_zone,UTM_letter,Time,Latitude,Longitude,Mag_TMI_nT,Mag_Lock,CompassX,CompassY,CompassZ,GyroscopeX,GyroscopeY,GyroscopeZ,AccelerometerX,AccelerometerY,AccelerometerZ,ImuTemperature,Track,LocationSource,Hdop,FixQuality,SatellitesUsed,Altitude,HeightOverEllipsoid,SpeedOverGround,MagneticVariation,VariationDirection,ModeIndicator,GgaSentence,RmcSentence,EventCode,EventInfo,EventDataLength,EventData,uk1,uk2,uk3,uk4,uk5,uk6,uk7,uk8,uk9,uk10,uk11,uk12,uk13,uk14,uk15,uk16,uk17,uk18,uk19,uk20,uk21,uk22,uk23,uk24,uk25,uk26,uk27,uk28,uk29,uk30,Flightline,r,g,b,a,size,range_noise,noise_bad
9563997,23:15:19,7.693333333333333,2024-06-05,600349.1803127397,5331700.743572099,17,N,23:15:19.000,48.13064627,-79.65133359,54761.28415,1,-3018,-31018,29472,-11.452,5.424,-22.926,0.07176,-0.5994,0.72518,40.214,185.6,G,0.51,2.0,12.0,382.5,-38.5,10.015,0.0, ,D,'$GNGGA,231519.0,4807.83852,N,7939.08006,W,2.0,12.0,0.51,382.5,M,-38.5,M,,0131*70','$GNRMC,231519.0,A,4807.83852,N,7939.08006,W,10.015,185.6,50624.0,,,D,V*2F',,,,,,,,1,0.1500261437908497,0.44137254901960776,0.6188496732026144,1.0,10.0,0,0
9560497,23:15:15.500000,7.635000000000001,2024-06-05,600349.3119579933,5331717.899723186,17,N,23:15:15.500,48.13080056,-79.65132778,54768.48255,1,-1291,-30097,30041,-2.133,-2.009,-3.065,-0.00388,-0.61823,0.75038,40.26,190.7,I,,,,,,,,,,,,,,,,,,,,,,,,,,,,,,,,,,,,,,,,,,,,,,1,0.1701045751633987,0.45549019607843133,0.6153986928104574,1.0,10.0,0,0
9556997,23:15:12,7.576666666666667,2024-06-05,600348.5560878396,5331731.509262531,17,N,23:15:12.000,48.13092309,-79.65133473,54776.20345,1,-643,-29156,30437,3.139,-5.008,39.389,0.07258,-0.62713,0.72296,40.275,185.2,G,0.51,2.0,12.0,385.1,-38.5,6.734,0.0, ,D,'$GNGGA,231512.0,4807.85513,N,7939.08013,W,2.0,12.0,0.51,385.1,M,-38.5,M,,0131*72','$GNRMC,231512.0,A,4807.85513,N,7939.08013,W,6.734,185.21,50624.0,,,D,V*18',,,,,,,,1,0.19687581699346404,0.474313725490196,0.610797385620915,1.0,10.0,0,0
9553497,23:15:08.500000,7.5183333333333335,2024-06-05,600347.8723203117,5331746.355267549,17,N,23:15:08.500,48.13105673,-79.65134042,54781.1426,1,-316,-32070,29224,-6.977,-0.019,-2.231,0.08802,-0.66555,0.70565,40.313,179.8,I,,,,,,,,,,,,,,,,,,,,,,,,,,,,,,,,,,,,,,,,,,,,,,1,0.21026143790849672,0.48372549019607836,0.6084967320261437,1.0,10.0,0,0
9549997,23:15:05,7.46,2024-06-05,600349.381834952,5331768.762112671,17,N,23:15:05.000,48.13125803,-79.65131486,54799.48465,1,-1851,-30414,29818,4.723,-14.516,-3.645,0.27697,-0.53345,0.76751,40.273,183.0,G,0.51,2.0,12.0,386.4,-38.5,15.274,0.0, ,D,'$GNGGA,231505.0,4807.87522,N,7939.07892,W,2.0,12.0,0.51,386.4,M,-38.5,M,,0131*7C','$GNRMC,231505.0,A,4807.87522,N,7939.07892,W,15.274,182.95,50624.0,,,D,V*2B',,,,,,,,1,0.2638039215686274,0.5213725490196077,0.5992941176470589,1.0,10.0,0,0
9546497,23:15:01.500000,7.401666666666667,2024-06-05,600349.5064489464,5331796.506853654,17,N,23:15:01.500,48.13150756,-79.65130665,54814.40655,1,-242,-27275,31412,-22.557,-6.291,5.769,0.0559,-0.66056,0.68917,40.379,181.4,I,,,,,,,,,,,,,,,,,,,,,,,,,,,,,,,,,,,,,,,,,,,,,,1,0.3106535947712418,0.5543137254901961,0.5912418300653595,1.0,10.0,0,0
9542997,23:14:58,7.343333333333334,2024-06-05,600349.9917331312,5331824.94723078,17,N,23:14:58.000,48.13176329,-79.65129343,54832.41755,1,-556,-29796,30115,14.634,-16.316,19.733,0.24914,-0.73804,0.7253,40.328,180.9,G,0.51,2.0,12.0,383.3,-38.5,15.488,0.0, ,D,'$GNGGA,231458.0,4807.90554,N,7939.07762,W,2.0,12.0,0.51,383.3,M,-38.5,M,,0131*70','$GNRMC,231458.0,A,4807.90554,N,7939.07762,W,15.488,180.92,50624.0,,,D,V*25',,,,,,,,1,0.3708888888888889,0.5966666666666666,0.5808888888888889,1.0,10.0,0,0
9539497,23:14:54.500000,7.285,2024-06-05,600348.7981622185,5331852.612161816,17,N,23:14:54.500,48.13201231,-79.65130295,54849.02245,1,2285,-28393,30802,3.726,0.8,-7.782,0.07795,-0.53904,0.85179,40.371,178.7,I,,,,,,,,,,,,,,,,,,,,,,,,,,,,,,,,,,,,,,,,,,,,,,1,0.41773856209150323,0.6296078431372549,0.5728366013071895,1.0,10.0,0,0
9535997,23:14:51,7.2266666666666675,2024-06-05,600348.8099251203,5331877.368653148,17,N,23:14:51.000,48.13223498,-79.65129696,54880.8948,1,-1532,-29380,30391,-3.543,4.19,1.87,-0.0331,-0.46845,0.74753,40.391,185.0,G,0.51,2.0,12.0,382.2,-38.5,12.809,0.0, ,D,'$GNGGA,231451.0,4807.93384,N,7939.07786,W,2.0,12.0,0.51,382.2,M,-38.5,M,,0131*7B','$GNRMC,231451.0,A,4807.93384,N,7939.07786,W,12.809,184.95,50624.0,,,D,V*2F',,,,,,,,1,0.5181307189542483,0.7001960784313725,0.5555816993464052,1.0,10.0,0,0
9532497,23:14:47.500000,7.168333333333334,2024-06-05,600350.0039132904,5331901.680032243,17,N,23:14:47.500,48.13245346,-79.65127519,54892.87475,1,-18,-29739,30353,-7.037,-2.164,-1.28,0.18109,-0.45222,0.75545,40.379,183.3,I,,,,,,,,,,,,,,,,,,,,,,,,,,,,,,,,,,,,,,,,,,,,,,1,0.5582875816993463,0.7284313725490197,0.5486797385620915,1.0,10.0,0,0
9528997,23:14:44,7.11,2024-06-05,600349.3236658208,5331923.371409985,17,N,23:14:44.000,48.13264867,-79.65127922,54896.56115,1,1903,-30178,30051,11.596,-2.61,-9.349,0.16873,-0.44782,0.85242,40.486,175.1,G,0.51,2.0,12.0,384.8,-38.5,9.912,0.0, ,D,'$GNGGA,231444.0,4807.95866,N,7939.07673,W,2.0,12.0,0.51,384.8,M,-38.5,M,,0131*79','$GNRMC,231444.0,A,4807.95866,N,7939.07673,W,9.912,175.06,50624.0,,,D,V*14',,,,,,,,1,0.5710980392156861,0.7371111111111112,0.5470196078431373,1.0,10.0,0,0
9525497,23:14:40.500000,7.051666666666667,2024-06-05,600348.9291652335,5331943.706964161,17,N,23:14:40.500,48.13283164,-79.65127973,54905.08295,1,936,-28395,30864,3.19,6.789,16.845,-0.00793,-0.45044,0.78443,40.443,181.4,I,,,,,,,,,,,,,,,,,,,,,,,,,,,,,,,,,,,,,,,,,,,,,,1,0.5842745098039215,0.7424444444444445,0.5512549019607843,1.0,10.0,0,0
9521997,23:14:37,6.993333333333334,2024-06-05,600349.3179784887,5331962.7054247465,17,N,23:14:37.000,48.13300246,-79.65127003,54906.62605,1,58,-31895,29414,-5.099,-3.588,5.679,0.07306,-0.72762,0.62755,40.486,177.5,G,0.51,2.0,12.0,387.0,-38.5,10.398,0.0, ,D,'$GNGGA,231437.0,4807.97989,N,7939.07619,W,2.0,12.0,0.51,387.0,M,-38.5,M,,0131*78','$GNRMC,231437.0,A,4807.97989,N,7939.07619,W,10.398,177.52,50624.0,,,D,V*2D',,,,,,,,1,0.5886666666666667,0.7442222222222222,0.5526666666666668,1.0,10.0,0,0
9518497,23:14:33.500000,6.9350000000000005,2024-06-05,600349.2438106094,5331980.688484161,17,N,23:14:33.500,48.13316422,-79.65126679,54918.94735,1,-3135,-30275,29897,0.352,-6.849,7.785,0.13296,-0.86678,0.70917,40.504,183.1,I,,,,,,,,,,,,,,,,,,,,,,,,,,,,,,,,,,,,,,,,,,,,,,1,0.6150196078431371,0.7548888888888888,0.5611372549019608,1.0,10.0,0,0
9514997,23:14:30,6.876666666666667,2024-06-05,600349.743519513,5332000.747317211,17,N,23:14:30.000,48.13334456,-79.65125535,54918.00025,1,-1244,-28772,30682,14.768,-2.884,-5.506,0.04371,-0.54337,0.87661,40.546,183.6,G,0.51,2.0,12.0,387.5,-38.5,9.124,0.0, ,D,'$GNGGA,231430.0,4808.00042,N,7939.07535,W,2.0,12.0,0.51,387.5,M,-38.5,M,,0131*78','$GNRMC,231430.0,A,4808.00042,N,7939.07535,W,9.124,183.59,50624.0,,,D,V*15',,,,,,,,1,0.6106274509803922,0.7531111111111112,0.5597254901960785,1.0,10.0,0,0
9511497,23:14:26.500000,6.818333333333333,2024-06-05,600349.2091121963,5332017.219164214,17,N,23:14:26.500,48.1334928,-79.65125865,54910.82555,1,1336,-32707,28905,-6.156,-5.808,-15.036,-0.1587,-0.72614,0.64186,40.522,182.9,I,,,,,,,,,,,,,,,,,,,,,,,,,,,,,,,,,,,,,,,,,,,,,,1,0.5974509803921568,0.7477777777777778,0.5554901960784314,1.0,10.0,0,0
9507997,23:14:23,6.760000000000001,2024-06-05,600348.972420968,5332032.458806163,17,N,23:14:23.000,48.13362991,-79.65125824,54934.9173,1,-3247,-26904,31280,-4.151,11.752,-4.751,-0.10404,-0.56369,0.83154,40.621,185.7,G,0.51,2.0,12.0,388.0,-38.5,9.055,0.0, ,D,'$GNGGA,231423.0,4808.01754,N,7939.07554,W,2.0,12.0,0.51,388.0,M,-38.5,M,,0131*76','$GNRMC,231423.0,A,4808.01754,N,7939.07554,W,9.055,185.74,50624.0,,,D,V*1F',,,,,,,,1,0.6457647058823529,0.7673333333333333,0.5710196078431373,1.0,10.0,0,0
9504497,23:14:19.500000,6.701666666666667,2024-06-05,600349.2140826088,5332044.35589192,17,N,23:14:19.500,48.13373688,-79.65125219,54931.40365,1,644,-26508,31560,-2.016,-12.403,21.608,0.14286,-0.63532,0.80784,40.631,173.6,I,,,,,,,,,,,,,,,,,,,,,,,,,,,,,,,,,,,,,,,,,,,,,,1,0.6413725490196078,0.7655555555555555,0.5696078431372549,1.0,10.0,0,0
9500997,23:14:16,6.6433333333333335,2024-06-05,600348.8928665523,5332056.011855682,17,N,23:14:16.000,48.13384177,-79.65125376,54942.96345,1,-2513,-29939,30242,-1.239,-0.81,4.79,0.09571,-0.7136,0.70828,40.615,184.2,G,0.51,2.0,12.0,388.5,-38.5,6.706,0.0, ,D,'$GNGGA,231416.0,4808.03025,N,7939.07526,W,2.0,12.0,0.51,388.5,M,-38.5,M,,0131*73','$GNRMC,231416.0,A,4808.03025,N,7939.07526,W,6.706,184.17,50624.0,,,D,V*15',,,,,,,,1,0.6633333333333333,0.7744444444444444,0.5766666666666667,1.0,10.0,0,0
9497497,23:14:12.500000,6.585,2024-06-05,600348.8691217346,5332069.208421482,17,N,23:14:12.500,48.13396047,-79.65125097,54953.5339,1,-3270,-29643,30201,3.584,1.267,1.57,0.09098,-0.75623,0.7815,40.662,183.0,I,,,,,,,,,,,,,,,,,,,,,,,,,,,,,,,,,,,,,,,,,,,,,,1,0.6852941176470587,0.7833333333333332,0.5837254901960784,1.0,10.0,0,0
9493997,23:14:09,6.526666666666667,2024-06-05,600348.820651958,5332086.531529569,17,N,23:14:09.000,48.13411629,-79.65124754,54962.00155,1,-2288,-29321,30449,-12.206,2.145,2.0,-0.13671,-0.64781,0.6673,40.695,187.5,G,0.51,2.0,12.0,388.7,-38.5,10.913,0.0, ,D,'$GNGGA,231409.0,4808.04672,N,7939.07491,W,2.0,12.0,0.51,388.7,M,-38.5,M,,0131*71','$GNRMC,231409.0,A,4808.04672,N,7939.07491,W,10.913,187.48,50624.0,,,D,V*21',,,,,,,,1,0.7028627450980391,0.7904444444444445,0.5893725490196078,1.0,10.0,0,0
9490497,23:14:05.500000,6.468333333333334,2024-06-05,600348.4594153375,5332103.695726693,17,N,23:14:05.500,48.13427073,-79.65124835,54966.54665,1,-305,-30959,29816,19.52,-8.673,15.401,0.04827,-0.80516,0.72445,40.726,178.1,I,,,,,,,,,,,,,,,,,,,,,,,,,,,,,,,,,,,,,,,,,,,,,,1,0.7116470588235293,0.7939999999999999,0.5921960784313726,1.0,10.0,0,0
9486997,23:14:02,6.41,2024-06-05,600348.4936100503,5332121.82188795,17,N,23:14:02.000,48.13443376,-79.65124362,54986.62105,1,-5798,-32968,28443,-8.981,-4.946,15.071,0.07618,-1.13574,0.35305,40.718,188.4,G,0.51,2.0,12.0,389.0,-38.5,12.613,0.0, ,D,'$GNGGA,231402.0,4808.06577,N,7939.07468,W,2.0,12.0,0.51,389.0,M,-38.5,M,,0131*7E','$GNRMC,231402.0,A,4808.06577,N,7939.07468,W,12.613,188.44,50624.0,,,D,V*26',,,,,,,,1,0.7511764705882352,0.81,0.6049019607843137,1.0,10.0,0,0
9483497,23:13:58.500000,6.3516666666666675,2024-06-05,600350.187059773,5332142.42975906,17,N,23:13:58.500,48.13461885,-79.65121601,54974.9139,1,-527,-30517,30016,-10.718,-2.325,-4.351,0.05126,-0.74759,0.78309,40.793,187.2,I,,,,,,,,,,,,,,,,,,,,,,,,,,,,,,,,,,,,,,,,,,,,,,1,0.7292156862745097,0.8011111111111111,0.5978431372549019,1.0,10.0,0,0
9479997,23:13:55,6.293333333333334,2024-06-05,600350.6527541513,5332161.030440934,17,N,23:13:55.000,48.13478608,-79.65120537,54959.09225,1,2749,-30655,29849,-5.694,-10.141,3.446,-0.15314,-0.76416,0.72831,40.746,186.4,G,0.53,2.0,12.0,389.0,-38.5,9.765,0.0, ,D,'$GNGGA,231355.0,4808.08691,N,7939.07237,W,2.0,12.0,0.53,389.0,M,-38.5,M,,0131*70','$GNRMC,231355.0,A,4808.08691,N,7939.07237,W,9.765,186.44,50624.0,,,D,V*1E',,,,,,,,1,0.6984705882352941,0.7886666666666666,0.5879607843137256,1.0,10.0,0,0
9476497,23:13:51.500000,6.235,2024-06-05,600349.333676683,5332180.275798512,17,N,23:13:51.500,48.13495939,-79.65121856,54953.9362,1,2209,-30396,29987,11.848,4.499,15.578,0.12909,-0.71652,0.70449,40.83,176.2,I,,,,,,,,,,,,,,,,,,,,,,,,,,,,,,,,,,,,,,,,,,,,,,1,0.6852941176470587,0.7833333333333332,0.5837254901960784,1.0,10.0,0,0
9472997,23:13:48,6.176666666666667,2024-06-05,600349.1485842309,5332204.7953751385,17,N,23:13:48.000,48.13517996,-79.65121527,54963.4941,1,-2071,-28015,31098,6.026,-12.982,18.493,0.2088,-0.73239,0.85603,40.783,181.4,G,0.51,2.0,12.0,385.7,-38.5,13.583,0.0, ,D,'$GNGGA,231348.0,4808.11054,N,7939.07293,W,2.0,12.0,0.51,385.7,M,-38.5,M,,0131*7C','$GNRMC,231348.0,A,4808.11054,N,7939.07293,W,13.583,181.41,50624.0,,,D,V*28',,,,,,,,1,0.7072549019607842,0.7922222222222223,0.5907843137254902,1.0,10.0,0,0
9469497,23:13:44.500000,6.118333333333334,2024-06-05,600348.9870609662,5332230.0502613345,17,N,23:13:44.500,48.13540714,-79.65121149,54964.3494,1,-3069,-30697,29721,1.406,3.609,-3.542,0.05137,-0.62111,0.78597,40.831,182.1,I,,,,,,,,,,,,,,,,,,,,,,,,,,,,,,,,,,,,,,,,,,,,,,1,0.7072549019607842,0.7922222222222223,0.5907843137254902,1.0,10.0,0,0
9465997,23:13:41,6.0600000000000005,2024-06-05,600349.2293020466,5332257.573616049,17,N,23:13:41.000,48.13565466,-79.65120175,54952.9323,1,417,-27483,31315,3.061,-3.041,-19.967,0.09981,-0.42726,0.84225,40.89,175.4,G,0.51,2.0,12.0,380.8,-38.5,14.945,0.0, ,D,'$GNGGA,231341.0,4808.13902,N,7939.07208,W,2.0,12.0,0.51,380.8,M,-38.5,M,,0131*75','$GNRMC,231341.0,A,4808.13902,N,7939.07208,W,14.945,175.39,50624.0,,,D,V*2E',,,,,,,,1,0.6852941176470587,0.7833333333333332,0.5837254901960784,1.0,10.0,0,0
9462497,23:13:37.500000,6.001666666666667,2024-06-05,600349.5514465871,5332285.759890268,17,N,23:13:37.500,48.13590813,-79.65119078,54936.50475,1,-911,-33795,28534,-7.566,-7.019,-0.729,0.03053,-0.62076,0.72691,40.943,182.4,I,,,,,,,,,,,,,,,,,,,,,,,,,,,,,,,,,,,,,,,,,,,,,,1,0.6501568627450979,0.7691111111111111,0.5724313725490197,1.0,10.0,0,0
9458997,23:13:34,5.943333333333333,2024-06-05,600350.1332855851,5332310.764319849,17,N,23:13:34.000,48.13613294,-79.65117707,54938.45565,1,1221,-28713,30762,8.459,-6.882,-18.248,0.07441,-0.48569,0.81022,40.934,178.5,G,0.51,2.0,12.0,383.6,-38.5,10.593,0.0, ,D,'$GNGGA,231334.0,4808.16772,N,7939.07062,W,2.0,12.0,0.51,383.6,M,-38.5,M,,0131*78','$GNRMC,231334.0,A,4808.16772,N,7939.07062,W,10.593,178.49,50624.0,,,D,V*27',,,,,,,,1,0.6545490196078431,0.7708888888888888,0.573843137254902,1.0,10.0,0,0
9455497,23:13:30.500000,5.885000000000001,2024-06-05,600350.187404045,5332329.789166057,17,N,23:13:30.500,48.13630405,-79.65117186,54940.96555,1,3166,-32551,28915,38.92,3.483,1.435,0.02489,-0.74755,0.80052,40.984,175.1,I,,,,,,,,,,,,,,,,,,,,,,,,,,,,,,,,,,,,,,,,,,,,,,1,0.6589411764705883,0.7726666666666667,0.5752549019607843,1.0,10.0,0,0
9451997,23:13:27,5.826666666666667,2024-06-05,600350.2707099756,5332347.828363888,17,N,23:13:27.000,48.13646629,-79.65116649,54968.3268,1,-884,-31470,29549,-5.692,-1.223,-20.83,0.21253,-0.76648,0.76815,41.025,176.4,G,0.51,2.0,12.0,386.6,-38.5,9.091,0.0, ,D,'$GNGGA,231327.0,4808.18772,N,7939.06997,W,2.0,12.0,0.51,386.6,M,-38.5,M,,0131*73','$GNRMC,231327.0,A,4808.18772,N,7939.06997,W,9.091,176.39,50624.0,,,D,V*1F',,,,,,,,1,0.7160392156862745,0.7957777777777778,0.5936078431372549,1.0,10.0,0,0
9448497,23:13:23.500000,5.7683333333333335,2024-06-05,600350.2432859866,5332362.972733866,17,N,23:13:23.500,48.13660251,-79.65116329,54975.9229,1,2033,-29472,30535,-3.53,-1.437,-5.369,0.12152,-0.41562,0.81593,41.057,170.5,I,,,,,,,,,,,,,,,,,,,,,,,,,,,,,,,,,,,,,,,,,,,,,,1,0.7292156862745097,0.8011111111111111,0.5978431372549019,1.0,10.0,0,0
9444997,23:13:20,5.71,2024-06-05,600350.2308181308,5332375.396807729,17,N,23:13:20.000,48.13671426,-79.65116053,54988.0053,1,964,-30314,30206,-13.365,-10.8,-8.422,0.11025,-0.5554,0.72065,41.079,167.4,G,0.51,2.0,12.0,388.1,-38.5,7.38,0.0, ,D,'$GNGGA,231320.0,4808.2026,N,7939.06955,W,2.0,12.0,0.51,388.1,M,-38.5,M,,0131*7E','$GNRMC,231320.0,A,4808.2026,N,7939.06955,W,7.38,167.35,50624.0,,,D,V*1A',,,,,,,,1,0.7555686274509803,0.8117777777777777,0.606313725490196,1.0,10.0,0,0
9441497,23:13:16.500000,5.651666666666667,2024-06-05,600349.686967791,5332394.018707073,17,N,23:13:16.500,48.13688184,-79.65116345,55010.1846,1,-1926,-29746,30359,11.745,-3.402,9.478,-0.11345,-0.52907,0.65598,41.091,187.7,I,,,,,,,,,,,,,,,,,,,,,,,,,,,,,,,,,,,,,,,,,,,,,,1,0.7994901960784313,0.8295555555555556,0.6204313725490196,1.0,10.0,0,0
9437997,23:13:13,5.593333333333334,2024-06-05,600350.5348810954,5332421.629404462,17,N,23:13:13.000,48.13713005,-79.65114555,55025.42985,1,727,-29813,30420,-11.347,-3.056,-18.674,0.06307,-0.51675,0.7158,41.105,178.8,G,0.51,2.0,12.0,388.5,-38.5,13.643,0.0, ,D,'$GNGGA,231313.0,4808.22755,N,7939.06873,W,2.0,12.0,0.51,388.5,M,-38.5,M,,0131*7E','$GNRMC,231313.0,A,4808.22755,N,7939.06873,W,13.643,178.75,50624.0,,,D,V*2B',,,,,,,,1,0.8302352941176471,0.842,0.630313725490196,1.0,10.0,0,0
9434497,23:13:09.500000,5.535,2024-06-05,600348.3153660005,5332443.845256366,17,N,23:13:09.500,48.13733022,-79.65117014,55055.8317,1,-3065,-30084,30170,-2.262,6.199,-10.218,0.06123,-0.64125,0.74288,41.139,176.3,I,,,,,,,,,,,,,,,,,,,,,,,,,,,,,,,,,,,,,,,,,,,,,,1,0.8490065359477125,0.8097647058823529,0.5899738562091503,1.0,10.0,0,0
9430997,23:13:06,5.4766666666666675,2024-06-05,600348.532695235,5332467.481353474,17,N,23:13:06.000,48.13754278,-79.65116165,55060.6807,1,707,-34204,28383,-23.25,-4.835,2.992,-0.01577,-0.57135,0.58722,41.152,181.9,G,0.51,2.0,12.0,389.1,-38.5,13.838,0.0, ,D,'$GNGGA,231306.0,4808.25231,N,7939.06972,W,2.0,12.0,0.51,389.1,M,-38.5,M,,0131*7F','$GNRMC,231306.0,A,4808.25231,N,7939.06972,W,13.838,181.86,50624.0,,,D,V*27',,,,,,,,1,0.8486928104575163,0.7970588235294118,0.5752287581699347,1.0,10.0,0,0
9427497,23:13:02.500000,5.418333333333334,2024-06-05,600348.8443968912,5332495.071533224,17,N,23:13:02.500,48.13779089,-79.65115096,55101.16395,1,-1736,-26154,31659,8.959,9.489,-8.589,0.17939,-0.59715,0.82159,41.145,182.4,I,,,,,,,,,,,,,,,,,,,,,,,,,,,,,,,,,,,,,,,,,,,,,,1,0.8467058823529412,0.7165882352941176,0.4818431372549019,1.0,10.0,0,0
9423997,23:12:59,5.36,2024-06-05,600349.016672343,5332521.827647584,17,N,23:12:59.000,48.13803152,-79.65114234,55129.87605,1,-2206,-28870,30780,-9.926,0.554,5.524,-0.10406,-0.76865,0.6296,41.275,183.4,G,0.51,2.0,12.0,387.1,-38.5,17.628,0.0, ,D,'$GNGGA,231259.0,4808.28163,N,7939.06857,W,2.0,12.0,0.51,387.1,M,-38.5,M,,0131*75','$GNRMC,231259.0,A,4808.28163,N,7939.06857,W,17.628,183.42,50624.0,,,D,V*22',,,,,,,,1,0.8453464052287581,0.6615294117647058,0.41794771241830064,1.0,10.0,0,0
9420497,23:12:55.500000,5.301666666666667,2024-06-05,600349.4453366417,5332550.512774492,17,N,23:12:55.500,48.13828946,-79.65112982,55168.7535,1,-3916,-27921,31058,-12.83,-7.005,3.673,0.03353,-0.75961,0.70578,41.273,183.5,I,,,,,,,,,,,,,,,,,,,,,,,,,,,,,,,,,,,,,,,,,,,,,,1,0.8434640522875817,0.5852941176470589,0.32947712418300656,1.0,10.0,0,0
9416997,23:12:52,5.243333333333334,2024-06-05,600350.4567201501,5332579.91633468,17,N,23:12:52.000,48.13855377,-79.6511093,55169.40595,1,221,-29001,30885,-6.191,5.961,-10.728,-0.09956,-0.5659,0.7778,41.328,184.4,G,0.51,2.0,12.0,386.6,-38.5,15.514,0.0, ,D,'$GNGGA,231252.0,4808.31297,N,7939.06659,W,2.0,12.0,0.51,386.6,M,-38.5,M,,0131*78','$GNRMC,231252.0,A,4808.31297,N,7939.06659,W,15.514,184.41,50624.0,,,D,V*23',,,,,,,,1,0.8434640522875817,0.5852941176470589,0.32947712418300656,1.0,10.0,0,0
9413497,23:12:48.500000,5.1850000000000005,2024-06-05,600349.429930061,5332606.938268121,17,N,23:12:48.500,48.13879698,-79.65111673,55154.21855,1,1611,-29907,30521,2.877,1.89,-16.804,-0.04616,-0.70689,0.6951,41.321,180.7,I,,,,,,,,,,,,,,,,,,,,,,,,,,,,,,,,,,,,,,,,,,,,,,1,0.8441960784313726,0.6149411764705882,0.36388235294117643,1.0,10.0,0,0
9409997,23:12:45,5.126666666666667,2024-06-05,600349.5248280293,5332632.715763795,17,N,23:12:45.000,48.13902882,-79.65110938,55155.7888,1,-969,-28470,31043,19.958,-2.204,17.095,0.09252,-0.65484,0.82297,41.369,183.1,G,0.51,2.0,12.0,385.4,-38.5,14.16,0.0, ,D,'$GNGGA,231245.0,4808.34147,N,7939.06659,W,2.0,12.0,0.51,385.4,M,-38.5,M,,0131*74','$GNRMC,231245.0,A,4808.34147,N,7939.06659,W,14.16,183.05,50624.0,,,D,V*2F',,,,,,,,1,0.8440915032679739,0.6107058823529412,0.3589673202614379,1.0,10.0,0,0
9406497,23:12:41.500000,5.068333333333333,2024-06-05,600349.7459786342,5332657.573797456,17,N,23:12:41.500,48.13925237,-79.65110055,55162.33435,1,-2165,-32564,29057,-3.51,-1.618,-3.213,0.11007,-0.66792,0.6577,41.391,184.5,I,,,,,,,,,,,,,,,,,,,,,,,,,,,,,,,,,,,,,,,,,,,,,,1,0.8437777777777778,0.5980000000000001,0.3442222222222222,1.0,10.0,0,0
9402997,23:12:38,5.010000000000001,2024-06-05,600349.421139984,5332682.631274339,17,N,23:12:38.000,48.1394778,-79.65109901,55180.5721,1,-1116,-29470,30608,4.82,-4.65,12.051,-0.008,-0.54177,0.71605,41.4,187.4,G,0.51,2.0,12.0,383.8,-38.5,14.663,0.0, ,D,'$GNGGA,231238.0,4808.36841,N,7939.066,W,2.0,12.0,0.51,383.8,M,-38.5,M,,0131*75','$GNRMC,231238.0,A,4808.36841,N,7939.066,W,14.663,187.39,50624.0,,,D,V*2B',,,,,,,,1,0.8358823529411765,0.5507843137254902,0.3098039215686274,1.0,10.0,0,0
9399497,23:12:34.500000,4.951666666666667,2024-06-05,600349.1133680926,5332710.7464853795,17,N,23:12:34.500,48.13973073,-79.65109652,55208.3732,1,-177,-26098,31911,6.187,11.073,-2.399,-0.03647,-0.55705,0.77282,41.432,180.3,I,,,,,,,,,,,,,,,,,,,,,,,,,,,,,,,,,,,,,,,,,,,,,,1,0.8100522875816993,0.44950326797385615,0.2629019607843137,1.0,10.0,0,0
9395997,23:12:31,4.8933333333333335,2024-06-05,600348.9028825783,5332738.787801811,17,N,23:12:31.000,48.13998298,-79.65109274,55245.4138,1,-1991,-27703,31378,3.7,2.764,-13.143,0.02577,-0.65559,0.76244,41.486,180.0,G,0.51,2.0,12.0,378.1,-38.5,15.842,0.0, ,D,'$GNGGA,231231.0,4808.39872,N,7939.06557,W,2.0,12.0,0.51,378.1,M,-38.5,M,,0131*7F','$GNRMC,231231.0,A,4808.39872,N,7939.06557,W,15.842,179.97,50624.0,,,D,V*25',,,,,,,,1,0.7742875816993464,0.30926797385620913,0.1979607843137255,1.0,10.0,0,0
9392497,23:12:27.500000,4.835,2024-06-05,600348.7165488019,5332766.300329,17,N,23:12:27.500,48.14023047,-79.65108876,55283.27365,1,-3481,-30386,30221,-9.64,0.046,1.187,0.1997,-0.78111,0.70951,41.508,181.9,I,,,,,,,,,,,,,,,,,,,,,,,,,,,,,,,,,,,,,,,,,,,,,,1,0.7405098039215686,0.17682352941176468,0.13662745098039214,1.0,10.0,0,0
9388997,23:12:24,4.776666666666667,2024-06-05,600348.9103178107,5332792.930088109,17,N,23:12:24.000,48.14046996,-79.65107988,55307.35375,1,-2098,-28970,30936,3.275,-0.572,-2.737,0.07747,-0.66402,0.83238,41.514,181.5,G,0.51,2.0,12.0,375.5,-38.5,14.756,0.0, ,D,'$GNGGA,231224.0,4808.42794,N,7939.06481,W,2.0,12.0,0.51,375.5,M,-38.5,M,,0131*73','$GNRMC,231224.0,A,4808.42794,N,7939.06481,W,14.756,181.49,50624.0,,,D,V*2F',,,,,,,,1,0.7186535947712419,0.09112418300653592,0.09694117647058824,1.0,10.0,0,0
9385497,23:12:20.500000,4.718333333333334,2024-06-05,600349.3145633847,5332820.074965193,17,N,23:12:20.500,48.14071405,-79.65106805,55300.4338,1,-1388,-31943,29629,-4.432,-1.854,-0.762,0.05564,-0.75422,0.66704,41.551,183.7,I,,,,,,,,,,,,,,,,,,,,,,,,,,,,,,,,,,,,,,,,,,,,,,1,0.7246143790849673,0.11449673202614376,0.10776470588235296,1.0,10.0,0,0
9381997,23:12:17,4.66,2024-06-05,600349.2452895456,5332845.409320289,17,N,23:12:17.000,48.14094193,-79.65106301,55264.6887,1,2519,-32210,29479,-1.495,0.803,-1.477,0.09818,-0.81736,0.67542,41.625,175.9,G,0.51,2.0,12.0,381.6,-38.5,13.182,0.0, ,D,'$GNGGA,231217.0,4808.45626,N,7939.06376,W,2.0,12.0,0.51,381.6,M,-38.5,M,,0131*7B','$GNRMC,231217.0,A,4808.45626,N,7939.06376,W,13.182,175.93,50624.0,,,D,V*2B',,,,,,,,1,0.7583921568627451,0.24694117647058828,0.16909803921568628,1.0,10.0,0,0
9378497,23:12:13.500000,4.6016666666666675,2024-06-05,600348.7080410924,5332867.853697847,17,N,23:12:13.500,48.14114389,-79.65106494,55253.74025,1,-2586,-30331,30191,7.612,-1.309,-5.874,0.08303,-0.73437,0.78353,41.637,181.8,I,,,,,,,,,,,,,,,,,,,,,,,,,,,,,,,,,,,,,,,,,,,,,,1,0.7683267973856209,0.2858954248366013,0.18713725490196076,1.0,10.0,0,0
9374997,23:12:10,4.543333333333334,2024-06-05,600348.6957864134,5332891.6336544175,17,N,23:12:10.000,48.14135778,-79.6510595,55218.63465,1,-1500,-29712,30579,11.208,6.337,-18.632,-0.03965,-0.69453,0.73489,41.666,183.1,G,0.51,2.0,12.0,385.3,-38.5,14.231,0.0, ,D,'$GNGGA,231210.0,4808.48121,N,7939.0636,W,2.0,12.0,0.51,385.3,M,-38.5,M,,0131*77','$GNRMC,231210.0,A,4808.48121,N,7939.0636,W,14.231,183.08,50624.0,,,D,V*21',,,,,,,,1,0.8001176470588235,0.4105490196078431,0.24486274509803918,1.0,10.0,0,0
9371497,23:12:06.500000,4.485,2024-06-05,600349.5093582012,5332916.694429618,17,N,23:12:06.500,48.14158306,-79.65104266,55179.37885,1,-20,-29349,30771,5.198,-0.331,7.015,0.16347,-0.7589,0.71841,41.696,181.3,I,,,,,,,,,,,,,,,,,,,,,,,,,,,,,,,,,,,,,,,,,,,,,,1,0.8358823529411765,0.5507843137254902,0.3098039215686274,1.0,10.0,0,0
9367997,23:12:03,4.426666666666667,2024-06-05,600348.6413952742,5332942.4239213,17,N,23:12:03.000,48.14181462,-79.65104826,55145.9001,1,986,-28762,30894,-0.815,4.047,-7.247,0.11189,-0.67688,0.75543,41.716,176.2,G,0.51,2.0,12.0,383.1,-38.5,14.204,0.0, ,D,'$GNGGA,231203.0,4808.50862,N,7939.06288,W,2.0,12.0,0.51,383.1,M,-38.5,M,,0131*71','$GNRMC,231203.0,A,4808.50862,N,7939.06288,W,14.204,176.15,50624.0,,,D,V*23',,,,,,,,1,0.8446143790849674,0.6318823529411765,0.3835424836601307,1.0,10.0,0,0
9364497,23:11:59.500000,4.368333333333334,2024-06-05,600349.2596412556,5332969.074474746,17,N,23:11:59.500,48.14205423,-79.65103367,55120.05865,1,-1062,-31368,29652,1.145,0.95,27.933,0.24349,-0.6666,0.65959,41.767,179.7,I,,,,,,,,,,,,,,,,,,,,,,,,,,,,,,,,,,,,,,,,,,,,,,1,0.8458692810457517,0.6827058823529412,0.44252287581699346,1.0,10.0,0,0
9360997,23:11:56,4.3100000000000005,2024-06-05,600349.1355487577,5332996.85382289,17,N,23:11:56.000,48.14230411,-79.65102879,55080.77175,1,2538,-31308,29770,12.855,10.147,-26.635,-0.07909,-0.71327,0.779,41.787,178.0,G,0.51,2.0,12.0,381.1,-38.5,14.211,0.0, ,D,'$GNGGA,231156.0,4808.53799,N,7939.06172,W,2.0,12.0,0.51,381.1,M,-38.5,M,,0131*7E','$GNRMC,231156.0,A,4808.53799,N,7939.06172,W,14.211,178.04,50624.0,,,D,V*24',,,,,,,,1,0.8477516339869281,0.7589411764705882,0.5309934640522875,1.0,10.0,0,0
9357497,23:11:52.500000,4.251666666666667,2024-06-05,600348.6308560666,5333021.641328122,17,N,23:11:52.500,48.14252714,-79.65102973,55067.62065,1,-2076,-28893,30669,-1.511,-2.536,16.363,0.00596,-0.56405,0.74221,41.838,182.9,I,,,,,,,,,,,,,,,,,,,,,,,,,,,,,,,,,,,,,,,,,,,,,,1,0.8483790849673203,0.7843529411764706,0.5604836601307189,1.0,10.0,0,0
9353997,23:11:49,4.193333333333333,2024-06-05,600349.1955688248,5333048.203114641,17,N,23:11:49.000,48.14276596,-79.65101588,55034.75575,1,-2200,-30433,30018,-5.682,-4.345,6.59,0.0345,-0.68892,0.65672,41.838,184.7,G,0.51,2.0,12.0,380.0,-38.5,14.883,0.0, ,D,'$GNGGA,231149.0,4808.5657,N,7939.06099,W,2.0,12.0,0.51,380.0,M,-38.5,M,,0131*74','$GNRMC,231149.0,A,4808.5657,N,7939.06099,W,14.883,184.66,50624.0,,,D,V*28',,,,,,,,1,0.8499477124183006,0.8478823529411764,0.6342091503267974,1.0,10.0,0,0
9350497,23:11:45.500000,4.135,2024-06-05,600350.1748801966,5333075.053458501,17,N,23:11:45.500,48.14300731,-79.65099639,54999.0219,1,-994,-28939,30587,-6.934,9.866,-5.685,0.19686,-0.76142,0.70114,41.914,180.7,I,,,,,,,,,,,,,,,,,,,,,,,,,,,,,,,,,,,,,,,,,,,,,,1,0.7775294117647059,0.8206666666666667,0.6133725490196079,1.0,10.0,0,0
9346997,23:11:42,4.076666666666666,2024-06-05,600349.3349628428,5333103.043727091,17,N,23:11:42.000,48.1432592,-79.65100108,54963.0315,1,253,-29544,30380,0.407,-3.351,7.199,0.08704,-0.70661,0.7509,41.92,178.3,G,0.51,2.0,12.0,380.1,-38.5,17.046,0.0, ,D,'$GNGGA,231142.0,4808.59529,N,7939.06006,W,2.0,12.0,0.51,380.1,M,-38.5,M,,0131*7B','$GNRMC,231142.0,A,4808.59529,N,7939.06006,W,17.046,178.25,50624.0,,,D,V*20',,,,,,,,1,0.7028627450980391,0.7904444444444445,0.5893725490196078,1.0,10.0,0,0
9343497,23:11:38.500000,4.0183333333333335,2024-06-05,600348.8517741425,5333131.39825169,17,N,23:11:38.500,48.14351431,-79.65100089,54941.72815,1,-2652,-32180,29131,8.16,-6.964,16.185,0.17807,-0.71351,0.70867,41.952,180.8,I,,,,,,,,,,,,,,,,,,,,,,,,,,,,,,,,,,,,,,,,,,,,,,1,0.6633333333333333,0.7744444444444444,0.5766666666666667,1.0,10.0,0,0
9339997,23:11:35,3.96,2024-06-05,600349.2854315167,5333157.666454498,17,N,23:11:35.000,48.14375051,-79.65098887,54915.31185,1,-1383,-34691,27908,3.445,-20.206,28.622,0.19871,-0.79737,0.58215,41.978,182.8,G,0.51,2.0,12.0,382.3,-38.5,15.031,0.0, ,D,'$GNGGA,231135.0,4808.62477,N,7939.05936,W,2.0,12.0,0.51,382.3,M,-38.5,M,,0131*70','$GNRMC,231135.0,A,4808.62477,N,7939.05936,W,15.031,182.79,50624.0,,,D,V*25',,,,,,,,1,0.6062352941176471,0.7513333333333333,0.5583137254901961,1.0,10.0,0,0
9336497,23:11:31.500000,3.9016666666666664,2024-06-05,600349.2650535246,5333184.196861016,17,N,23:11:31.500,48.14398914,-79.65098289,54897.371,1,522,-31970,29231,47.35,5.093,-13.903,0.15451,-0.76369,0.76697,42.031,176.3,I,,,,,,,,,,,,,,,,,,,,,,,,,,,,,,,,,,,,,,,,,,,,,,1,0.5710980392156861,0.7371111111111112,0.5470196078431373,1.0,10.0,0,0
9332997,23:11:28,3.8433333333333333,2024-06-05,600350.1358085219,5333211.633447212,17,N,23:11:28.000,48.14423578,-79.65096472,54897.70375,1,-2426,-28820,30548,3.98,7.287,14.679,0.14904,-0.68474,0.76671,42.09,186.3,G,0.51,2.0,12.0,384.7,-38.5,15.529,0.0, ,D,'$GNGGA,231128.0,4808.65389,N,7939.05793,W,2.0,12.0,0.51,384.7,M,-38.5,M,,0131*7E','$GNRMC,231128.0,A,4808.65389,N,7939.05793,W,15.529,186.28,50624.0,,,D,V*25',,,,,,,,1,0.5710980392156861,0.7371111111111112,0.5470196078431373,1.0,10.0,0,0
9329497,23:11:24.500000,3.7849999999999997,2024-06-05,600350.1897100401,5333239.654964599,17,N,23:11:24.500,48.14448781,-79.65095739,54875.8243,1,3555,-27807,30984,1.734,-8.089,1.021,-0.00143,-0.75553,0.70497,42.029,180.0,I,,,,,,,,,,,,,,,,,,,,,,,,,,,,,,,,,,,,,,,,,,,,,,1,0.5047450980392156,0.6907843137254902,0.5578823529411765,1.0,10.0,0,0
9325997,23:11:21,3.7266666666666666,2024-06-05,600349.2040020475,5333268.447622593,17,N,23:11:21.000,48.14474694,-79.65096385,54871.6972,1,2000,-32083,29223,2.799,-7.353,5.836,-0.06812,-0.87092,0.53078,42.098,178.8,G,0.51,2.0,12.0,386.5,-38.5,15.173,0.0, ,D,'$GNGGA,231121.0,4808.68456,N,7939.05783,W,2.0,12.0,0.51,386.5,M,-38.5,M,,0131*7E','$GNRMC,231121.0,A,4808.68456,N,7939.05783,W,15.173,178.77,50624.0,,,D,V*25',,,,,,,,1,0.491359477124183,0.6813725490196079,0.5601830065359478,1.0,10.0,0,0
9322497,23:11:17.500000,3.6683333333333334,2024-06-05,600349.2830623657,5333293.931355305,17,N,23:11:17.500,48.14497614,-79.65095678,54885.51365,1,-2369,-29646,30136,-5.389,-1.252,1.816,0.04945,-0.78154,0.69223,42.119,181.0,I,,,,,,,,,,,,,,,,,,,,,,,,,,,,,,,,,,,,,,,,,,,,,,1,0.531516339869281,0.7096078431372549,0.553281045751634,1.0,10.0,0,0
9318997,23:11:14,3.61,2024-06-05,600350.0118908476,5333320.718392689,17,N,23:11:14.000,48.14521696,-79.65094067,54889.8765,1,-2304,-25859,31490,8.332,-11.24,-17.744,0.02119,-0.52681,0.91847,42.155,182.5,G,0.51,2.0,12.0,386.1,-38.5,15.41,0.0, ,D,'$GNGGA,231114.0,4808.71276,N,7939.05646,W,2.0,12.0,0.51,386.1,M,-38.5,M,,0131*78','$GNRMC,231114.0,A,4808.71276,N,7939.05646,W,15.41,182.48,50624.0,,,D,V*2E',,,,,,,,1,0.5449019607843137,0.7190196078431372,0.5509803921568628,1.0,10.0,0,0
9315497,23:11:10.500000,3.5516666666666667,2024-06-05,600349.7523675001,5333348.32416493,17,N,23:11:10.500,48.1454653,-79.65093765,54879.92005,1,-1383,-26488,31244,-3.484,0.998,10.045,0.08448,-0.65443,0.79921,42.204,182.9,I,,,,,,,,,,,,,,,,,,,,,,,,,,,,,,,,,,,,,,,,,,,,,,1,0.5181307189542483,0.7001960784313725,0.5555816993464052,1.0,10.0,0,0
9311997,23:11:07,3.493333333333333,2024-06-05,600350.1405488221,5333376.629501193,17,N,23:11:07.000,48.14571983,-79.65092576,54857.32815,1,-35,-29132,30507,1.885,-5.241,13.383,0.0756,-0.54228,0.91773,42.228,185.3,G,0.51,2.0,12.0,383.5,-38.5,15.283,0.0, ,D,'$GNGGA,231107.0,4808.74293,N,7939.05559,W,2.0,12.0,0.51,383.5,M,-38.5,M,,0131*78','$GNRMC,231107.0,A,4808.74293,N,7939.05559,W,15.283,185.32,50624.0,,,D,V*29',,,,,,,,1,0.4445098039215686,0.6484313725490196,0.5682352941176471,1.0,10.0,0,0
9308497,23:11:03.500000,3.435,2024-06-05,600349.4418617517,5333403.65055063,17,N,23:11:03.500,48.14596298,-79.65092878,54852.60555,1,-344,-30257,29929,14.491,-0.697,-4.701,0.0231,-0.5112,0.90525,42.283,181.7,I,,,,,,,,,,,,,,,,,,,,,,,,,,,,,,,,,,,,,,,,,,,,,,1,0.43112418300653604,0.6390196078431373,0.5705359477124182,1.0,10.0,0,0
9304997,23:11:00,3.3766666666666665,2024-06-05,600349.9141354136,5333432.760080997,17,N,23:11:00.000,48.14622473,-79.65091557,54860.5497,1,-1293,-29860,30167,-9.516,-6.303,24.33,0.24136,-0.63493,0.68119,42.291,183.7,G,0.51,2.0,12.0,382.7,-38.5,15.051,0.0, ,D,'$GNGGA,231100.0,4808.77323,N,7939.05497,W,2.0,12.0,0.51,382.7,M,-38.5,M,,0131*76','$GNRMC,231100.0,A,4808.77323,N,7939.05497,W,15.051,183.7,50624.0,,,D,V*29',,,,,,,,1,0.4578954248366013,0.657843137254902,0.5659346405228758,1.0,10.0,0,0
9301497,23:10:56.500000,3.3183333333333334,2024-06-05,600349.4935137375,5333460.34413179,17,N,23:10:56.500,48.1464729,-79.65091472,54861.64065,1,264,-24384,32104,1.595,4.095,-17.055,0.12676,-0.4159,0.81616,42.307,177.8,I,,,,,,,,,,,,,,,,,,,,,,,,,,,,,,,,,,,,,,,,,,,,,,1,0.4578954248366013,0.657843137254902,0.5659346405228758,1.0,10.0,0,0
9297997,23:10:53,3.26,2024-06-05,600348.360904084,5333489.069738183,17,N,23:10:53.000,48.14673145,-79.65092317,54858.28875,1,-947,-27220,31162,-14.778,4.736,-34.711,-0.04714,-0.54644,0.76178,42.342,178.7,G,0.51,2.0,12.0,381.9,-38.5,14.257,0.0, ,D,'$GNGGA,231053.0,4808.80363,N,7939.05539,W,2.0,12.0,0.51,381.9,M,-38.5,M,,0131*75','$GNRMC,231053.0,A,4808.80363,N,7939.05539,W,14.257,178.68,50624.0,,,D,V*2F',,,,,,,,1,0.45120261437908493,0.6531372549019608,0.5670849673202615,1.0,10.0,0,0
9294497,23:10:49.500000,3.2016666666666667,2024-06-05,600348.3240732234,5333515.049531765,17,N,23:10:49.500,48.14696513,-79.65091754,54867.73095,1,-1755,-29766,30091,-12.974,-7.503,35.021,0.20831,-0.68748,0.70891,42.365,183.1,I,,,,,,,,,,,,,,,,,,,,,,,,,,,,,,,,,,,,,,,,,,,,,,1,0.4779738562091504,0.6719607843137254,0.5624836601307189,1.0,10.0,0,0
9290997,23:10:46,3.143333333333333,2024-06-05,600348.9032924745,5333538.018272467,17,N,23:10:46.000,48.14717163,-79.65090434,54878.6637,1,-1500,-30263,29897,2.112,2.274,-11.772,0.07303,-0.53572,0.76735,42.393,180.6,G,0.51,2.0,12.0,381.2,-38.5,10.577,0.0, ,D,'$GNGGA,231046.0,4808.83004,N,7939.05427,W,2.0,12.0,0.51,381.2,M,-38.5,M,,0131*75','$GNRMC,231046.0,A,4808.83004,N,7939.05427,W,10.577,180.64,50624.0,,,D,V*2E',,,,,,,,1,0.511437908496732,0.6954901960784313,0.5567320261437909,1.0,10.0,0,0
9287497,23:10:42.500000,3.085,2024-06-05,600349.6860873178,5333559.815417327,17,N,23:10:42.500,48.14736756,-79.65088868,54877.57695,1,-1506,-33991,28180,39.962,-3.81,-7.472,0.18064,-0.82155,0.829,42.338,181.1,I,,,,,,,,,,,,,,,,,,,,,,,,,,,,,,,,,,,,,,,,,,,,,,1,0.511437908496732,0.6954901960784313,0.5567320261437909,1.0,10.0,0,0
9283997,23:10:39,3.0266666666666664,2024-06-05,600349.8473628499,5333584.977072312,17,N,23:10:39.000,48.14759385,-79.65088058,54872.5963,1,-139,-30769,29746,-12.51,4.201,-0.853,0.02308,-0.63062,0.6294,42.389,180.2,G,0.51,2.0,12.0,380.2,-38.5,15.38,0.0, ,D,'$GNGGA,231039.0,4808.85537,N,7939.05284,W,2.0,12.0,0.51,380.2,M,-38.5,M,,0131*70','$GNRMC,231039.0,A,4808.85537,N,7939.05284,W,15.38,180.19,50624.0,,,D,V*2B',,,,,,,,1,0.491359477124183,0.6813725490196079,0.5601830065359478,1.0,10.0,0,0
9280497,23:10:35.500000,2.9683333333333333,2024-06-05,600348.9362323654,5333612.443569097,17,N,23:10:35.500,48.14784104,-79.65088635,54879.2333,1,-4306,-31608,29180,-25.13,10.312,14.574,0.04481,-0.88157,0.6234,42.428,184.0,I,,,,,,,,,,,,,,,,,,,,,,,,,,,,,,,,,,,,,,,,,,,,,,1,0.511437908496732,0.6954901960784313,0.5567320261437909,1.0,10.0,0,0
9276997,23:10:32,2.9099999999999997,2024-06-05,600349.6470146249,5333640.889104764,17,N,23:10:32.000,48.14809678,-79.65087009,54885.28975,1,-2492,-25886,31412,0.347,0.22,-0.78,0.02307,-0.62471,0.78957,42.453,182.7,G,0.51,2.0,12.0,378.6,-38.5,15.81,0.0, ,D,'$GNGGA,231032.0,4808.88555,N,7939.05223,W,2.0,12.0,0.51,378.6,M,-38.5,M,,0131*7C','$GNRMC,231032.0,A,4808.88555,N,7939.05223,W,15.81,182.71,50624.0,,,D,V*2A',,,,,,,,1,0.531516339869281,0.7096078431372549,0.553281045751634,1.0,10.0,0,0
9273497,23:10:28.500000,2.8516666666666666,2024-06-05,600349.8457291073,5333668.283906207,17,N,23:10:28.500,48.14834315,-79.65086096,54904.87455,1,1110,-30196,30172,-7.467,-7.868,-4.283,0.10405,-0.65999,0.72252,42.438,180.1,I,,,,,,,,,,,,,,,,,,,,,,,,,,,,,,,,,,,,,,,,,,,,,,1,0.5842745098039215,0.7424444444444445,0.5512549019607843,1.0,10.0,0,0
9269997,23:10:25,2.7933333333333334,2024-06-05,600349.4738665816,5333695.88549961,17,N,23:10:25.000,48.14859147,-79.65085945,54977.83,1,-3392,-24966,31887,-7.573,-2.727,-3.596,0.10776,-0.52755,0.72145,42.529,182.2,G,0.51,2.0,12.0,377.5,-38.5,15.426,0.0, ,D,'$GNGGA,231025.0,4808.91523,N,7939.05159,W,2.0,12.0,0.51,377.5,M,-38.5,M,,0131*71','$GNRMC,231025.0,A,4808.91523,N,7939.05159,W,15.426,182.22,50624.0,,,D,V*24',,,,,,,,1,0.7336078431372548,0.8028888888888889,0.5992549019607843,1.0,10.0,0,0
9266497,23:10:21.500000,2.735,2024-06-05,600349.3173233303,5333724.021198232,17,N,23:10:21.500,48.14884456,-79.65085492,55019.734,1,-3241,-25195,31758,7.094,-4.769,12.185,0.12276,-0.58397,0.83634,42.54,177.5,I,,,,,,,,,,,,,,,,,,,,,,,,,,,,,,,,,,,,,,,,,,,,,,1,0.8214509803921568,0.8384444444444444,0.6274901960784314,1.0,10.0,0,0
9262997,23:10:18,2.6766666666666667,2024-06-05,600349.275688685,5333753.028338519,17,N,23:10:18.000,48.14910547,-79.65084864,55044.7331,1,-2643,-30970,29747,24.822,4.286,-14.59,0.11648,-0.75582,0.85367,42.554,176.8,G,0.51,2.0,12.0,383.5,-38.5,15.783,0.0, ,D,'$GNGGA,231018.0,4808.94607,N,7939.0509,W,2.0,12.0,0.51,383.5,M,-38.5,M,,0131*70','$GNRMC,231018.0,A,4808.94607,N,7939.0509,W,15.783,176.75,50624.0,,,D,V*2B',,,,,,,,1,0.8495294117647059,0.8309411764705884,0.6145490196078432,1.0,10.0,0,0
9259497,23:10:14.500000,2.618333333333333,2024-06-05,600348.4224343773,5333778.297836575,17,N,23:10:14.500,48.14933289,-79.65085415,55056.21115,1,871,-29209,30681,-7.729,-9.219,18.972,-0.2148,-0.73072,0.89635,42.507,177.7,I,,,,,,,,,,,,,,,,,,,,,,,,,,,,,,,,,,,,,,,,,,,,,,1,0.8489019607843137,0.8055294117647058,0.5850588235294117,1.0,10.0,0,0
9255997,23:10:11,2.56,2024-06-05,600347.8954016122,5333799.433841447,17,N,23:10:11.000,48.14952308,-79.65085625,55065.1563,1,-4780,-28014,30724,10.783,-2.899,18.798,0.1128,-0.65977,0.83437,42.532,183.8,G,0.51,2.0,12.0,387.9,-38.5,15.096,0.0, ,D,'$GNGGA,231011.0,4808.97112,N,7939.05141,W,2.0,12.0,0.51,387.9,M,-38.5,M,,0131*7C','$GNRMC,231011.0,A,4808.97112,N,7939.05141,W,15.096,183.81,50624.0,,,D,V*2D',,,,,,,,1,0.848483660130719,0.7885882352941176,0.5653986928104575,1.0,10.0,0,0
9612597,23:16:07.600000,8.503333333333334,2024-06-05,600400.050616238,5331726.0461625345,17,N,23:16:07.600,48.13086583,-79.65064414,54811.78895,1,-9055,-31637,28255,-2.976,-1.551,6.983,0.01397,-0.18708,0.97884,39.956,0.5,I,,,,,,,,,,,,,,,,,,,,,,,,,,,,,,,,,,,,,,,,,,,,,,2,0.3307320261437909,0.5684313725490195,0.5877908496732026,1.0,10.0,0,0
9616097,23:16:11.100000,8.561666666666667,2024-06-05,600399.9802062927,5331754.203299902,17,N,23:16:11.100,48.1311191,-79.65063845,54822.4407,1,-7654,-34560,27116,3.336,1.737,-13.231,0.06496,-0.09934,0.98045,39.957,1.7,I,,,,,,,,,,,,,,,,,,,,,,,,,,,,,,,,,,,,,,,,,,,,,,2,0.3708888888888889,0.5966666666666666,0.5808888888888889,1.0,10.0,0,0
9619597,23:16:14.600000,8.620000000000001,2024-06-05,600399.8518333086,5331782.354974667,17,N,23:16:14.600,48.13137233,-79.65063354,54835.34095,1,-6162,-34020,27686,-8.145,4.702,-2.072,0.08604,-0.06883,0.96562,39.895,0.0,I,,,,,,,,,,,,,,,,,,,,,,,,,,,,,,,,,,,,,,,,,,,,,,2,0.4244313725490196,0.634313725490196,0.5716862745098039,1.0,10.0,0,0
9623097,23:16:18.100000,8.678333333333335,2024-06-05,600399.8670372879,5331810.297928604,17,N,23:16:18.100,48.13162366,-79.65062675,54861.0745,1,-8585,-33597,27441,-0.376,3.501,-3.572,0.03658,-0.04308,0.9778,39.879,1.2,I,,,,,,,,,,,,,,,,,,,,,,,,,,,,,,,,,,,,,,,,,,,,,,2,0.5248235294117647,0.7049019607843137,0.5544313725490195,1.0,10.0,0,0
9626597,23:16:21.600000,8.736666666666668,2024-06-05,600399.5687140017,5331838.888006549,17,N,23:16:21.600,48.13188086,-79.65062402,54874.3581,1,-5208,-32748,28562,-1.593,-2.066,-3.442,0.04602,-0.07843,0.9835,39.895,0.9,I,,,,,,,,,,,,,,,,,,,,,,,,,,,,,,,,,,,,,,,,,,,,,,2,0.5710980392156861,0.7371111111111112,0.5470196078431373,1.0,10.0,0,0
9630097,23:16:25.100000,8.795,2024-06-05,600399.7943184377,5331866.970292556,17,N,23:16:25.100,48.13213341,-79.65061437,54896.3319,1,-4539,-31847,29106,-4.156,-1.517,-2.888,0.06496,-0.1678,0.96994,39.925,359.8,I,,,,,,,,,,,,,,,,,,,,,,,,,,,,,,,,,,,,,,,,,,,,,,2,0.6281960784313725,0.7602222222222222,0.5653725490196079,1.0,10.0,0,0
9633597,23:16:28.600000,8.853333333333333,2024-06-05,600399.8298384681,5331894.560056663,17,N,23:16:28.600,48.13238156,-79.65060739,54912.651,1,-3960,-31485,29292,1.685,1.756,-0.377,0.05187,-0.19361,0.95759,39.898,1.0,I,,,,,,,,,,,,,,,,,,,,,,,,,,,,,,,,,,,,,,,,,,,,,,2,0.6721176470588235,0.778,0.5794901960784314,1.0,10.0,0,0
9637097,23:16:32.100000,8.911666666666667,2024-06-05,600399.9062851737,5331922.3195325155,17,N,23:16:32.100,48.13263123,-79.65059982,54922.9522,1,-4949,-32313,28864,-3.506,-1.768,0.324,0.06485,-0.18042,0.95761,39.89,1.6,I,,,,,,,,,,,,,,,,,,,,,,,,,,,,,,,,,,,,,,,,,,,,,,2,0.6984705882352941,0.7886666666666666,0.5879607843137256,1.0,10.0,0,0
9640597,23:16:35.600000,8.97,2024-06-05,600399.8458030843,5331950.035471331,17,N,23:16:35.600,48.13288053,-79.6505941,54922.7063,1,-3849,-33768,28126,-1.975,-2.035,2.29,0.0846,-0.18626,0.96143,39.91,0.2,I,,,,,,,,,,,,,,,,,,,,,,,,,,,,,,,,,,,,,,,,,,,,,,2,0.694078431372549,0.786888888888889,0.5865490196078432,1.0,10.0,0,0
9644097,23:16:39.100000,9.028333333333334,2024-06-05,600399.8923418701,5331977.8444558205,17,N,23:16:39.100,48.13313065,-79.65058692,54928.69945,1,-3897,-34165,28031,0.208,-1.474,1.634,0.05581,-0.18614,0.96152,39.912,1.2,I,,,,,,,,,,,,,,,,,,,,,,,,,,,,,,,,,,,,,,,,,,,,,,2,0.7116470588235293,0.7939999999999999,0.5921960784313726,1.0,10.0,0,0
9647597,23:16:42.600000,9.086666666666668,2024-06-05,600399.7945936361,5332005.902175738,17,N,23:16:42.600,48.13338303,-79.65058162,54938.4362,1,-2736,-33587,28491,1.903,1.067,-4.078,0.03956,-0.13677,0.92818,39.908,1.0,I,,,,,,,,,,,,,,,,,,,,,,,,,,,,,,,,,,,,,,,,,,,,,,2,0.7379999999999999,0.8046666666666666,0.6006666666666667,1.0,10.0,0,0
9651097,23:16:46.100000,9.145000000000001,2024-06-05,600399.9226043131,5332033.944956821,17,N,23:16:46.100,48.13363524,-79.65057329,54957.95435,1,-2972,-35246,27488,-3.122,4.344,3.864,0.02011,-0.16603,0.98359,39.911,2.3,I,,,,,,,,,,,,,,,,,,,,,,,,,,,,,,,,,,,,,,,,,,,,,,2,0.7863137254901962,0.8242222222222222,0.6161960784313725,1.0,10.0,0,0
9654597,23:16:49.600000,9.203333333333335,2024-06-05,600399.67938966,5332061.979003414,17,N,23:16:49.600,48.13388743,-79.65056995,54980.6509,1,-1487,-34509,28013,1.854,-5.725,5.317,0.04622,-0.18464,0.95854,39.882,1.3,I,,,,,,,,,,,,,,,,,,,,,,,,,,,,,,,,,,,,,,,,,,,,,,2,0.8434117647058823,0.8473333333333333,0.6345490196078432,1.0,10.0,0,0
9658097,23:16:53.100000,9.261666666666667,2024-06-05,600399.7267686406,5332089.865833369,17,N,23:16:53.100,48.13413825,-79.65056274,54992.69205,1,1121,-34153,28322,-3.744,-2.338,14.39,0.05259,-0.22011,0.99731,39.876,358.6,I,,,,,,,,,,,,,,,,,,,,,,,,,,,,,,,,,,,,,,,,,,,,,,2,0.8494248366013072,0.8267058823529411,0.6096339869281046,1.0,10.0,0,0
9661597,23:16:56.600000,9.32,2024-06-05,600400.1471540877,5332117.743643165,17,N,23:16:56.600,48.13438893,-79.65055052,54995.91245,1,-459,-35622,27390,9.463,-5.469,13.459,0.04514,-0.21248,0.96665,39.902,2.5,I,,,,,,,,,,,,,,,,,,,,,,,,,,,,,,,,,,,,,,,,,,,,,,2,0.8492156862745098,0.8182352941176471,0.5998039215686274,1.0,10.0,0,0
9665097,23:17:00.100000,9.378333333333334,2024-06-05,600399.8296079392,5332145.601838024,17,N,23:17:00.100,48.13463955,-79.65054822,54982.7669,1,-1465,-35601,27434,-5.558,-3.605,11.934,0.02847,-0.21174,0.95083,39.881,2.0,I,,,,,,,,,,,,,,,,,,,,,,,,,,,,,,,,,,,,,,,,,,,,,,2,0.8478039215686275,0.8491111111111111,0.6359607843137255,1.0,10.0,0,0
9668597,23:17:03.600000,9.436666666666667,2024-06-05,600399.5693152641,5332173.590006546,17,N,23:17:03.600,48.13489133,-79.65054512,54965.16805,1,-793,-33485,28625,-2.232,-4.452,23.75,0.03537,-0.14211,0.95487,39.904,0.3,I,,,,,,,,,,,,,,,,,,,,,,,,,,,,,,,,,,,,,,,,,,,,,,2,0.8038823529411765,0.8313333333333333,0.621843137254902,1.0,10.0,0,0
9672097,23:17:07.100000,9.495000000000001,2024-06-05,600399.5550126951,5332201.724801356,17,N,23:17:07.100,48.13514439,-79.65053868,54961.7322,1,-3999,-36198,26833,55.571,9.098,22.684,0.05032,-0.2375,1.00556,39.936,359.5,I,,,,,,,,,,,,,,,,,,,,,,,,,,,,,,,,,,,,,,,,,,,,,,2,0.7950980392156863,0.8277777777777777,0.6190196078431373,1.0,10.0,0,0
9675597,23:17:10.600000,9.553333333333335,2024-06-05,600399.5663631401,5332229.754427139,17,N,23:17:10.600,48.1353965,-79.65053192,54949.9378,1,-3336,-37611,26037,-5.061,-7.367,29.99,0.06775,-0.20577,1.00207,39.945,0.1,I,,,,,,,,,,,,,,,,,,,,,,,,,,,,,,,,,,,,,,,,,,,,,,2,0.7643529411764706,0.8153333333333334,0.6091372549019608,1.0,10.0,0,0
9679097,23:17:14.100000,9.611666666666668,2024-06-05,600399.8673379688,5332257.649049318,17,N,23:17:14.100,48.13564735,-79.6505213,54960.61795,1,-9003,-36655,25695,24.842,-10.819,22.626,0.20076,-0.32688,0.94108,39.922,359.4,I,,,,,,,,,,,,,,,,,,,,,,,,,,,,,,,,,,,,,,,,,,,,,,2,0.7907058823529411,0.826,0.6176078431372548,1.0,10.0,0,0
9682597,23:17:17.600000,9.67,2024-06-05,600400.1589480023,5332285.313367322,17,N,23:17:17.600,48.13589613,-79.65051086,54949.169,1,-6368,-33843,27838,0.129,-9.527,24.329,0.09296,-0.28982,0.93785,39.933,359.2,I,,,,,,,,,,,,,,,,,,,,,,,,,,,,,,,,,,,,,,,,,,,,,,2,0.7643529411764706,0.8153333333333334,0.6091372549019608,1.0,10.0,0,0
9686097,23:17:21.100000,9.728333333333333,2024-06-05,600400.1329972858,5332313.049940955,17,N,23:17:21.100,48.13614561,-79.65050467,54969.6289,1,-10228,-33612,27101,3.362,-2.701,18.944,0.0546,-0.2419,0.98957,39.949,1.8,I,,,,,,,,,,,,,,,,,,,,,,,,,,,,,,,,,,,,,,,,,,,,,,2,0.8170588235294117,0.8366666666666667,0.626078431372549,1.0,10.0,0,0
9689597,23:17:24.600000,9.786666666666667,2024-06-05,600399.9352892754,5332341.159288818,17,N,23:17:24.600,48.13639847,-79.6505007,55003.94095,1,-11941,-33297,26935,-0.512,0.424,7.567,0.03957,-0.19025,1.00591,39.975,2.6,I,,,,,,,,,,,,,,,,,,,,,,,,,,,,,,,,,,,,,,,,,,,,,,2,0.8486928104575163,0.7970588235294118,0.5752287581699347,1.0,10.0,0,0
9693497,23:17:28.500000,9.851666666666667,2024-06-05,600399.7390970009,5332372.236042235,17,N,23:17:28.500,48.13667802,-79.65049601,55035.576,1,-11701,-32948,27089,0.896,-3.001,22.884,0.04072,-0.16888,1.01053,39.938,0.6,I,,,,,,,,,,,,,,,,,,,,,,,,,,,,,,,,,,,,,,,,,,,,,,2,0.8468104575163399,0.7208235294117646,0.48675816993464055,1.0,10.0,0,0
9697097,23:17:32.100000,9.911666666666667,2024-06-05,600399.7036009254,5332401.194313818,17,N,23:17:32.100,48.13693849,-79.65048966,55062.75965,1,-12323,-32274,27329,-0.255,8.101,10.684,0.07325,-0.18192,1.00226,39.977,1.0,I,,,,,,,,,,,,,,,,,,,,,,,,,,,,,,,,,,,,,,,,,,,,,,2,0.8451372549019608,0.6530588235294118,0.40811764705882353,1.0,10.0,0,0
9700597,23:17:35.600000,9.97,2024-06-05,600399.5519450494,5332429.053208209,17,N,23:17:35.600,48.13718909,-79.65048513,55067.85875,1,-6165,-32397,28797,4.255,0.867,-1.677,-0.03815,-0.1485,0.94508,39.973,359.9,I,,,,,,,,,,,,,,,,,,,,,,,,,,,,,,,,,,,,,,,,,,,,,,2,0.8448235294117648,0.6403529411764706,0.39337254901960783,1.0,10.0,0,0
9704097,23:17:39.100000,10.028333333333334,2024-06-05,600399.5375889516,5332457.017909579,17,N,23:17:39.100,48.13744062,-79.65047873,55090.67055,1,-5985,-34744,27579,15.039,-2.233,-10.125,0.02103,-0.29446,0.97811,40.008,3.3,I,,,,,,,,,,,,,,,,,,,,,,,,,,,,,,,,,,,,,,,,,,,,,,2,0.8434640522875817,0.5852941176470589,0.32947712418300656,1.0,10.0,0,0
9707597,23:17:42.600000,10.086666666666668,2024-06-05,600399.6448733568,5332484.02971535,17,N,23:17:42.600,48.13768356,-79.65047092,55110.07995,1,-4660,-33406,28505,15.183,4.854,-8.685,0.01037,-0.16626,0.98098,40.001,0.1,I,,,,,,,,,,,,,,,,,,,,,,,,,,,,,,,,,,,,,,,,,,,,,,2,0.8239607843137254,0.5040392156862745,0.288156862745098,1.0,10.0,0,0
9711097,23:17:46.100000,10.145000000000001,2024-06-05,600399.1700513522,5332512.959160231,17,N,23:17:46.100,48.13794384,-79.65047048,55115.9135,1,-2853,-33483,28711,4.479,-5.678,-1.303,-0.02106,-0.0886,0.96164,40.003,2.4,I,,,,,,,,,,,,,,,,,,,,,,,,,,,,,,,,,,,,,,,,,,,,,,2,0.8160130718954248,0.4728758169934641,0.27372549019607845,1.0,10.0,0,0
9714597,23:17:49.600000,10.203333333333335,2024-06-05,600399.9080435052,5332540.795867702,17,N,23:17:49.600,48.1381941,-79.650454,55125.3298,1,-5501,-35462,27380,-10.636,-6.225,-6.514,0.03447,-0.20864,0.99145,40.027,1.7,I,,,,,,,,,,,,,,,,,,,,,,,,,,,,,,,,,,,,,,,,,,,,,,2,0.8060784313725491,0.43392156862745096,0.2556862745098039,1.0,10.0,0,0
9718097,23:17:53.100000,10.261666666666667,2024-06-05,600400.0642042519,5332568.880304517,17,N,23:17:53.100,48.13844668,-79.65044528,55131.2027,1,-5139,-32350,28899,-8.265,-1.27,-10.786,0.0608,-0.25012,0.93303,40.027,0.2,I,,,,,,,,,,,,,,,,,,,,,,,,,,,,,,,,,,,,,,,,,,,,,,2,0.7981307189542484,0.40275816993464053,0.24125490196078428,1.0,10.0,0,0
9721597,23:17:56.600000,10.32,2024-06-05,600399.9373963388,5332596.21154032,17,N,23:17:56.600,48.13869253,-79.65044054,55131.3634,1,-4935,-33736,28407,12.142,0.987,-10.915,0.01956,-0.22169,0.98126,40.041,1.2,I,,,,,,,,,,,,,,,,,,,,,,,,,,,,,,,,,,,,,,,,,,,,,,2,0.7981307189542484,0.40275816993464053,0.24125490196078428,1.0,10.0,0,0
9725097,23:18:00.100000,10.378333333333334,2024-06-05,600399.8511776639,5332624.2828327045,17,N,23:18:00.100,48.13894503,-79.65043508,55133.8687,1,-4369,-33830,28313,0.557,3.341,-12.715,0.01831,-0.14307,0.95251,40.061,0.6,I,,,,,,,,,,,,,,,,,,,,,,,,,,,,,,,,,,,,,,,,,,,,,,2,0.7961437908496732,0.3949673202614379,0.23764705882352938,1.0,10.0,0,0
9728597,23:18:03.600000,10.436666666666667,2024-06-05,600399.6984679248,5332652.326276672,17,N,23:18:03.600,48.13919729,-79.65043052,55139.5061,1,-3416,-34664,27953,2.055,0.719,-13.467,0.02397,-0.15097,0.96435,40.085,1.3,I,,,,,,,,,,,,,,,,,,,,,,,,,,,,,,,,,,,,,,,,,,,,,,2,0.7901830065359476,0.37159477124183005,0.2268235294117647,1.0,10.0,0,0
9732097,23:18:07.100000,10.495000000000001,2024-06-05,600399.7044143601,5332680.530380493,17,N,23:18:07.100,48.13945097,-79.65042379,55152.2977,1,-3058,-33933,28481,-1.533,4.307,-9.411,0.02676,-0.1978,0.98266,40.056,1.1,I,,,,,,,,,,,,,,,,,,,,,,,,,,,,,,,,,,,,,,,,,,,,,,2,0.7742875816993464,0.30926797385620913,0.1979607843137255,1.0,10.0,0,0
9735597,23:18:10.600000,10.553333333333335,2024-06-05,600399.8821510328,5332708.61297893,17,N,23:18:10.600,48.13970353,-79.65041478,55166.66165,1,-2468,-31095,29923,-1.472,6.692,-11.146,0.01945,-0.17359,0.98838,40.079,2.4,I,,,,,,,,,,,,,,,,,,,,,,,,,,,,,,,,,,,,,,,,,,,,,,2,0.7583921568627451,0.24694117647058828,0.16909803921568628,1.0,10.0,0,0
9739097,23:18:14.100000,10.611666666666668,2024-06-05,600399.8646112239,5332736.246322758,17,N,23:18:14.100,48.13995208,-79.6504085,55167.64555,1,-64,-34175,28529,11.296,-4.863,-3.955,0.02241,-0.20937,1.04997,40.094,0.1,I,,,,,,,,,,,,,,,,,,,,,,,,,,,,,,,,,,,,,,,,,,,,,,2,0.75640522875817,0.2391503267973856,0.16549019607843138,1.0,10.0,0,0
9742597,23:18:17.600000,10.67,2024-06-05,600399.4252659049,5332764.126867614,17,N,23:18:17.600,48.14020292,-79.65040783,55181.8138,1,-1228,-30750,30116,-4.846,0.078,4.274,0.02457,-0.09901,0.9365,40.064,0.1,I,,,,,,,,,,,,,,,,,,,,,,,,,,,,,,,,,,,,,,,,,,,,,,2,0.7405098039215686,0.17682352941176468,0.13662745098039214,1.0,10.0,0,0
9746097,23:18:21.100000,10.728333333333333,2024-06-05,600399.4780914339,5332792.329575638,17,N,23:18:21.100,48.14045658,-79.65040047,55189.90165,1,-3636,-30751,29905,-2.121,4.361,1.996,0.05411,-0.11211,0.98785,40.104,0.6,I,,,,,,,,,,,,,,,,,,,,,,,,,,,,,,,,,,,,,,,,,,,,,,2,0.7305751633986928,0.1378692810457517,0.11858823529411765,1.0,10.0,0,0
9749597,23:18:24.600000,10.786666666666667,2024-06-05,600399.5476204867,5332819.834371062,17,N,23:18:24.600,48.14070396,-79.65039305,55185.77585,1,-4758,-32861,28802,9.52,-3.473,28.41,0.0659,-0.12303,0.94748,40.135,359.2,I,,,,,,,,,,,,,,,,,,,,,,,,,,,,,,,,,,,,,,,,,,,,,,2,0.7365359477124183,0.16124183006535947,0.12941176470588234,1.0,10.0,0,0
9753097,23:18:28.100000,10.845,2024-06-05,600399.8471743795,5332848.097000809,17,N,23:18:28.100,48.14095812,-79.65038236,55185.94145,1,-8868,-31430,28827,-2.621,-5.5,26.49,0.03273,-0.19496,0.9582,40.1,359.8,I,,,,,,,,,,,,,,,,,,,,,,,,,,,,,,,,,,,,,,,,,,,,,,2,0.7365359477124183,0.16124183006535947,0.12941176470588234,1.0,10.0,0,0
9756597,23:18:31.600000,10.903333333333334,2024-06-05,600399.6967902242,5332875.623511313,17,N,23:18:31.600,48.14120573,-79.65037789,55167.8242,1,-8233,-30622,29327,3.197,-2.489,19.56,-0.03067,-0.2342,0.96031,40.145,1.5,I,,,,,,,,,,,,,,,,,,,,,,,,,,,,,,,,,,,,,,,,,,,,,,2,0.75640522875817,0.2391503267973856,0.16549019607843138,1.0,10.0,0,0
9760097,23:18:35.100000,10.961666666666668,2024-06-05,600399.2712447882,5332903.522093172,17,N,23:18:35.100,48.14145673,-79.65037703,55148.96465,1,-7764,-29071,30089,4.749,5.894,13.226,-0.00196,-0.1546,0.98707,40.113,1.6,I,,,,,,,,,,,,,,,,,,,,,,,,,,,,,,,,,,,,,,,,,,,,,,2,0.7782614379084967,0.32484967320261443,0.2051764705882353,1.0,10.0,0,0
9763597,23:18:38.600000,11.020000000000001,2024-06-05,600399.433908281,5332931.909069498,17,N,23:18:38.600,48.14171203,-79.65036815,55125.16825,1,-6930,-31345,29134,2.655,2.996,27.262,0.03304,-0.06895,0.97584,40.15,0.1,I,,,,,,,,,,,,,,,,,,,,,,,,,,,,,,,,,,,,,,,,,,,,,,2,0.8060784313725491,0.43392156862745096,0.2556862745098039,1.0,10.0,0,0
9767097,23:18:42.100000,11.078333333333335,2024-06-05,600399.7100239894,5332959.682103651,17,N,23:18:42.100,48.14196179,-79.65035789,55091.9952,1,-3310,-32677,28932,1.399,-9.147,30.616,0.07033,-0.0908,1.03303,40.16,358.3,I,,,,,,,,,,,,,,,,,,,,,,,,,,,,,,,,,,,,,,,,,,,,,,2,0.843359477124183,0.5810588235294117,0.324562091503268,1.0,10.0,0,0
9770597,23:18:45.600000,11.136666666666667,2024-06-05,600399.9007508857,5332987.910588539,17,N,23:18:45.600,48.14221566,-79.65034867,55071.39335,1,-3917,-29624,30233,-2.176,-6.658,33.703,0.0466,-0.13021,0.99489,40.133,0.5,I,,,,,,,,,,,,,,,,,,,,,,,,,,,,,,,,,,,,,,,,,,,,,,2,0.8446143790849674,0.6318823529411765,0.3835424836601307,1.0,10.0,0,0
9774097,23:18:49.100000,11.195,2024-06-05,600399.969680296,5333015.404264615,17,N,23:18:49.100,48.14246294,-79.65034126,55052.1242,1,-6365,-29327,30152,-6.937,-0.894,26.501,0.02907,-0.1263,0.93409,40.21,0.8,I,,,,,,,,,,,,,,,,,,,,,,,,,,,,,,,,,,,,,,,,,,,,,,2,0.845764705882353,0.6784705882352942,0.4376078431372549,1.0,10.0,0,0
9777597,23:18:52.600000,11.253333333333334,2024-06-05,600400.0107417884,5333043.12870632,17,N,23:18:52.600,48.1427123,-79.65033417,55024.93115,1,-7376,-31283,29043,2.003,0.161,6.208,0.02283,-0.18109,0.96039,40.177,1.5,I,,,,,,,,,,,,,,,,,,,,,,,,,,,,,,,,,,,,,,,,,,,,,,2,0.847437908496732,0.746235294117647,0.5162483660130719,1.0,10.0,0,0
9781097,23:18:56.100000,11.311666666666667,2024-06-05,600399.906067228,5333071.016249386,17,N,23:18:56.100,48.14296315,-79.650329,54992.31625,1,-6599,-32606,28473,-0.811,-4.498,-1.563,0.06843,-0.15164,0.91418,40.23,1.0,I,,,,,,,,,,,,,,,,,,,,,,,,,,,,,,,,,,,,,,,,,,,,,,2,0.8494248366013072,0.8267058823529411,0.6096339869281046,1.0,10.0,0,0
9784597,23:18:59.600000,11.370000000000001,2024-06-05,600399.930334725,5333098.976099535,17,N,23:18:59.600,48.14321463,-79.65032208,54961.562,1,-4884,-31189,29404,1.543,-5.287,-0.646,0.02717,-0.0852,0.89891,40.219,0.6,I,,,,,,,,,,,,,,,,,,,,,,,,,,,,,,,,,,,,,,,,,,,,,,2,0.7950980392156863,0.8277777777777777,0.6190196078431373,1.0,10.0,0,0
9788097,23:19:03.100000,11.428333333333335,2024-06-05,600399.8684713602,5333127.052289823,17,N,23:19:03.100,48.14346717,-79.65031629,54937.4093,1,-5439,-33181,28251,13.658,-1.083,-13.402,0.05749,-0.12192,0.949,40.203,359.8,I,,,,,,,,,,,,,,,,,,,,,,,,,,,,,,,,,,,,,,,,,,,,,,2,0.7336078431372548,0.8028888888888889,0.5992549019607843,1.0,10.0,0,0
9791597,23:19:06.600000,11.486666666666668,2024-06-05,600400.0279871115,5333155.275787909,17,N,23:19:06.600,48.143721,-79.65030749,54914.6347,1,-3385,-32398,28890,15.004,12.869,-8.425,0.04379,-0.16524,0.97191,40.227,1.0,I,,,,,,,,,,,,,,,,,,,,,,,,,,,,,,,,,,,,,,,,,,,,,,2,0.6765098039215686,0.7797777777777778,0.5809019607843138,1.0,10.0,0,0
9795097,23:19:10.100000,11.545,2024-06-05,600399.7648013398,5333183.375130948,17,N,23:19:10.100,48.14397378,-79.6503044,54910.8078,1,-4948,-31005,29408,1.781,-0.911,-5.613,-0.0299,-0.17956,0.96701,40.25,2.4,I,,,,,,,,,,,,,,,,,,,,,,,,,,,,,,,,,,,,,,,,,,,,,,2,0.6677254901960784,0.7762222222222223,0.578078431372549,1.0,10.0,0,0
9798597,23:19:13.600000,11.603333333333333,2024-06-05,600399.4163086727,5333211.2472837325,17,N,23:19:13.600,48.14422453,-79.65030251,54902.5817,1,-3260,-29404,30242,7.924,0.475,-15.822,-0.04005,-0.14665,0.91614,40.255,2.7,I,,,,,,,,,,,,,,,,,,,,,,,,,,,,,,,,,,,,,,,,,,,,,,2,0.6457647058823529,0.7673333333333333,0.5710196078431373,1.0,10.0,0,0
9802097,23:19:17.100000,11.661666666666667,2024-06-05,600399.9104332537,5333239.100871006,17,N,23:19:17.100,48.14447498,-79.6502893,54895.0799,1,-3083,-29991,29990,0.503,0.488,-14.121,-0.0313,-0.12005,0.98233,40.274,1.8,I,,,,,,,,,,,,,,,,,,,,,,,,,,,,,,,,,,,,,,,,,,,,,,2,0.6238039215686274,0.7584444444444445,0.5639607843137255,1.0,10.0,0,0
9805597,23:19:20.600000,11.72,2024-06-05,600399.39721408,5333267.07353245,17,N,23:19:20.600,48.14472666,-79.6502896,54889.6762,1,-3017,-30864,29620,-1.475,2.272,-7.53,-0.04693,-0.12384,0.95368,40.264,359.6,I,,,,,,,,,,,,,,,,,,,,,,,,,,,,,,,,,,,,,,,,,,,,,,2,0.6106274509803922,0.7531111111111112,0.5597254901960785,1.0,10.0,0,0
9809097,23:19:24.100000,11.778333333333334,2024-06-05,600399.5079191051,5333295.066038897,17,N,23:19:24.100,48.14497842,-79.65028151,54895.06355,1,-6081,-31094,29190,0.102,-3.603,1.177,0.01893,-0.14439,0.96983,40.275,1.6,I,,,,,,,,,,,,,,,,,,,,,,,,,,,,,,,,,,,,,,,,,,,,,,2,0.6238039215686274,0.7584444444444445,0.5639607843137255,1.0,10.0,0,0
9812597,23:19:27.600000,11.836666666666668,2024-06-05,600399.5118612781,5333322.824307772,17,N,23:19:27.600,48.14522809,-79.65027491,54883.64805,1,-5297,-31410,29169,-2.903,-2.882,5.849,-0.03812,-0.20119,0.95813,40.318,0.9,I,,,,,,,,,,,,,,,,,,,,,,,,,,,,,,,,,,,,,,,,,,,,,,2,0.5974509803921568,0.7477777777777778,0.5554901960784314,1.0,10.0,0,0
9816097,23:19:31.100000,11.895000000000001,2024-06-05,600399.4411039897,5333350.641303947,17,N,23:19:31.100,48.1454783,-79.6502693,54871.51035,1,-4720,-30328,29749,-1.8,1.746,2.587,-0.04086,-0.18663,0.95719,40.355,1.7,I,,,,,,,,,,,,,,,,,,,,,,,,,,,,,,,,,,,,,,,,,,,,,,2,0.5649803921568627,0.7331372549019607,0.5475294117647059,1.0,10.0,0,0
9819597,23:19:34.600000,11.953333333333335,2024-06-05,600399.6420218241,5333378.579807796,17,N,23:19:34.600,48.14572956,-79.65026001,54873.6443,1,-5599,-30719,29436,1.281,3.073,-1.511,-0.04255,-0.15358,0.96125,40.346,1.5,I,,,,,,,,,,,,,,,,,,,,,,,,,,,,,,,,,,,,,,,,,,,,,,2,0.5710980392156861,0.7371111111111112,0.5470196078431373,1.0,10.0,0,0
9823097,23:19:38.100000,12.011666666666667,2024-06-05,600399.4327422535,5333406.700119319,17,N,23:19:38.100,48.14598252,-79.65025619,54879.21455,1,-5205,-31129,29275,1.001,-1.787,11.875,-0.02442,-0.15365,0.97353,40.304,359.7,I,,,,,,,,,,,,,,,,,,,,,,,,,,,,,,,,,,,,,,,,,,,,,,2,0.5842745098039215,0.7424444444444445,0.5512549019607843,1.0,10.0,0,0
9826597,23:19:41.600000,12.07,2024-06-05,600399.5584340208,5333434.854105795,17,N,23:19:41.600,48.14623573,-79.65024786,54879.118,1,-3264,-30183,29902,3.25,-12.907,2.957,-0.00952,-0.14187,0.97761,40.374,1.0,I,,,,,,,,,,,,,,,,,,,,,,,,,,,,,,,,,,,,,,,,,,,,,,2,0.5842745098039215,0.7424444444444445,0.5512549019607843,1.0,10.0,0,0
9830097,23:19:45.100000,12.128333333333334,2024-06-05,600399.8498685159,5333462.636327275,17,N,23:19:45.100,48.14648557,-79.65023739,54877.24125,1,-3513,-29777,29973,-3.171,-17.168,23.15,0.07062,-0.12348,0.9889,40.384,1.8,I,,,,,,,,,,,,,,,,,,,,,,,,,,,,,,,,,,,,,,,,,,,,,,2,0.5798823529411764,0.7406666666666666,0.549843137254902,1.0,10.0,0,0
9833597,23:19:48.600000,12.186666666666667,2024-06-05,600399.9294197592,5333490.026814714,17,N,23:19:48.600,48.14673192,-79.65022986,54887.92155,1,-7955,-28652,30003,-5.542,0.565,11.035,0.00309,-0.09956,0.92676,40.379,357.5,I,,,,,,,,,,,,,,,,,,,,,,,,,,,,,,,,,,,,,,,,,,,,,,2,0.6062352941176471,0.7513333333333333,0.5583137254901961,1.0,10.0,0,0
9837097,23:19:52.100000,12.245000000000001,2024-06-05,600399.7755124541,5333518.509436878,17,N,23:19:52.100,48.14698813,-79.65022521,54898.39625,1,-10171,-29565,29080,0.134,4.328,-6.437,0.00191,-0.06118,0.99222,40.426,0.6,I,,,,,,,,,,,,,,,,,,,,,,,,,,,,,,,,,,,,,,,,,,,,,,2,0.6325882352941177,0.762,0.5667843137254902,1.0,10.0,0,0
9840597,23:19:55.600000,12.303333333333335,2024-06-05,600400.1036488842,5333546.40348617,17,N,23:19:55.600,48.14723897,-79.65021422,54874.35425,1,-1005,-30410,29978,0.65,-2.111,-0.073,0.03585,-0.0734,1.00304,40.426,2.4,I,,,,,,,,,,,,,,,,,,,,,,,,,,,,,,,,,,,,,,,,,,,,,,2,0.5710980392156861,0.7371111111111112,0.5470196078431373,1.0,10.0,0,0
