Counter,UTC_time_stamps,elapsed_time_minutes,Date,UTME,UTMN,UTM_zone,UTM_letter,Time,Latitude,Longitude,Mag_TMI_nT,Mag_Lock,CompassX,CompassY,CompassZ,GyroscopeX,GyroscopeY,GyroscopeZ,AccelerometerX,AccelerometerY,AccelerometerZ,ImuTemperature,Track,LocationSource,Hdop,FixQuality,SatellitesUsed,Altitude,HeightOverEllipsoid,SpeedOverGround,MagneticVariation,VariationDirection,ModeIndicator,GgaSentence,RmcSentence,EventCode,EventInfo,EventDataLength,EventData,uk1,uk2,uk3,uk4,uk5,uk6,uk7,uk8,uk9,uk10,uk11,uk12,uk13,uk14,uk15,uk16,uk17,uk18,uk19,uk20,uk21,uk22,uk23,uk24,uk25,uk26,uk27,uk28,uk29,uk30,Flightline,r,g,b,a,size,range_noise,noise_bad
5062419,14:28:32.800000,4.79,2024-06-05,599201.7094944789,5333699.338837485,17,N,14:28:32.800,48.1488026,-79.66628531,54744.7998,1,82,-23105,45699,1.945,-1.933,-11.938,-0.22272,-0.08525,1.01323,39.379,1.7,I,,,,,,,,,,,,,,,,,,,,,,,,,,,,,,,,,,,,,,,,,,,,,,1,0.14333333333333334,0.4366666666666666,0.62,1.0,10.0,0,0
5065919,14:28:36.300000,4.848333333333333,2024-06-05,599201.9358340291,5333727.215313442,17,N,14:28:36.300,48.1490533,-79.66627577,54770.69075,1,-1886,-21742,46411,-0.45,0.296,-21.367,-0.17106,-0.05431,0.96463,39.364,2.4,I,,,,,,,,,,,,,,,,,,,,,,,,,,,,,,,,,,,,,,,,,,,,,,1,0.48466666666666675,0.6766666666666667,0.5613333333333334,1.0,10.0,0,0
5069419,14:28:39.800000,4.906666666666666,2024-06-05,599201.9501401457,5333755.348272209,17,N,14:28:39.800,48.14930634,-79.66626902,54772.79805,1,-3830,-20976,46722,2.575,0.975,-15.0,-0.10773,-0.10323,0.98012,39.324,2.7,I,,,,,,,,,,,,,,,,,,,,,,,,,,,,,,,,,,,,,,,,,,,,,,1,0.511437908496732,0.6954901960784313,0.5567320261437909,1.0,10.0,0,0
5072919,14:28:43.300000,4.965,2024-06-05,599202.0154673628,5333783.413186217,17,N,14:28:43.300,48.14955876,-79.6662616,54757.12275,1,-3500,-20722,46827,-2.825,1.941,-4.219,-0.10214,-0.12131,0.98066,39.324,0.8,I,,,,,,,,,,,,,,,,,,,,,,,,,,,,,,,,,,,,,,,,,,,,,,1,0.30396078431372553,0.5496078431372549,0.592392156862745,1.0,10.0,0,0
5076419,14:28:46.800000,5.0233333333333325,2024-06-05,599201.7625463472,5333811.381415497,17,N,14:28:46.800,48.14981036,-79.66625848,54749.38815,1,-1830,-20698,46779,0.215,-0.82,3.556,-0.11915,-0.13939,0.98097,39.361,1.2,I,,,,,,,,,,,,,,,,,,,,,,,,,,,,,,,,,,,,,,,,,,,,,,1,0.2035686274509804,0.4790196078431372,0.6096470588235293,1.0,10.0,0,0
5079919,14:28:50.300000,5.081666666666666,2024-06-05,599201.9054835335,5333839.217537736,17,N,14:28:50.300,48.15006071,-79.66625007,54755.25395,1,-2291,-21542,46443,5.871,-0.334,3.425,-0.10739,-0.14772,0.98051,39.352,1.2,I,,,,,,,,,,,,,,,,,,,,,,,,,,,,,,,,,,,,,,,,,,,,,,1,0.2771895424836601,0.5307843137254902,0.5969934640522876,1.0,10.0,0,0
5083419,14:28:53.800000,5.14,2024-06-05,599202.009300178,5333867.249769541,17,N,14:28:53.800,48.15031283,-79.66624214,54767.3498,1,-2194,-20785,46859,0.583,4.489,-1.137,-0.12128,-0.13974,0.98544,39.357,360.0,I,,,,,,,,,,,,,,,,,,,,,,,,,,,,,,,,,,,,,,,,,,,,,,1,0.4378169934640523,0.6437254901960784,0.5693856209150326,1.0,10.0,0,0
5086919,14:28:57.300000,5.198333333333333,2024-06-05,599201.7743946494,5333895.164949174,17,N,14:28:57.300,48.15056395,-79.66623879,54786.8969,1,-2056,-21032,46835,-0.554,-0.73,0.795,-0.13264,-0.15305,1.01338,39.348,1.3,I,,,,,,,,,,,,,,,,,,,,,,,,,,,,,,,,,,,,,,,,,,,,,,1,0.6545490196078431,0.7708888888888888,0.573843137254902,1.0,10.0,0,0
5090419,14:29:00.800000,5.256666666666666,2024-06-05,599201.5939074708,5333922.902075753,17,N,14:29:00.800,48.15081346,-79.66623475,54820.67515,1,-1892,-21952,46415,-2.204,3.472,-2.053,-0.14462,-0.1716,1.00168,39.402,0.7,I,,,,,,,,,,,,,,,,,,,,,,,,,,,,,,,,,,,,,,,,,,,,,,1,0.8475424836601306,0.7504705882352941,0.5211633986928104,1.0,10.0,0,0
5093919,14:29:04.300000,5.3149999999999995,2024-06-05,599201.7785226437,5333950.435407549,17,N,14:29:04.300,48.15106108,-79.66622585,54861.1001,1,-2006,-20660,46993,-0.544,-2.193,5.911,-0.13137,-0.13077,0.97357,39.34,1.9,I,,,,,,,,,,,,,,,,,,,,,,,,,,,,,,,,,,,,,,,,,,,,,,1,0.7643529411764706,0.27031372549019606,0.17992156862745098,1.0,10.0,0,0
5097419,14:29:07.800000,5.373333333333333,2024-06-05,599201.8220324437,5333978.039671473,17,N,14:29:07.800,48.15130936,-79.66621883,54871.4802,1,-1071,-21413,46696,1.898,3.02,0.989,-0.14692,-0.13058,0.99673,39.365,0.8,I,,,,,,,,,,,,,,,,,,,,,,,,,,,,,,,,,,,,,,,,,,,,,,1,0.7226274509803922,0.10670588235294115,0.10415686274509806,1.0,10.0,0,0
5100919,14:29:11.300000,5.431666666666667,2024-06-05,599201.8075200029,5334005.55732255,17,N,14:29:11.300,48.15155687,-79.66621261,54845.929,1,-2597,-20985,46864,1.46,-2.764,-1.62,-0.11348,-0.08438,0.9488,39.343,1.8,I,,,,,,,,,,,,,,,,,,,,,,,,,,,,,,,,,,,,,,,,,,,,,,1,0.8239607843137254,0.5040392156862745,0.288156862745098,1.0,10.0,0,0
5104419,14:29:14.800000,5.489999999999999,2024-06-05,599202.0168528226,5334033.465760067,17,N,14:29:14.800,48.15180786,-79.66620329,54816.0079,1,-2337,-21086,46761,3.725,-0.265,0.51,-0.12499,-0.11209,0.99319,39.325,0.7,I,,,,,,,,,,,,,,,,,,,,,,,,,,,,,,,,,,,,,,,,,,,,,,1,0.8485882352941176,0.7928235294117646,0.5703137254901961,1.0,10.0,0,0
5107919,14:29:18.300000,5.548333333333333,2024-06-05,599202.0947840165,5334061.572042025,17,N,14:29:18.300,48.15206065,-79.66619569,54794.92555,1,-2258,-19737,47299,-5.272,-2.4,1.462,-0.13229,-0.09608,0.98284,39.371,1.2,I,,,,,,,,,,,,,,,,,,,,,,,,,,,,,,,,,,,,,,,,,,,,,,1,0.7248235294117646,0.7993333333333333,0.5964313725490196,1.0,10.0,0,0
5111419,14:29:21.800000,5.6066666666666665,2024-06-05,599202.051549865,5334089.500561001,17,N,14:29:21.800,48.15231186,-79.66618976,54783.9853,1,-2722,-20232,47156,-1.167,-1.332,2.619,-0.10556,-0.10757,0.97356,39.344,1.0,I,,,,,,,,,,,,,,,,,,,,,,,,,,,,,,,,,,,,,,,,,,,,,,1,0.6325882352941177,0.762,0.5667843137254902,1.0,10.0,0,0
5114919,14:29:25.300000,5.665,2024-06-05,599202.072589981,5334117.454655451,17,N,14:29:25.300,48.15256329,-79.66618296,54779.1133,1,-3385,-19778,47181,1.613,-0.116,1.322,-0.10147,-0.09835,0.98493,39.334,0.7,I,,,,,,,,,,,,,,,,,,,,,,,,,,,,,,,,,,,,,,,,,,,,,,1,0.5886666666666667,0.7442222222222222,0.5526666666666668,1.0,10.0,0,0
5118419,14:29:28.800000,5.723333333333333,2024-06-05,599201.9018267564,5334145.357617469,17,N,14:29:28.800,48.15281429,-79.66617875,54778.9533,1,-2402,-19671,47363,-0.318,-0.389,2.243,-0.12529,-0.1063,0.96958,39.345,0.7,I,,,,,,,,,,,,,,,,,,,,,,,,,,,,,,,,,,,,,,,,,,,,,,1,0.5886666666666667,0.7442222222222222,0.5526666666666668,1.0,10.0,0,0
5121919,14:29:32.300000,5.781666666666666,2024-06-05,599201.8605568268,5334173.0860521905,17,N,14:29:32.300,48.1530637,-79.66617284,54780.9987,1,-2308,-19762,47339,-0.568,1.063,1.431,-0.13318,-0.11255,0.9805,39.32,1.0,I,,,,,,,,,,,,,,,,,,,,,,,,,,,,,,,,,,,,,,,,,,,,,,1,0.6062352941176471,0.7513333333333333,0.5583137254901961,1.0,10.0,0,0
5125419,14:29:35.800000,5.84,2024-06-05,599201.884411544,5334200.876766218,17,N,14:29:35.800,48.15331366,-79.66616604,54782.2642,1,-1733,-19789,47401,0.586,0.53,-1.168,-0.14025,-0.10111,0.98199,39.383,1.2,I,,,,,,,,,,,,,,,,,,,,,,,,,,,,,,,,,,,,,,,,,,,,,,1,0.6150196078431371,0.7548888888888888,0.5611372549019608,1.0,10.0,0,0
5128919,14:29:39.300000,5.8983333333333325,2024-06-05,599201.9383114188,5334228.779181676,17,N,14:29:39.300,48.15356462,-79.66615881,54781.9434,1,-1450,-19681,47419,-0.292,0.28,-0.304,-0.1417,-0.09213,0.96749,39.385,1.5,I,,,,,,,,,,,,,,,,,,,,,,,,,,,,,,,,,,,,,,,,,,,,,,1,0.6150196078431371,0.7548888888888888,0.5611372549019608,1.0,10.0,0,0
5132419,14:29:42.800000,5.956666666666666,2024-06-05,599201.9914685676,5334256.638225754,17,N,14:29:42.800,48.15381519,-79.6661516,54782.13885,1,-1144,-20877,46856,2.771,1.035,-1.648,-0.13708,-0.10859,1.0055,39.367,1.1,I,,,,,,,,,,,,,,,,,,,,,,,,,,,,,,,,,,,,,,,,,,,,,,1,0.6150196078431371,0.7548888888888888,0.5611372549019608,1.0,10.0,0,0
5135919,14:29:46.300000,6.015,2024-06-05,599202.0672219984,5334284.566594073,17,N,14:29:46.300,48.15406638,-79.66614407,54783.7409,1,-1465,-20349,47133,0.645,0.844,-1.103,-0.1319,-0.09501,0.98137,39.363,1.4,I,,,,,,,,,,,,,,,,,,,,,,,,,,,,,,,,,,,,,,,,,,,,,,1,0.6281960784313725,0.7602222222222222,0.5653725490196079,1.0,10.0,0,0
5139419,14:29:49.800000,6.073333333333333,2024-06-05,599201.9908886969,5334312.599057522,17,N,14:29:49.800,48.15431853,-79.66613856,54787.73135,1,-775,-19862,47291,-0.472,0.62,-1.04,-0.13472,-0.11303,0.96381,39.385,1.0,I,,,,,,,,,,,,,,,,,,,,,,,,,,,,,,,,,,,,,,,,,,,,,,1,0.6633333333333333,0.7744444444444444,0.5766666666666667,1.0,10.0,0,0
5142919,14:29:53.300000,6.131666666666666,2024-06-05,599202.1410204635,5334340.613214675,17,N,14:29:53.300,48.15457048,-79.66613001,54794.40965,1,-1620,-19472,47495,-4.769,1.136,-1.595,-0.11185,-0.10131,0.976,39.363,1.6,I,,,,,,,,,,,,,,,,,,,,,,,,,,,,,,,,,,,,,,,,,,,,,,1,0.7204313725490195,0.7975555555555555,0.5950196078431372,1.0,10.0,0,0
5146419,14:29:56.800000,6.1899999999999995,2024-06-05,599202.0371847791,5334368.600732068,17,N,14:29:56.800,48.15482223,-79.66612488,54803.3897,1,-962,-19726,47413,0.975,0.838,-0.819,-0.11192,-0.108,0.97031,39.367,0.6,I,,,,,,,,,,,,,,,,,,,,,,,,,,,,,,,,,,,,,,,,,,,,,,1,0.7994901960784313,0.8295555555555556,0.6204313725490196,1.0,10.0,0,0
5149919,14:30:00.300000,6.248333333333333,2024-06-05,599201.9565850171,5334396.40632018,17,N,14:30:00.300,48.15507234,-79.66611948,54814.4572,1,-1644,-20228,47216,-1.412,0.164,-0.809,-0.11358,-0.10312,0.97921,39.414,0.0,I,,,,,,,,,,,,,,,,,,,,,,,,,,,,,,,,,,,,,,,,,,,,,,1,0.8489019607843137,0.8055294117647058,0.5850588235294117,1.0,10.0,0,0
5153419,14:30:03.800000,6.306666666666667,2024-06-05,599202.1351256646,5334424.3253601305,17,N,14:30:03.800,48.15532343,-79.66611057,54823.38785,1,-2480,-20161,47222,0.177,0.151,-1.598,-0.12873,-0.09172,0.98022,39.411,0.5,I,,,,,,,,,,,,,,,,,,,,,,,,,,,,,,,,,,,,,,,,,,,,,,1,0.8470196078431372,0.7292941176470589,0.4965882352941176,1.0,10.0,0,0
5156919,14:30:07.300000,6.364999999999999,2024-06-05,599202.1682864092,5334452.390859527,17,N,14:30:07.300,48.15557586,-79.66610358,54818.6599,1,-2610,-19866,47421,-0.02,-1.477,-0.833,-0.12963,-0.09404,0.98221,39.386,1.2,I,,,,,,,,,,,,,,,,,,,,,,,,,,,,,,,,,,,,,,,,,,,,,,1,0.8479607843137256,0.7674117647058823,0.5408235294117647,1.0,10.0,0,0
5160419,14:30:10.800000,6.423333333333333,2024-06-05,599202.1589426833,5334480.418933854,17,N,14:30:10.800,48.15582796,-79.66609717,54800.85135,1,-2598,-19492,47416,1.263,-2.5,-2.456,-0.1046,-0.0932,0.993,39.371,1.1,I,,,,,,,,,,,,,,,,,,,,,,,,,,,,,,,,,,,,,,,,,,,,,,1,0.7775294117647059,0.8206666666666667,0.6133725490196079,1.0,10.0,0,0
5163919,14:30:14.300000,6.4816666666666665,2024-06-05,599202.1252546143,5334508.177533891,17,N,14:30:14.300,48.15607764,-79.66609115,54785.47315,1,-2537,-20260,47068,-1.317,0.049,-6.223,-0.11736,-0.10057,0.97337,39.383,359.9,I,,,,,,,,,,,,,,,,,,,,,,,,,,,,,,,,,,,,,,,,,,,,,,1,0.6457647058823529,0.7673333333333333,0.5710196078431373,1.0,10.0,0,0
5167419,14:30:17.800000,6.54,2024-06-05,599201.9624718683,5334536.301898485,17,N,14:30:17.800,48.15633063,-79.66608678,54776.24215,1,-1593,-20321,47036,4.477,-1.821,-0.362,-0.12781,-0.13778,0.999,39.42,1.5,I,,,,,,,,,,,,,,,,,,,,,,,,,,,,,,,,,,,,,,,,,,,,,,1,0.5582875816993463,0.7284313725490197,0.5486797385620915,1.0,10.0,0,0
5170919,14:30:21.300000,6.598333333333333,2024-06-05,599202.0748182085,5334564.260933061,17,N,14:30:21.300,48.15658209,-79.66607875,54771.71945,1,-2169,-19435,47484,-1.129,-1.717,1.349,-0.12173,-0.10316,0.98054,39.364,0.8,I,,,,,,,,,,,,,,,,,,,,,,,,,,,,,,,,,,,,,,,,,,,,,,1,0.4980522875816993,0.686078431372549,0.5590326797385622,1.0,10.0,0,0
5174419,14:30:24.800000,6.656666666666666,2024-06-05,599201.9645379838,5334592.188312263,17,N,14:30:24.800,48.1568333,-79.66607372,54766.04815,1,-1849,-19594,47374,-0.013,0.294,2.579,-0.12519,-0.11422,0.98037,39.402,0.9,I,,,,,,,,,,,,,,,,,,,,,,,,,,,,,,,,,,,,,,,,,,,,,,1,0.4244313725490196,0.634313725490196,0.5716862745098039,1.0,10.0,0,0
5177919,14:30:28.300000,6.715,2024-06-05,599202.0350400856,5334620.114381663,17,N,14:30:28.300,48.15708447,-79.66606626,54756.36445,1,-2035,-18527,47853,-7.186,-1.247,1.534,-0.12422,-0.07665,1.00838,39.395,0.9,I,,,,,,,,,,,,,,,,,,,,,,,,,,,,,,,,,,,,,,,,,,,,,,1,0.2972679738562092,0.5449019607843137,0.5935424836601306,1.0,10.0,0,0
5181419,14:30:31.800000,6.7733333333333325,2024-06-05,599202.040197282,5334647.99040002,17,N,14:30:31.800,48.1573352,-79.66605969,54747.7932,1,-1869,-19427,47491,1.161,-0.947,2.001,-0.12964,-0.08344,1.0037,39.369,1.3,I,,,,,,,,,,,,,,,,,,,,,,,,,,,,,,,,,,,,,,,,,,,,,,1,0.17679738562091504,0.4601960784313725,0.6142483660130719,1.0,10.0,0,0
5184919,14:30:35.300000,6.831666666666666,2024-06-05,599202.036437843,5334675.693937416,17,N,14:30:35.300,48.15758438,-79.66605328,54746.96205,1,-1525,-19705,47342,1.213,0.918,3.36,-0.14662,-0.07192,0.97855,39.408,1.1,I,,,,,,,,,,,,,,,,,,,,,,,,,,,,,,,,,,,,,,,,,,,,,,1,0.1701045751633987,0.45549019607843133,0.6153986928104574,1.0,10.0,0,0
5188419,14:30:38.800000,6.89,2024-06-05,599202.0441348465,5334703.680069713,17,N,14:30:38.800,48.1578361,-79.66604665,54753.0195,1,-1489,-19209,47555,3.108,-1.02,2.255,-0.13885,-0.09481,0.9657,39.413,1.8,I,,,,,,,,,,,,,,,,,,,,,,,,,,,,,,,,,,,,,,,,,,,,,,1,0.25041830065359477,0.5119607843137255,0.60159477124183,1.0,10.0,0,0
5191919,14:30:42.300000,6.948333333333333,2024-06-05,599202.1227861677,5334731.520677832,17,N,14:30:42.300,48.1580865,-79.6660391,54768.78525,1,-1833,-19317,47561,-1.69,-0.117,-3.008,-0.10924,-0.10101,0.96627,39.41,1.5,I,,,,,,,,,,,,,,,,,,,,,,,,,,,,,,,,,,,,,,,,,,,,,,1,0.4578954248366013,0.657843137254902,0.5659346405228758,1.0,10.0,0,0
5195419,14:30:45.800000,7.006666666666666,2024-06-05,599202.0951380061,5334759.399467644,17,N,14:30:45.800,48.15833726,-79.66603297,54787.3353,1,-775,-19152,47578,1.977,0.398,-2.801,-0.11001,-0.08637,0.9636,39.441,0.8,I,,,,,,,,,,,,,,,,,,,,,,,,,,,,,,,,,,,,,,,,,,,,,,1,0.6589411764705883,0.7726666666666667,0.5752549019607843,1.0,10.0,0,0
5198919,14:30:49.300000,7.0649999999999995,2024-06-05,599202.1606974063,5334787.522246177,17,N,14:30:49.300,48.1585902,-79.66602553,54788.84785,1,-1496,-18851,47750,-0.227,0.057,-2.349,-0.10847,-0.09245,0.98318,39.432,0.8,I,,,,,,,,,,,,,,,,,,,,,,,,,,,,,,,,,,,,,,,,,,,,,,1,0.6721176470588235,0.778,0.5794901960784314,1.0,10.0,0,0
5373119,14:33:43.500000,9.968333333333334,2024-06-05,599251.9702112321,5333717.567947075,17,N,14:33:43.500,48.14895872,-79.66560552,54777.93385,1,333,-1030,51877,-1.964,1.167,0.449,-0.06038,-0.32136,0.92377,39.131,180.3,I,,,,,,,,,,,,,,,,,,,,,,,,,,,,,,,,,,,,,,,,,,,,,,2,0.5842745098039215,0.7424444444444445,0.5512549019607843,1.0,10.0,0,0
5369619,14:33:40,9.91,2024-06-05,599251.958390595,5333745.52034996,17,N,14:33:40.000,48.14921014,-79.66559916,54797.5792,1,-446,-1700,51738,-4.225,-0.361,-2.801,-0.04527,-0.32899,0.9377,39.116,180.6,G,0.53,2.0,12.0,364.7,-38.5,15.318,0.0, ,D,'$GNGGA,143340.0,4808.95235,N,7939.93596,W,2.0,12.0,0.53,364.7,M,-38.5,M,,0131*79','$GNRMC,143340.0,A,4808.95235,N,7939.93596,W,15.318,180.61,50624.0,,,D,V*21',,,,,,,,2,0.781921568627451,0.8224444444444444,0.6147843137254903,1.0,10.0,0,0
5366119,14:33:36.500000,9.851666666666667,2024-06-05,599252.017197066,5333773.604058991,17,N,14:33:36.500,48.14946273,-79.66559182,54781.48475,1,0,-3140,51757,1.826,2.392,-4.249,-0.04873,-0.33656,0.93473,39.182,180.7,I,,,,,,,,,,,,,,,,,,,,,,,,,,,,,,,,,,,,,,,,,,,,,,2,0.6194117647058823,0.7566666666666667,0.5625490196078431,1.0,10.0,0,0
5362619,14:33:33,9.793333333333333,2024-06-05,599251.6420877094,5333801.696917073,17,N,14:33:33.000,48.14971547,-79.66559031,54757.47455,1,-1327,-3140,51607,7.271,1.683,2.339,-0.04891,-0.32826,0.91285,39.238,180.7,G,0.53,2.0,12.0,364.7,-38.5,15.806,0.0, ,D,'$GNGGA,143333.0,4808.98267,N,7939.93543,W,2.0,12.0,0.53,364.7,M,-38.5,M,,0131*7F','$GNRMC,143333.0,A,4808.98267,N,7939.93543,W,15.806,180.67,50624.0,,,D,V*25',,,,,,,,2,0.2771895424836601,0.5307843137254902,0.5969934640522876,1.0,10.0,0,0
5359119,14:33:29.500000,9.735000000000001,2024-06-05,599251.686554693,5333829.70588999,17,N,14:33:29.500,48.14996739,-79.66558318,54748.74185,1,-1395,-4177,51496,-0.74,0.861,-3.713,-0.05262,-0.33857,0.89448,39.161,181.1,I,,,,,,,,,,,,,,,,,,,,,,,,,,,,,,,,,,,,,,,,,,,,,,2,0.14333333333333334,0.4366666666666666,0.62,1.0,10.0,0,0
5355619,14:33:26,9.676666666666668,2024-06-05,599251.734122088,5333857.621527698,17,N,14:33:26.000,48.15021847,-79.66557603,54752.47025,1,-1012,-4509,51512,1.024,-1.899,0.495,-0.03029,-0.33075,0.92986,39.234,180.3,G,0.53,2.0,12.0,365.8,-38.5,15.278,0.0, ,D,'$GNGGA,143326.0,4809.01285,N,7939.93457,W,2.0,12.0,0.53,365.8,M,-38.5,M,,0131*7C','$GNRMC,143326.0,A,4809.01285,N,7939.93457,W,15.278,180.27,50624.0,,,D,V*2F',,,,,,,,2,0.2035686274509804,0.4790196078431372,0.6096470588235293,1.0,10.0,0,0
5352119,14:33:22.500000,9.618333333333334,2024-06-05,599251.8545517004,5333885.539542818,17,N,14:33:22.500,48.15046956,-79.6655679,54768.40665,1,424,-4381,51559,-7.606,0.433,4.358,-0.04775,-0.29355,0.88302,39.227,179.9,I,,,,,,,,,,,,,,,,,,,,,,,,,,,,,,,,,,,,,,,,,,,,,,2,0.4445098039215686,0.6484313725490196,0.5682352941176471,1.0,10.0,0,0
5348619,14:33:19,9.56,2024-06-05,599251.6872792083,5333913.616000103,17,N,14:33:19.000,48.15072212,-79.6655636,54798.5732,1,-1132,-5158,51422,3.797,-1.983,0.871,-0.05219,-0.34575,0.92992,39.232,181.1,G,0.53,2.0,12.0,369.3,-38.5,15.701,0.0, ,D,'$GNGGA,143319.0,4809.04307,N,7939.93383,W,2.0,12.0,0.53,369.3,M,-38.5,M,,0131*77','$GNRMC,143319.0,A,4809.04307,N,7939.93383,W,15.701,181.07,50624.0,,,D,V*2B',,,,,,,,2,0.7907058823529411,0.826,0.6176078431372548,1.0,10.0,0,0
5345119,14:33:15.500000,9.501666666666667,2024-06-05,599251.5719363817,5333941.27199144,17,N,14:33:15.500,48.15097089,-79.6655587,54832.13335,1,-1283,-5856,51395,1.366,2.938,-0.344,-0.06387,-0.41223,0.91882,39.275,181.0,I,,,,,,,,,,,,,,,,,,,,,,,,,,,,,,,,,,,,,,,,,,,,,,2,0.843359477124183,0.5810588235294117,0.324562091503268,1.0,10.0,0,0
5341619,14:33:12,9.443333333333333,2024-06-05,599251.422868927,5333969.627826387,17,N,14:33:12.000,48.15122596,-79.66555409,54832.64925,1,-682,-8883,50937,6.593,-0.173,-1.523,-0.07943,-0.41571,0.90661,39.258,181.0,G,0.53,2.0,12.0,375.3,-38.5,15.764,0.0, ,D,'$GNGGA,143312.0,4809.0733,N,7939.93326,W,2.0,12.0,0.53,375.3,M,-38.5,M,,0131*79','$GNRMC,143312.0,A,4809.0733,N,7939.93326,W,15.764,181.0,50624.0,,,D,V*2C',,,,,,,,2,0.841843137254902,0.574156862745098,0.32062745098039214,1.0,10.0,0,0
5338119,14:33:08.500000,9.385,2024-06-05,599251.7169858378,5333996.752819138,17,N,14:33:08.500,48.15146989,-79.66554381,54799.3392,1,-707,-9115,50682,-1.146,1.439,-3.506,-0.05432,-0.44624,0.88927,39.315,180.7,I,,,,,,,,,,,,,,,,,,,,,,,,,,,,,,,,,,,,,,,,,,,,,,2,0.7994901960784313,0.8295555555555556,0.6204313725490196,1.0,10.0,0,0
5334619,14:33:05,9.326666666666666,2024-06-05,599251.7603014283,5334024.353754348,17,N,14:33:05.000,48.15171814,-79.66553679,54773.39,1,-869,-4844,51378,-2.427,-0.178,0.469,-0.03981,-0.3623,0.89006,39.288,181.0,G,0.53,2.0,12.0,383.3,-38.5,15.131,0.0, ,D,'$GNGGA,143305.0,4809.10283,N,7939.93222,W,2.0,12.0,0.53,383.3,M,-38.5,M,,0131*7C','$GNRMC,143305.0,A,4809.10283,N,7939.93222,W,15.131,180.99,50624.0,,,D,V*27',,,,,,,,2,0.5181307189542483,0.7001960784313725,0.5555816993464052,1.0,10.0,0,0
5331119,14:33:01.500000,9.268333333333334,2024-06-05,599251.6457166673,5334052.007540309,17,N,14:33:01.500,48.15196689,-79.66553188,54761.9502,1,-1446,-6194,51216,-0.768,-0.482,-2.714,-0.03007,-0.40195,0.86446,39.334,180.9,I,,,,,,,,,,,,,,,,,,,,,,,,,,,,,,,,,,,,,,,,,,,,,,2,0.34411764705882353,0.577843137254902,0.5854901960784313,1.0,10.0,0,0
5327619,14:32:58,9.21,2024-06-05,599251.8521551967,5334079.853678969,17,N,14:32:58.000,48.15221732,-79.66552261,54757.8409,1,-136,-6116,51252,2.944,0.183,0.496,-0.04429,-0.40401,0.86043,39.295,181.1,G,0.53,2.0,12.0,388.8,-38.5,15.458,0.0, ,D,'$GNGGA,143258.0,4809.13278,N,7939.93137,W,2.0,12.0,0.53,388.8,M,-38.5,M,,0131*75','$GNRMC,143258.0,A,4809.13278,N,7939.93137,W,15.458,181.11,50624.0,,,D,V*25',,,,,,,,2,0.2838823529411764,0.5354901960784313,0.5958431372549019,1.0,10.0,0,0
5324119,14:32:54.500000,9.151666666666667,2024-06-05,599251.744207779,5334108.024565018,17,N,14:32:54.500,48.15247072,-79.66551749,54756.1604,1,299,-8578,50861,3.061,0.99,-1.906,-0.07142,-0.47324,0.86392,39.352,180.6,I,,,,,,,,,,,,,,,,,,,,,,,,,,,,,,,,,,,,,,,,,,,,,,2,0.25711111111111107,0.5166666666666666,0.6004444444444444,1.0,10.0,0,0
5320619,14:32:51,9.093333333333334,2024-06-05,599251.8872183582,5334135.7951157335,17,N,14:32:51.000,48.15272048,-79.66550909,54756.6034,1,32,-6694,51187,2.753,-0.684,-10.761,-0.05085,-0.43116,0.88653,39.391,182.8,G,0.53,2.0,12.0,387.6,-38.5,15.553,0.0, ,D,'$GNGGA,143251.0,4809.16297,N,7939.93057,W,2.0,12.0,0.53,387.6,M,-38.5,M,,0131*7E','$GNRMC,143251.0,A,4809.16297,N,7939.93057,W,15.553,182.83,50624.0,,,D,V*2D',,,,,,,,2,0.2638039215686274,0.5213725490196077,0.5992941176470589,1.0,10.0,0,0
5317119,14:32:47.500000,9.035,2024-06-05,599251.9240039657,5334163.941833051,17,N,14:32:47.500,48.15297364,-79.66550203,54758.5223,1,373,-6669,51145,-9.129,-0.274,3.989,-0.04502,-0.41127,0.85094,39.409,181.8,I,,,,,,,,,,,,,,,,,,,,,,,,,,,,,,,,,,,,,,,,,,,,,,2,0.2972679738562092,0.5449019607843137,0.5935424836601306,1.0,10.0,0,0
5313619,14:32:44,8.976666666666667,2024-06-05,599252.0169081592,5334191.683722142,17,N,14:32:44.000,48.15322315,-79.66549431,54760.55215,1,1121,-6671,51179,0.293,-2.311,3.025,-0.0679,-0.41961,0.8959,39.408,180.7,G,0.53,2.0,12.0,388.2,-38.5,15.666,0.0, ,D,'$GNGGA,143244.0,4809.19313,N,7939.92967,W,2.0,12.0,0.53,388.2,M,-38.5,M,,0131*78','$GNRMC,143244.0,A,4809.19313,N,7939.92967,W,15.666,180.69,50624.0,,,D,V*23',,,,,,,,2,0.32403921568627453,0.5637254901960784,0.5889411764705882,1.0,10.0,0,0
5310119,14:32:40.500000,8.918333333333333,2024-06-05,599251.9206202242,5334219.7814375805,17,N,14:32:40.500,48.15347589,-79.66548905,54763.2941,1,955,-7385,51102,-1.666,-0.926,3.385,-0.06875,-0.42054,0.8914,39.41,180.8,I,,,,,,,,,,,,,,,,,,,,,,,,,,,,,,,,,,,,,,,,,,,,,,2,0.3641960784313725,0.5919607843137255,0.5820392156862746,1.0,10.0,0,0
5306619,14:32:37,8.860000000000001,2024-06-05,599252.0463064279,5334247.348235313,17,N,14:32:37.000,48.15372382,-79.66548093,54765.0566,1,861,-6042,51220,3.167,1.169,0.21,-0.04821,-0.40985,0.9013,39.439,181.2,G,0.53,2.0,12.0,390.9,-38.5,15.319,0.0, ,D,'$GNGGA,143237.0,4809.22317,N,7939.92887,W,2.0,12.0,0.53,390.9,M,-38.5,M,,0131*7D','$GNRMC,143237.0,A,4809.22317,N,7939.92887,W,15.319,181.18,50624.0,,,D,V*2E',,,,,,,,2,0.3909673202614379,0.6107843137254901,0.577437908496732,1.0,10.0,0,0
5303119,14:32:33.500000,8.801666666666668,2024-06-05,599251.8570677164,5334275.314260777,17,N,14:32:33.500,48.15397539,-79.66547695,54769.6762,1,304,-6523,51238,-4.157,-1.011,1.359,-0.0511,-0.42343,0.87847,39.464,181.0,I,,,,,,,,,,,,,,,,,,,,,,,,,,,,,,,,,,,,,,,,,,,,,,2,0.46458823529411764,0.6625490196078432,0.5647843137254902,1.0,10.0,0,0
5299619,14:32:30,8.743333333333334,2024-06-05,599251.9827574906,5334303.565924047,17,N,14:32:30.000,48.15422948,-79.66546867,54778.1087,1,1400,-7668,51105,-2.142,-0.488,-1.088,-0.07052,-0.43927,0.87302,39.456,180.5,G,0.53,2.0,12.0,394.5,-38.5,15.387,0.0, ,D,'$GNGGA,143230.0,4809.25351,N,7939.92813,W,2.0,12.0,0.53,394.5,M,-38.5,M,,0131*7A','$GNRMC,143230.0,A,4809.25351,N,7939.92813,W,15.387,180.53,50624.0,,,D,V*28',,,,,,,,2,0.5842745098039215,0.7424444444444445,0.5512549019607843,1.0,10.0,0,0
5296119,14:32:26.500000,8.685,2024-06-05,599251.9386432531,5334331.442192019,17,N,14:32:26.500,48.15448022,-79.66546276,54790.98215,1,1450,-8137,50983,-3.587,-1.133,-3.856,-0.06126,-0.43175,0.8793,39.469,180.4,I,,,,,,,,,,,,,,,,,,,,,,,,,,,,,,,,,,,,,,,,,,,,,,2,0.7160392156862745,0.7957777777777778,0.5936078431372549,1.0,10.0,0,0
5292619,14:32:23,8.626666666666667,2024-06-05,599252.0299704635,5334359.229644988,17,N,14:32:23.000,48.15473014,-79.66545505,54808.375,1,1105,-7554,51088,5.835,-1.252,1.928,-0.04563,-0.42179,0.84402,39.475,181.6,G,0.53,2.0,12.0,398.7,-38.5,15.593,0.0, ,D,'$GNGGA,143223.0,4809.28355,N,7939.92732,W,2.0,12.0,0.53,398.7,M,-38.5,M,,0131*73','$GNRMC,143223.0,A,4809.28355,N,7939.92732,W,15.593,181.56,50624.0,,,D,V*28',,,,,,,,2,0.8491111111111111,0.814,0.5948888888888889,1.0,10.0,0,0
5289119,14:32:19.500000,8.568333333333333,2024-06-05,599251.9802429525,5334387.171413766,17,N,14:32:19.500,48.15498147,-79.6654492,54831.4288,1,983,-6637,51355,-0.205,0.23,-0.732,-0.07004,-0.39206,0.84344,39.576,180.9,I,,,,,,,,,,,,,,,,,,,,,,,,,,,,,,,,,,,,,,,,,,,,,,2,0.8435686274509805,0.5895294117647059,0.3343921568627451,1.0,10.0,0,0
5285619,14:32:16,8.51,2024-06-05,599251.9881079819,5334414.966315193,17,N,14:32:16.000,48.15523147,-79.66544261,54854.54695,1,1329,-5692,51351,-0.923,-2.799,-2.665,-0.05662,-0.37292,0.93026,39.513,181.0,G,0.53,2.0,12.0,396.7,-38.5,15.651,0.0, ,D,'$GNGGA,143216.0,4809.31363,N,7939.92657,W,2.0,12.0,0.53,396.7,M,-38.5,M,,0131*74','$GNRMC,143216.0,A,4809.31363,N,7939.92657,W,15.651,180.95,50624.0,,,D,V*22',,,,,,,,2,0.7424967320261437,0.18461437908496733,0.14023529411764707,1.0,10.0,0,0
5282119,14:32:12.500000,8.451666666666666,2024-06-05,599251.8823362561,5334442.750351409,17,N,14:32:12.500,48.15548139,-79.66543755,54857.777,1,208,-6909,51292,1.098,-0.088,1.226,-0.05767,-0.44315,0.87763,39.507,181.5,I,,,,,,,,,,,,,,,,,,,,,,,,,,,,,,,,,,,,,,,,,,,,,,2,0.7285882352941176,0.13007843137254899,0.11498039215686275,1.0,10.0,0,0
5278619,14:32:09,8.393333333333334,2024-06-05,599251.9926045628,5334470.945053715,17,N,14:32:09.000,48.15573497,-79.66542949,54830.7255,1,1860,-7650,51042,1.888,0.461,-1.199,-0.10208,-0.40697,0.88268,39.523,180.6,G,0.53,2.0,12.0,392.1,-38.5,15.403,0.0, ,D,'$GNGGA,143209.0,4809.34384,N,7939.92578,W,2.0,12.0,0.53,392.1,M,-38.5,M,,0131*7A','$GNRMC,143209.0,A,4809.34384,N,7939.92578,W,15.403,180.6,50624.0,,,D,V*21',,,,,,,,2,0.8437777777777778,0.5980000000000001,0.3442222222222222,1.0,10.0,0,0
5275119,14:32:05.500000,8.335,2024-06-05,599251.9590455249,5334498.768146659,17,N,14:32:05.500,48.15598523,-79.66542345,54801.1969,1,1218,-8062,51024,0.995,0.712,-4.465,-0.07847,-0.42123,0.89658,39.541,181.7,I,,,,,,,,,,,,,,,,,,,,,,,,,,,,,,,,,,,,,,,,,,,,,,2,0.8170588235294117,0.8366666666666667,0.626078431372549,1.0,10.0,0,0
5271619,14:32:02,8.276666666666667,2024-06-05,599251.8693078991,5334526.57025364,17,N,14:32:02.000,48.15623531,-79.66541817,54787.27195,1,747,-5777,51319,-5.492,0.353,3.075,-0.054,-0.39126,0.89596,39.561,180.4,G,0.53,2.0,12.0,391.7,-38.5,15.565,0.0, ,D,'$GNGGA,143202.0,4809.37386,N,7939.9251,W,2.0,12.0,0.53,391.7,M,-38.5,M,,0131*7B','$GNRMC,143202.0,A,4809.37386,N,7939.9251,W,15.565,180.38,50624.0,,,D,V*29',,,,,,,,2,0.6765098039215686,0.7797777777777778,0.5809019607843138,1.0,10.0,0,0
5268119,14:31:58.500000,8.218333333333334,2024-06-05,599251.8517674739,5334554.326919697,17,N,14:31:58.500,48.15648497,-79.66541193,54782.08095,1,891,-6986,51105,-2.623,0.61,1.743,-0.07783,-0.4044,0.88565,39.519,181.1,I,,,,,,,,,,,,,,,,,,,,,,,,,,,,,,,,,,,,,,,,,,,,,,2,0.6238039215686274,0.7584444444444445,0.5639607843137255,1.0,10.0,0,0
5264619,14:31:55,8.16,2024-06-05,599251.7983395128,5334582.436513693,17,N,14:31:55.000,48.15673781,-79.66540609,54776.807,1,977,-6779,51182,-1.682,0.435,-9.831,-0.09834,-0.42245,0.89415,39.535,181.1,G,0.53,2.0,12.0,392.5,-38.5,15.994,0.0, ,D,'$GNGGA,143155.0,4809.40401,N,7939.92438,W,2.0,12.0,0.53,392.5,M,-38.5,M,,0131*78','$GNRMC,143155.0,A,4809.40401,N,7939.92438,W,15.994,181.06,50624.0,,,D,V*25',,,,,,,,2,0.5710980392156861,0.7371111111111112,0.5470196078431373,1.0,10.0,0,0
5261119,14:31:51.500000,8.101666666666667,2024-06-05,599251.7501381836,5334610.8875195375,17,N,14:31:51.500,48.15699372,-79.6654001,54765.6514,1,898,-9294,50736,0.689,2.897,-6.757,-0.06582,-0.45135,0.87167,39.582,181.1,I,,,,,,,,,,,,,,,,,,,,,,,,,,,,,,,,,,,,,,,,,,,,,,2,0.4043529411764706,0.6201960784313726,0.5751372549019608,1.0,10.0,0,0
5257619,14:31:48,8.043333333333333,2024-06-05,599251.8237165179,5334638.87924706,17,N,14:31:48.000,48.15724548,-79.66539258,54754.2549,1,1666,-8884,50832,3.662,-0.321,-1.972,-0.08928,-0.43651,0.84694,39.576,181.2,G,0.53,2.0,12.0,394.2,-38.5,15.649,0.0, ,D,'$GNGGA,143148.0,4809.43447,N,7939.92357,W,2.0,12.0,0.53,394.2,M,-38.5,M,,0131*7A','$GNRMC,143148.0,A,4809.43447,N,7939.92357,W,15.649,181.22,50624.0,,,D,V*2F',,,,,,,,2,0.23033986928104577,0.4978431372549019,0.6050457516339869,1.0,10.0,0,0
5254119,14:31:44.500000,7.985,2024-06-05,599251.9980142865,5334666.639247902,17,N,14:31:44.500,48.15749514,-79.66538376,54749.52395,1,2224,-8090,50854,-2.842,-1.629,-0.246,-0.08596,-0.4045,0.88184,39.539,181.1,I,,,,,,,,,,,,,,,,,,,,,,,,,,,,,,,,,,,,,,,,,,,,,,2,0.15671895424836602,0.44607843137254893,0.6176993464052287,1.0,10.0,0,0
5250619,14:31:41,7.926666666666667,2024-06-05,599252.0712928905,5334694.4330740655,17,N,14:31:41.000,48.15774512,-79.66537629,54755.684,1,2109,-8039,50951,0.055,0.906,-2.431,-0.06644,-0.42046,0.89186,39.567,180.9,G,0.53,2.0,12.0,396.3,-38.5,14.97,0.0, ,D,'$GNGGA,143141.0,4809.46445,N,7939.92259,W,2.0,12.0,0.53,396.3,M,-38.5,M,,0131*78','$GNRMC,143141.0,A,4809.46445,N,7939.92259,W,14.97,180.86,50624.0,,,D,V*25',,,,,,,,2,0.25041830065359477,0.5119607843137255,0.60159477124183,1.0,10.0,0,0
5247119,14:31:37.500000,7.868333333333334,2024-06-05,599252.1068550452,5334721.9994415045,17,N,14:31:37.500,48.15799306,-79.66536938,54774.0576,1,1936,-4988,51374,-2.725,0.731,0.544,-0.06121,-0.37143,0.89422,39.547,180.8,I,,,,,,,,,,,,,,,,,,,,,,,,,,,,,,,,,,,,,,,,,,,,,,2,0.531516339869281,0.7096078431372549,0.553281045751634,1.0,10.0,0,0
5243619,14:31:34,7.8100000000000005,2024-06-05,599252.0286115352,5334749.950738271,17,N,14:31:34.000,48.15824448,-79.66536391,54792.11795,1,1576,-5198,51408,-4.022,0.576,-1.346,-0.06881,-0.36555,0.88853,39.567,181.3,G,0.53,2.0,12.0,400.3,-38.5,15.531,0.0, ,D,'$GNGGA,143134.0,4809.49441,N,7939.92185,W,2.0,12.0,0.53,400.3,M,-38.5,M,,0131*7B','$GNRMC,143134.0,A,4809.49441,N,7939.92185,W,15.531,181.32,50624.0,,,D,V*28',,,,,,,,2,0.7248235294117646,0.7993333333333333,0.5964313725490196,1.0,10.0,0,0
5240119,14:31:30.500000,7.751666666666667,2024-06-05,599251.9872431073,5334778.262896736,17,N,14:31:30.500,48.15849914,-79.66535786,54791.53695,1,1588,-6880,51200,-0.464,-1.142,-0.687,-0.08111,-0.35253,0.87211,39.523,181.8,I,,,,,,,,,,,,,,,,,,,,,,,,,,,,,,,,,,,,,,,,,,,,,,2,0.7204313725490195,0.7975555555555555,0.5950196078431372,1.0,10.0,0,0
5415719,14:34:26.100000,10.678333333333335,2024-06-05,599302.0327954243,5333708.063811685,17,N,14:34:26.100,48.14886542,-79.66493486,54801.73815,1,932,-19541,47527,0.155,0.49,5.185,-0.11694,-0.21081,0.98981,38.887,2.3,I,,,,,,,,,,,,,,,,,,,,,,,,,,,,,,,,,,,,,,,,,,,,,,3,0.7687450980392156,0.817111111111111,0.6105490196078431,1.0,10.0,0,0
5419219,14:34:29.600000,10.736666666666668,2024-06-05,599302.0697306478,5333735.808051591,17,N,14:34:29.600,48.14911496,-79.66492789,54848.2115,1,-186,-20624,47120,-0.544,2.229,-9.972,-0.11229,-0.20223,0.95592,38.914,0.7,I,,,,,,,,,,,,,,,,,,,,,,,,,,,,,,,,,,,,,,,,,,,,,,3,0.841843137254902,0.574156862745098,0.32062745098039214,1.0,10.0,0,0
5422719,14:34:33.100000,10.795,2024-06-05,599302.0137483424,5333763.718559975,17,N,14:34:33.100,48.14936601,-79.66492213,54846.21965,1,-1514,-19653,47491,5.729,0.0,-8.9,-0.11114,-0.1245,0.94815,38.85,359.9,I,,,,,,,,,,,,,,,,,,,,,,,,,,,,,,,,,,,,,,,,,,,,,,3,0.8436732026143792,0.593764705882353,0.3393071895424837,1.0,10.0,0,0
5426219,14:34:36.600000,10.853333333333333,2024-06-05,599302.0483073712,5333791.641759365,17,N,14:34:36.600,48.14961716,-79.66491515,54796.8014,1,-3208,-20315,47132,2.388,1.22,-0.375,-0.10005,-0.11574,0.98634,38.836,0.6,I,,,,,,,,,,,,,,,,,,,,,,,,,,,,,,,,,,,,,,,,,,,,,,3,0.7292156862745097,0.8011111111111111,0.5978431372549019,1.0,10.0,0,0
5429719,14:34:40.100000,10.911666666666667,2024-06-05,599302.0715204506,5333819.618129005,17,N,14:34:40.100,48.14986879,-79.66490831,54762.61025,1,-2589,-20195,47002,1.045,-1.515,1.026,-0.12691,-0.09579,0.98995,38.873,0.6,I,,,,,,,,,,,,,,,,,,,,,,,,,,,,,,,,,,,,,,,,,,,,,,3,0.4043529411764706,0.6201960784313726,0.5751372549019608,1.0,10.0,0,0
5433219,14:34:43.600000,10.97,2024-06-05,599301.948273066,5333847.630869962,17,N,14:34:43.600,48.15012077,-79.66490343,54754.67055,1,-1369,-20066,47248,-0.882,0.484,1.75,-0.13995,-0.06952,0.97186,38.871,1.6,I,,,,,,,,,,,,,,,,,,,,,,,,,,,,,,,,,,,,,,,,,,,,,,3,0.3106535947712418,0.5543137254901961,0.5912418300653595,1.0,10.0,0,0
5436719,14:34:47.100000,11.028333333333334,2024-06-05,599301.9413488756,5333875.285411712,17,N,14:34:47.100,48.15036951,-79.66489707,54760.71935,1,-1859,-20761,46957,0.668,0.159,0.136,-0.12511,-0.08251,0.98548,38.839,1.1,I,,,,,,,,,,,,,,,,,,,,,,,,,,,,,,,,,,,,,,,,,,,,,,3,0.3842745098039215,0.606078431372549,0.5785882352941177,1.0,10.0,0,0
5440219,14:34:50.600000,11.086666666666668,2024-06-05,599301.9016225929,5333903.286263735,17,N,14:34:50.600,48.15062137,-79.66489107,54776.31535,1,-1958,-20434,47092,-0.247,-0.729,-0.764,-0.1163,-0.11914,0.97966,38.779,1.4,I,,,,,,,,,,,,,,,,,,,,,,,,,,,,,,,,,,,,,,,,,,,,,,3,0.5710980392156861,0.7371111111111112,0.5470196078431373,1.0,10.0,0,0
5443719,14:34:54.100000,11.145000000000001,2024-06-05,599301.9428523709,5333931.251833464,17,N,14:34:54.100,48.1508729,-79.66488399,54791.9093,1,-2332,-20016,47370,-1.827,1.357,-0.412,-0.11369,-0.14162,0.9778,38.826,1.1,I,,,,,,,,,,,,,,,,,,,,,,,,,,,,,,,,,,,,,,,,,,,,,,3,0.6896862745098039,0.7851111111111111,0.5851372549019608,1.0,10.0,0,0
5447219,14:34:57.600000,11.203333333333335,2024-06-05,599301.9922617503,5333959.002971031,17,N,14:34:57.600,48.1511225,-79.66487685,54788.9422,1,-2652,-20269,47068,-6.099,1.127,-0.287,-0.10274,-0.12953,0.95813,38.762,1.0,I,,,,,,,,,,,,,,,,,,,,,,,,,,,,,,,,,,,,,,,,,,,,,,3,0.6677254901960784,0.7762222222222223,0.578078431372549,1.0,10.0,0,0
5450719,14:35:01.100000,11.261666666666667,2024-06-05,599301.9708641022,5333986.804022938,17,N,14:35:01.100,48.15137256,-79.66487065,54767.74705,1,-2548,-20088,47300,-0.887,0.152,-0.014,-0.11024,-0.10445,0.97432,38.821,0.3,I,,,,,,,,,,,,,,,,,,,,,,,,,,,,,,,,,,,,,,,,,,,,,,3,0.47128104575163404,0.6672549019607843,0.5636339869281046,1.0,10.0,0,0
5454219,14:35:04.600000,11.32,2024-06-05,599302.0530351974,5334014.68136418,17,N,14:35:04.600,48.15162329,-79.66486304,54749.11075,1,-2540,-19945,47183,-1.671,-0.979,0.108,-0.12079,-0.10007,0.9766,38.809,0.9,I,,,,,,,,,,,,,,,,,,,,,,,,,,,,,,,,,,,,,,,,,,,,,,3,0.24372549019607845,0.5072549019607843,0.6027450980392157,1.0,10.0,0,0
5457719,14:35:08.100000,11.378333333333334,2024-06-05,599302.0978574326,5334042.566952624,17,N,14:35:08.100,48.1518741,-79.66485593,54741.31415,1,-2634,-19004,47560,3.977,-1.996,0.785,-0.12465,-0.06658,0.94231,38.809,0.9,I,,,,,,,,,,,,,,,,,,,,,,,,,,,,,,,,,,,,,,,,,,,,,,3,0.15671895424836602,0.44607843137254893,0.6176993464052287,1.0,10.0,0,0
5461219,14:35:11.600000,11.436666666666667,2024-06-05,599302.0896622002,5334070.334883922,17,N,14:35:11.600,48.15212386,-79.66484956,54741.5571,1,-1984,-20181,47093,-1.491,-0.67,-1.422,-0.13543,-0.08424,0.97248,38.809,1.1,I,,,,,,,,,,,,,,,,,,,,,,,,,,,,,,,,,,,,,,,,,,,,,,3,0.15671895424836602,0.44607843137254893,0.6176993464052287,1.0,10.0,0,0
5464719,14:35:15.100000,11.495000000000001,2024-06-05,599302.0896270189,5334098.360893534,17,N,14:35:15.100,48.15237594,-79.66484302,54743.4545,1,-1913,-19218,47573,-3.61,-0.817,-2.811,-0.12702,-0.0895,0.96576,38.768,1.3,I,,,,,,,,,,,,,,,,,,,,,,,,,,,,,,,,,,,,,,,,,,,,,,3,0.17679738562091504,0.4601960784313725,0.6142483660130719,1.0,10.0,0,0
5468219,14:35:18.600000,11.553333333333335,2024-06-05,599302.1931148617,5334126.208591795,17,N,14:35:18.600,48.1526264,-79.66483513,54746.78325,1,-2393,-19302,47468,0.498,0.48,-2.803,-0.1266,-0.10398,0.99422,38.776,0.8,I,,,,,,,,,,,,,,,,,,,,,,,,,,,,,,,,,,,,,,,,,,,,,,3,0.2169542483660131,0.4884313725490196,0.6073464052287582,1.0,10.0,0,0
5471719,14:35:22.100000,11.611666666666668,2024-06-05,599302.1483379706,5334153.811346845,17,N,14:35:22.100,48.15287468,-79.66482929,54751.6988,1,-1836,-19295,47554,0.178,0.958,-3.419,-0.13491,-0.08642,0.97184,38.772,1.0,I,,,,,,,,,,,,,,,,,,,,,,,,,,,,,,,,,,,,,,,,,,,,,,3,0.2771895424836601,0.5307843137254902,0.5969934640522876,1.0,10.0,0,0
5475219,14:35:25.600000,11.67,2024-06-05,599302.0530115571,5334181.4543617405,17,N,14:35:25.600,48.15312333,-79.66482412,54756.61545,1,-2125,-19348,47519,0.337,0.634,-5.46,-0.13551,-0.08471,0.97635,38.805,1.3,I,,,,,,,,,,,,,,,,,,,,,,,,,,,,,,,,,,,,,,,,,,,,,,3,0.3374248366013072,0.5731372549019608,0.586640522875817,1.0,10.0,0,0
5478719,14:35:29.100000,11.728333333333333,2024-06-05,599302.0880620095,5334209.086300074,17,N,14:35:29.100,48.15337186,-79.6648172,54761.732,1,-1975,-19661,47504,-2.29,0.258,-4.611,-0.12696,-0.08488,0.93286,38.76,1.5,I,,,,,,,,,,,,,,,,,,,,,,,,,,,,,,,,,,,,,,,,,,,,,,3,0.39766013071895423,0.6154901960784314,0.5762875816993464,1.0,10.0,0,0
5482219,14:35:32.600000,11.786666666666667,2024-06-05,599302.0866977011,5334237.015567312,17,N,14:35:32.600,48.15362307,-79.6648107,54766.5478,1,-2256,-19894,47307,-4.949,-0.276,-3.834,-0.10305,-0.08774,0.9317,38.754,1.1,I,,,,,,,,,,,,,,,,,,,,,,,,,,,,,,,,,,,,,,,,,,,,,,3,0.45120261437908493,0.6531372549019608,0.5670849673202615,1.0,10.0,0,0
5485719,14:35:36.100000,11.845,2024-06-05,599302.1451918535,5334265.010359025,17,N,14:35:36.100,48.15387486,-79.66480338,54772.86495,1,-1796,-19516,47459,0.365,1.613,-2.951,-0.12134,-0.08128,0.9732,38.785,0.5,I,,,,,,,,,,,,,,,,,,,,,,,,,,,,,,,,,,,,,,,,,,,,,,3,0.531516339869281,0.7096078431372549,0.553281045751634,1.0,10.0,0,0
5489219,14:35:39.600000,11.903333333333334,2024-06-05,599302.0857972117,5334293.067589011,17,N,14:35:39.600,48.15412723,-79.66479763,54781.9637,1,-1668,-19092,47675,0.814,-1.082,-1.087,-0.13029,-0.0958,0.9762,38.821,1.0,I,,,,,,,,,,,,,,,,,,,,,,,,,,,,,,,,,,,,,,,,,,,,,,3,0.6150196078431371,0.7548888888888888,0.5611372549019608,1.0,10.0,0,0
5492719,14:35:43.100000,11.961666666666668,2024-06-05,599302.0560452718,5334320.959678164,17,N,14:35:43.100,48.15437811,-79.66479152,54796.34905,1,-1434,-18218,48014,4.525,-0.278,-0.382,-0.12752,-0.05379,0.93226,38.764,0.8,I,,,,,,,,,,,,,,,,,,,,,,,,,,,,,,,,,,,,,,,,,,,,,,3,0.7248235294117646,0.7993333333333333,0.5964313725490196,1.0,10.0,0,0
5496219,14:35:46.600000,12.020000000000001,2024-06-05,599302.1283387891,5334348.8868941795,17,N,14:35:46.600,48.15462929,-79.66478403,54818.53725,1,-2423,-19336,47619,-0.674,-0.615,-0.681,-0.11289,-0.0727,0.98158,38.734,1.1,I,,,,,,,,,,,,,,,,,,,,,,,,,,,,,,,,,,,,,,,,,,,,,,3,0.848797385620915,0.8012941176470588,0.5801437908496732,1.0,10.0,0,0
5499719,14:35:50.100000,12.078333333333335,2024-06-05,599302.0881053697,5334376.867747201,17,N,14:35:50.100,48.15488097,-79.66477804,54850.76375,1,-1894,-19135,47725,-0.831,-1.345,-1.068,-0.12803,-0.08837,0.98247,38.805,0.8,I,,,,,,,,,,,,,,,,,,,,,,,,,,,,,,,,,,,,,,,,,,,,,,3,0.8338954248366014,0.5429934640522878,0.30619607843137264,1.0,10.0,0,0
5503219,14:35:53.600000,12.136666666666667,2024-06-05,599302.2167303781,5334404.720342186,17,N,14:35:53.600,48.15513147,-79.66476981,54880.46315,1,-2547,-19535,47429,-0.783,0.031,-0.633,-0.11531,-0.094,0.98906,38.796,1.5,I,,,,,,,,,,,,,,,,,,,,,,,,,,,,,,,,,,,,,,,,,,,,,,3,0.7285882352941176,0.13007843137254899,0.11498039215686275,1.0,10.0,0,0
5506719,14:35:57.100000,12.195,2024-06-05,599302.2263777053,5334432.655368711,17,N,14:35:57.100,48.15538273,-79.66476316,54876.152,1,-1968,-19736,47457,-0.96,-1.098,3.163,-0.1053,-0.09801,0.98096,38.825,1.9,I,,,,,,,,,,,,,,,,,,,,,,,,,,,,,,,,,,,,,,,,,,,,,,3,0.7444836601307189,0.1924052287581699,0.14384313725490194,1.0,10.0,0,0
5510219,14:36:00.600000,12.253333333333334,2024-06-05,599302.2624359487,5334460.739835136,17,N,14:36:00.600,48.15563533,-79.66475612,54841.5377,1,-1895,-19095,47684,2.319,-2.484,2.766,-0.08799,-0.07689,0.99014,38.805,0.9,I,,,,,,,,,,,,,,,,,,,,,,,,,,,,,,,,,,,,,,,,,,,,,,3,0.8445098039215686,0.6276470588235296,0.37862745098039224,1.0,10.0,0,0
5513719,14:36:04.100000,12.311666666666667,2024-06-05,599302.3514429961,5334488.81632797,17,N,14:36:04.100,48.15588785,-79.66474837,54815.1912,1,-2326,-18559,47911,-1.265,1.028,0.976,-0.09747,-0.07738,0.9855,38.832,0.4,I,,,,,,,,,,,,,,,,,,,,,,,,,,,,,,,,,,,,,,,,,,,,,,3,0.8494248366013072,0.8267058823529411,0.6096339869281046,1.0,10.0,0,0
5517219,14:36:07.600000,12.370000000000001,2024-06-05,599302.2682832419,5334516.739740786,17,N,14:36:07.600,48.15613902,-79.66474297,54805.63265,1,-3008,-18489,47872,-5.235,-0.797,-0.715,-0.08672,-0.07149,0.97416,38.832,0.6,I,,,,,,,,,,,,,,,,,,,,,,,,,,,,,,,,,,,,,,,,,,,,,,3,0.7994901960784313,0.8295555555555556,0.6204313725490196,1.0,10.0,0,0
5520719,14:36:11.100000,12.428333333333335,2024-06-05,599302.2246855933,5334544.569339603,17,N,14:36:11.100,48.15638934,-79.66473706,54799.46455,1,-3121,-18890,47709,-1.548,2.285,1.208,-0.10648,-0.07308,0.9981,38.875,0.9,I,,,,,,,,,,,,,,,,,,,,,,,,,,,,,,,,,,,,,,,,,,,,,,3,0.7511764705882352,0.81,0.6049019607843137,1.0,10.0,0,0
5524219,14:36:14.600000,12.486666666666668,2024-06-05,599302.1736746058,5334572.439947246,17,N,14:36:14.600,48.15664003,-79.66473124,54788.2585,1,-3159,-19128,47640,2.07,2.133,1.472,-0.09472,-0.08659,0.9801,38.843,1.5,I,,,,,,,,,,,,,,,,,,,,,,,,,,,,,,,,,,,,,,,,,,,,,,3,0.6633333333333333,0.7744444444444444,0.5766666666666667,1.0,10.0,0,0
5527719,14:36:18.100000,12.545,2024-06-05,599302.1685230675,5334600.282445932,17,N,14:36:18.100,48.15689046,-79.66472481,54775.3323,1,-2557,-18698,47713,4.688,0.226,1.436,-0.08778,-0.05104,0.93387,38.869,1.1,I,,,,,,,,,,,,,,,,,,,,,,,,,,,,,,,,,,,,,,,,,,,,,,3,0.5582875816993463,0.7284313725490197,0.5486797385620915,1.0,10.0,0,0
5531219,14:36:21.600000,12.603333333333333,2024-06-05,599302.2813875302,5334628.268192744,17,N,14:36:21.600,48.15714216,-79.66471676,54763.972,1,-3211,-20047,47164,0.166,0.029,1.485,-0.07739,-0.08506,0.98905,38.826,1.0,I,,,,,,,,,,,,,,,,,,,,,,,,,,,,,,,,,,,,,,,,,,,,,,3,0.4244313725490196,0.634313725490196,0.5716862745098039,1.0,10.0,0,0
5534719,14:36:25.100000,12.661666666666667,2024-06-05,599302.3107906814,5334656.304745782,17,N,14:36:25.100,48.15739433,-79.66470982,54758.9183,1,-4523,-20330,46981,-7.428,4.055,1.898,-0.04551,-0.13239,0.97338,38.869,1.0,I,,,,,,,,,,,,,,,,,,,,,,,,,,,,,,,,,,,,,,,,,,,,,,3,0.3641960784313725,0.5919607843137255,0.5820392156862746,1.0,10.0,0,0
5538219,14:36:28.600000,12.72,2024-06-05,599302.0563298425,5334684.195173268,17,N,14:36:28.600,48.15764523,-79.66470673,54765.9624,1,-2404,-20154,47185,-1.411,-1.639,6.222,-0.07,-0.12967,0.99442,38.877,1.0,I,,,,,,,,,,,,,,,,,,,,,,,,,,,,,,,,,,,,,,,,,,,,,,3,0.4445098039215686,0.6484313725490196,0.5682352941176471,1.0,10.0,0,0
5541719,14:36:32.100000,12.778333333333334,2024-06-05,599302.2381285967,5334712.065382993,17,N,14:36:32.100,48.15789588,-79.66469778,54786.1364,1,-3402,-20192,47181,1.083,-1.078,7.044,-0.06123,-0.11059,0.98539,38.921,0.8,I,,,,,,,,,,,,,,,,,,,,,,,,,,,,,,,,,,,,,,,,,,,,,,3,0.6457647058823529,0.7673333333333333,0.5710196078431373,1.0,10.0,0,0
5545219,14:36:35.600000,12.836666666666668,2024-06-05,599302.2948993931,5334739.98122993,17,N,14:36:35.600,48.15814696,-79.6646905,54803.60795,1,-2927,-19890,47301,-0.636,1.117,7.578,-0.08082,-0.09207,0.97319,38.9,0.5,I,,,,,,,,,,,,,,,,,,,,,,,,,,,,,,,,,,,,,,,,,,,,,,3,0.781921568627451,0.8224444444444444,0.6147843137254903,1.0,10.0,0,0
5548719,14:36:39.100000,12.895000000000001,2024-06-05,599302.3433102581,5334767.9925470855,17,N,14:36:39.100,48.1583989,-79.66468331,54798.30345,1,-2601,-19975,47153,-0.428,0.569,6.375,-0.10648,-0.10119,0.98289,38.932,0.8,I,,,,,,,,,,,,,,,,,,,,,,,,,,,,,,,,,,,,,,,,,,,,,,3,0.7423921568627451,0.8064444444444445,0.602078431372549,1.0,10.0,0,0
5552219,14:36:42.600000,12.953333333333335,2024-06-05,599302.2538096971,5334795.849155163,17,N,14:36:42.600,48.15864947,-79.66467801,54789.16795,1,-2907,-20205,47244,-5.81,0.94,2.784,-0.1112,-0.09333,0.95766,38.91,1.5,I,,,,,,,,,,,,,,,,,,,,,,,,,,,,,,,,,,,,,,,,,,,,,,3,0.6721176470588235,0.778,0.5794901960784314,1.0,10.0,0,0
5552419,14:36:42.800000,12.956666666666667,2024-06-05,599302.2669932939,5334797.445916895,17,N,14:36:42.800,48.15866383,-79.66467746,54789.0841,1,-2697,-20885,46904,0.838,-1.049,2.203,-0.11132,-0.11317,0.99875,38.933,1.3,I,,,,,,,,,,,,,,,,,,,,,,,,,,,,,,,,,,,,,,,,,,,,,,3,0.6677254901960784,0.7762222222222223,0.578078431372549,1.0,10.0,0,0
