Counter,UTC_time_stamps,elapsed_time_minutes,Date,UTME,UTMN,UTM_zone,UTM_letter,Time,Latitude,Longitude,Mag_TMI_nT,Mag_Lock,CompassX,CompassY,CompassZ,GyroscopeX,GyroscopeY,GyroscopeZ,AccelerometerX,AccelerometerY,AccelerometerZ,ImuTemperature,Track,LocationSource,Hdop,FixQuality,SatellitesUsed,Altitude,HeightOverEllipsoid,SpeedOverGround,MagneticVariation,VariationDirection,ModeIndicator,GgaSentence,RmcSentence,EventCode,EventInfo,EventDataLength,EventData,uk1,uk2,uk3,uk4,uk5,uk6,uk7,uk8,uk9,uk10,uk11,uk12,uk13,uk14,uk15,uk16,uk17,uk18,uk19,uk20,uk21,uk22,uk23,uk24,uk25,uk26,uk27,uk28,uk29,uk30,Flightline,r,g,b,a,size,range_noise,noise_bad
10530777,16:11:02,4.376666666666667,2024-06-05,595200.0837556426,5331702.3679164685,17,N,16:11:02.000,48.13145202,-79.72051734,54446.10345,1,-10788,-32510,27234,-8.743,-3.129,-19.016,0.16293,-0.2269,1.01297,42.121,2.7,G,0.49,2.0,12.0,366.6,-38.6,13.154,0.0, ,D,'$GNGGA,161102.0,4807.88738,N,7943.23102,W,2.0,12.0,0.49,366.6,M,-38.6,M,,0131*72','$GNRMC,161102.0,A,4807.88738,N,7943.23102,W,13.154,2.73,50624.0,,,D,V*25',,,,,,,,1,0.1701045751633987,0.45549019607843133,0.6153986928104574,1.0,10.0,0,0
10534277,16:11:05.500000,4.4350000000000005,2024-06-05,595200.3531967021,5331730.556666564,17,N,16:11:05.500,48.13170553,-79.72050742,54444.1567,1,-8774,-31909,27771,-3.429,-0.638,-8.655,0.16781,-0.29155,0.91369,42.136,359.1,I,,,,,,,,,,,,,,,,,,,,,,,,,,,,,,,,,,,,,,,,,,,,,,1,0.1500261437908497,0.44137254901960776,0.6188496732026144,1.0,10.0,0,0
10537777,16:11:09,4.493333333333334,2024-06-05,595200.5474355977,5331758.47845621,17,N,16:11:09.000,48.13195665,-79.72049857,54444.4135,1,-9872,-31511,27915,-1.153,2.878,-4.72,0.12765,-0.2586,0.9475,42.093,358.3,G,0.49,2.0,12.0,367.1,-38.6,16.67,0.0, ,D,'$GNGGA,161109.0,4807.91766,N,7943.22992,W,2.0,12.0,0.49,367.1,M,-38.6,M,,0131*7C','$GNRMC,161109.0,A,4807.91766,N,7943.22992,W,16.67,358.3,50624.0,,,D,V*22',,,,,,,,1,0.15671895424836602,0.44607843137254893,0.6176993464052287,1.0,10.0,0,0
10541277,16:11:12.500000,4.551666666666667,2024-06-05,595200.6473786246,5331786.0284621455,17,N,16:11:12.500,48.13220444,-79.72049107,54446.24485,1,-9834,-30897,28268,1.126,0.558,-8.504,0.07235,-0.13741,0.94154,42.123,0.4,I,,,,,,,,,,,,,,,,,,,,,,,,,,,,,,,,,,,,,,,,,,,,,,1,0.1701045751633987,0.45549019607843133,0.6153986928104574,1.0,10.0,0,0
10544777,16:11:16,4.61,2024-06-05,595200.5374719653,5331813.666143406,17,N,16:11:16.000,48.13245305,-79.72048637,54445.30715,1,-9234,-32843,27386,-2.911,1.543,-12.954,0.06643,-0.12925,0.93083,42.137,0.8,G,0.49,2.0,12.0,366.2,-38.6,15.38,0.0, ,D,'$GNGGA,161116.0,4807.94744,N,7943.22917,W,2.0,12.0,0.49,366.2,M,-38.6,M,,0131*78','$GNRMC,161116.0,A,4807.94744,N,7943.22917,W,15.38,0.76,50624.0,,,D,V*21',,,,,,,,1,0.16341176470588237,0.45078431372549016,0.616549019607843,1.0,10.0,0,0
10548277,16:11:19.500000,4.668333333333334,2024-06-05,595200.4897020081,5331841.281512433,17,N,16:11:19.500,48.13270145,-79.72048084,54445.57805,1,-8070,-32479,27844,0.035,-0.987,-15.987,0.08199,-0.12001,0.94335,42.141,1.4,I,,,,,,,,,,,,,,,,,,,,,,,,,,,,,,,,,,,,,,,,,,,,,,1,0.16341176470588237,0.45078431372549016,0.616549019607843,1.0,10.0,0,0
10551777,16:11:23,4.7266666666666675,2024-06-05,595200.6137755724,5331868.900852795,17,N,16:11:23.000,48.13294986,-79.720473,54445.2302,1,-6879,-34099,27228,-18.983,-0.514,-16.321,0.04244,-0.23262,0.9476,42.152,0.5,G,0.49,2.0,12.0,357.5,-38.6,14.207,0.0, ,D,'$GNGGA,161123.0,4807.97725,N,7943.22837,W,2.0,12.0,0.49,357.5,M,-38.6,M,,0131*7C','$GNRMC,161123.0,A,4807.97725,N,7943.22837,W,14.207,0.52,50624.0,,,D,V*29',,,,,,,,1,0.16341176470588237,0.45078431372549016,0.616549019607843,1.0,10.0,0,0
10555277,16:11:26.500000,4.785,2024-06-05,595200.6617634112,5331896.3065823605,17,N,16:11:26.500,48.13319636,-79.72046623,54449.34925,1,-8897,-33834,27051,0.626,3.422,-28.258,0.04789,-0.29323,0.99565,42.14,0.4,I,,,,,,,,,,,,,,,,,,,,,,,,,,,,,,,,,,,,,,,,,,,,,,1,0.19687581699346404,0.474313725490196,0.610797385620915,1.0,10.0,0,0
10558777,16:11:30,4.843333333333334,2024-06-05,595200.3734601813,5331924.332641474,17,N,16:11:30.000,48.13344849,-79.72046384,54454.397,1,-8462,-34054,26959,-4.067,8.802,-24.043,0.0682,-0.31199,1.0269,42.14,0.6,G,0.49,2.0,12.0,352.3,-38.6,16.34,0.0, ,D,'$GNGGA,161130.0,4808.00717,N,7943.22782,W,2.0,12.0,0.49,352.3,M,-38.6,M,,0131*7C','$GNRMC,161130.0,A,4808.00717,N,7943.22782,W,16.34,0.63,50624.0,,,D,V*28',,,,,,,,1,0.2370326797385621,0.5025490196078432,0.6038954248366013,1.0,10.0,0,0
10562277,16:11:33.500000,4.901666666666667,2024-06-05,595200.1170175868,5331951.830033045,17,N,16:11:33.500,48.13369586,-79.72046114,54452.8275,1,-9869,-36120,25338,-0.893,-2.532,-0.271,0.08176,-0.29011,0.94414,42.165,1.1,I,,,,,,,,,,,,,,,,,,,,,,,,,,,,,,,,,,,,,,,,,,,,,,1,0.2236470588235294,0.49313725490196075,0.6061960784313726,1.0,10.0,0,0
10565777,16:11:37,4.96,2024-06-05,595200.1773542403,5331979.387171382,17,N,16:11:37.000,48.13394372,-79.72045417,54453.24785,1,-7445,-37168,25355,-8.099,-4.992,13.349,0.06319,-0.22366,0.94884,42.186,2.0,G,0.49,2.0,12.0,358.6,-38.6,15.396,0.0, ,D,'$GNGGA,161137.0,4808.03688,N,7943.22723,W,2.0,12.0,0.49,358.6,M,-38.6,M,,0131*7B','$GNRMC,161137.0,A,4808.03688,N,7943.22723,W,15.396,1.99,50624.0,,,D,V*2C',,,,,,,,1,0.2236470588235294,0.49313725490196075,0.6061960784313726,1.0,10.0,0,0
10569277,16:11:40.500000,5.0183333333333335,2024-06-05,595200.6294480257,5332006.880786461,17,N,16:11:40.500,48.13419095,-79.72044195,54457.25165,1,-3191,-36819,26092,4.463,-7.406,4.31,0.04869,-0.16482,0.89276,42.168,3.1,I,,,,,,,,,,,,,,,,,,,,,,,,,,,,,,,,,,,,,,,,,,,,,,1,0.25711111111111107,0.5166666666666666,0.6004444444444444,1.0,10.0,0,0
10572777,16:11:44,5.076666666666667,2024-06-05,595200.2285991802,5332035.6765414225,17,N,16:11:44.000,48.13445002,-79.7204409,54465.62795,1,-1290,-35551,27023,-0.455,-2.269,-5.996,0.01799,-0.25779,0.97786,42.162,2.7,G,0.49,2.0,12.0,360.5,-38.6,15.468,0.0, ,D,'$GNGGA,161144.0,4808.06726,N,7943.22643,W,2.0,12.0,0.49,360.5,M,-38.6,M,,0131*70','$GNRMC,161144.0,A,4808.06726,N,7943.22643,W,15.468,2.65,50624.0,,,D,V*29',,,,,,,,1,0.32403921568627453,0.5637254901960784,0.5889411764705882,1.0,10.0,0,0
10576277,16:11:47.500000,5.135000000000001,2024-06-05,595200.6596991249,5332063.581162031,17,N,16:11:47.500,48.13470095,-79.72042887,54473.8387,1,-3598,-35278,27042,7.902,-6.601,-4.635,0.07346,-0.21683,0.97055,42.141,1.6,I,,,,,,,,,,,,,,,,,,,,,,,,,,,,,,,,,,,,,,,,,,,,,,1,0.3909673202614379,0.6107843137254901,0.577437908496732,1.0,10.0,0,0
10579777,16:11:51,5.193333333333333,2024-06-05,595200.7435956136,5332091.554496607,17,N,16:11:51.000,48.13495255,-79.72042149,54484.75865,1,-4683,-34784,27254,1.379,2.846,-4.707,0.10585,-0.17532,0.93997,42.175,1.9,G,0.49,2.0,12.0,356.3,-38.6,15.273,0.0, ,D,'$GNGGA,161151.0,4808.09741,N,7943.22527,W,2.0,12.0,0.49,356.3,M,-38.6,M,,0131*78','$GNRMC,161151.0,A,4808.09741,N,7943.22527,W,15.273,1.85,50624.0,,,D,V*23',,,,,,,,1,0.4779738562091504,0.6719607843137254,0.5624836601307189,1.0,10.0,0,0
10583277,16:11:54.500000,5.251666666666667,2024-06-05,595200.6931248065,5332119.373285914,17,N,16:11:54.500,48.13520278,-79.72041595,54494.30745,1,-5696,-34914,26998,0.464,-0.936,-0.542,0.13249,-0.21854,0.96101,42.204,0.9,I,,,,,,,,,,,,,,,,,,,,,,,,,,,,,,,,,,,,,,,,,,,,,,1,0.55159477124183,0.7237254901960785,0.5498300653594771,1.0,10.0,0,0
10586777,16:11:58,5.3100000000000005,2024-06-05,595200.6359708299,5332147.190853557,17,N,16:11:58.000,48.135453,-79.7204105,54500.40685,1,-5540,-34758,27066,-5.016,1.383,-2.791,0.11767,-0.26011,0.92188,42.196,0.6,G,0.49,2.0,12.0,350.5,-38.6,15.372,0.0, ,D,'$GNGGA,161158.0,4808.12744,N,7943.22462,W,2.0,12.0,0.49,350.5,M,-38.6,M,,0131*7E','$GNRMC,161158.0,A,4808.12744,N,7943.22462,W,15.372,0.63,50624.0,,,D,V*2C',,,,,,,,1,0.5886666666666667,0.7442222222222222,0.5526666666666668,1.0,10.0,0,0
10590277,16:12:01.500000,5.368333333333334,2024-06-05,595200.7283186298,5332174.878609682,17,N,16:12:01.500,48.13570203,-79.72040307,54500.7961,1,-6174,-33461,27761,3.827,-2.683,-4.077,0.15281,-0.19554,0.94319,42.235,1.9,I,,,,,,,,,,,,,,,,,,,,,,,,,,,,,,,,,,,,,,,,,,,,,,1,0.5930588235294117,0.746,0.554078431372549,1.0,10.0,0,0
10593777,16:12:05,5.426666666666667,2024-06-05,595200.5706244633,5332202.521072433,17,N,16:12:05.000,48.13595069,-79.72039901,54491.58925,1,-4812,-34906,27081,-0.629,-2.184,-0.468,0.05169,-0.20792,0.94621,42.193,359.2,G,0.48,2.0,12.0,343.9,-38.6,16.117,0.0, ,D,'$GNGGA,161205.0,4808.1573,N,7943.22394,W,2.0,12.0,0.48,343.9,M,-38.6,M,,0131*70','$GNRMC,161205.0,A,4808.1573,N,7943.22394,W,16.117,359.18,50624.0,,,D,V*2C',,,,,,,,1,0.531516339869281,0.7096078431372549,0.553281045751634,1.0,10.0,0,0
10597277,16:12:08.500000,5.485,2024-06-05,595200.6142331487,5332229.872268041,17,N,16:12:08.500,48.1361967,-79.72039231,54475.90845,1,-6469,-37783,25103,4.111,-4.94,0.036,0.09167,-0.26631,1.00574,42.184,1.9,I,,,,,,,,,,,,,,,,,,,,,,,,,,,,,,,,,,,,,,,,,,,,,,1,0.4043529411764706,0.6201960784313726,0.5751372549019608,1.0,10.0,0,0
10600777,16:12:12,5.543333333333334,2024-06-05,595200.6744144277,5332258.23989162,17,N,16:12:12.000,48.13645185,-79.72038516,54463.90375,1,-6781,-35274,26611,14.183,18.203,-9.272,0.09735,-0.24167,1.00449,42.178,0.3,G,0.48,2.0,12.0,344.8,-38.6,15.62,0.0, ,D,'$GNGGA,161212.0,4808.18737,N,7943.2231,W,2.0,12.0,0.48,344.8,M,-38.6,M,,0131*76','$GNRMC,161212.0,A,4808.18737,N,7943.2231,W,15.62,0.25,50624.0,,,D,V*2D',,,,,,,,1,0.3106535947712418,0.5543137254901961,0.5912418300653595,1.0,10.0,0,0
10604277,16:12:15.500000,5.6016666666666675,2024-06-05,595200.3869358546,5332285.854628558,17,N,16:12:15.500,48.13670028,-79.72038285,54454.59325,1,-4046,-37973,25192,4.443,2.053,2.255,0.05974,-0.29038,0.97087,42.191,2.9,I,,,,,,,,,,,,,,,,,,,,,,,,,,,,,,,,,,,,,,,,,,,,,,1,0.2370326797385621,0.5025490196078432,0.6038954248366013,1.0,10.0,0,0
10607777,16:12:19,5.66,2024-06-05,595200.0621964297,5332314.188057317,17,N,16:12:19.000,48.13695518,-79.72038088,54456.0046,1,-3792,-35147,27132,4.026,3.139,-1.777,0.10664,-0.24639,0.92047,42.225,1.2,G,0.48,2.0,12.0,348.0,-38.6,15.939,0.0, ,D,'$GNGGA,161219.0,4808.21757,N,7943.22284,W,2.0,12.0,0.48,348.0,M,-38.6,M,,0131*79','$GNRMC,161219.0,A,4808.21757,N,7943.22284,W,15.939,1.19,50624.0,,,D,V*2F',,,,,,,,1,0.24372549019607845,0.5072549019607843,0.6027450980392157,1.0,10.0,0,0
10611277,16:12:22.500000,5.718333333333334,2024-06-05,595200.3571559755,5332342.219391102,17,N,16:12:22.500,48.13720727,-79.72037065,54463.56715,1,-6709,-35123,26789,7.297,-2.536,2.838,0.11006,-0.21779,0.92707,42.225,0.4,I,,,,,,,,,,,,,,,,,,,,,,,,,,,,,,,,,,,,,,,,,,,,,,1,0.30396078431372553,0.5496078431372549,0.592392156862745,1.0,10.0,0,0
10614777,16:12:26,5.776666666666667,2024-06-05,595200.4254284155,5332370.09909069,17,N,16:12:26.000,48.13745803,-79.7203635,54474.80865,1,-6746,-34252,27197,7.278,-1.717,4.717,0.07379,-0.197,0.97133,42.233,0.5,G,0.48,2.0,12.0,347.3,-38.6,14.935,0.0, ,D,'$GNGGA,161226.0,4808.24774,N,7943.2218,W,2.0,12.0,0.48,347.3,M,-38.6,M,,0131*7A','$GNRMC,161226.0,A,4808.24774,N,7943.2218,W,14.935,0.46,50624.0,,,D,V*26',,,,,,,,1,0.39766013071895423,0.6154901960784314,0.5762875816993464,1.0,10.0,0,0
10618277,16:12:29.500000,5.835,2024-06-05,595200.4641708306,5332398.098370722,17,N,16:12:29.500,48.13770987,-79.72035672,54484.88315,1,-5730,-34183,27433,4.101,13.762,2.624,0.03589,-0.23625,0.96971,42.248,1.0,I,,,,,,,,,,,,,,,,,,,,,,,,,,,,,,,,,,,,,,,,,,,,,,1,0.4779738562091504,0.6719607843137254,0.5624836601307189,1.0,10.0,0,0
10621777,16:12:33,5.8933333333333335,2024-06-05,595200.4484116618,5332425.705404813,17,N,16:12:33.000,48.13795819,-79.72035076,54490.78325,1,-5215,-36587,26063,-0.204,-3.994,11.954,0.0836,-0.28921,0.92067,42.209,2.9,G,0.48,2.0,12.0,346.1,-38.6,16.969,0.0, ,D,'$GNGGA,161233.0,4808.27775,N,7943.22102,W,2.0,12.0,0.48,346.1,M,-38.6,M,,0131*75','$GNRMC,161233.0,A,4808.27775,N,7943.22102,W,16.969,2.92,50624.0,,,D,V*2A',,,,,,,,1,0.5248235294117647,0.7049019607843137,0.5544313725490195,1.0,10.0,0,0
10625277,16:12:36.500000,5.951666666666667,2024-06-05,595200.3703748824,5332453.65605062,17,N,16:12:36.500,48.13820961,-79.72034556,54492.0456,1,-5035,-37844,25274,10.937,-3.771,18.422,0.12965,-0.24121,1.00471,42.248,1.9,I,,,,,,,,,,,,,,,,,,,,,,,,,,,,,,,,,,,,,,,,,,,,,,1,0.531516339869281,0.7096078431372549,0.553281045751634,1.0,10.0,0,0
10628777,16:12:40,6.010000000000001,2024-06-05,595200.7737210914,5332482.05829967,17,N,16:12:40.000,48.13846502,-79.72033379,54493.8532,1,-8297,-33851,27082,2.372,-6.039,15.139,0.18675,-0.18356,0.93024,42.227,0.3,G,0.48,2.0,12.0,344.7,-38.6,14.624,0.0, ,D,'$GNGGA,161240.0,4808.30816,N,7943.22002,W,2.0,12.0,0.48,344.7,M,-38.6,M,,0131*78','$GNRMC,161240.0,A,4808.30816,N,7943.22002,W,14.624,0.33,50624.0,,,D,V*2E',,,,,,,,1,0.5449019607843137,0.7190196078431372,0.5509803921568628,1.0,10.0,0,0
10632277,16:12:43.500000,6.068333333333333,2024-06-05,595200.6594126985,5332509.907174232,17,N,16:12:43.500,48.13871553,-79.7203291,54489.5743,1,-7994,-34314,26864,6.909,1.787,15.121,0.12766,-0.25614,0.95223,42.236,358.5,I,,,,,,,,,,,,,,,,,,,,,,,,,,,,,,,,,,,,,,,,,,,,,,1,0.511437908496732,0.6954901960784313,0.5567320261437909,1.0,10.0,0,0
10635777,16:12:47,6.126666666666667,2024-06-05,595201.0230815136,5332537.651713999,17,N,16:12:47.000,48.13896503,-79.72031801,54486.0613,1,-8689,-34862,26376,2.991,-2.368,22.096,0.09746,-0.2236,0.96832,42.273,1.9,G,0.48,2.0,12.0,344.2,-38.6,15.708,0.0, ,D,'$GNGGA,161247.0,4808.33816,N,7943.21906,W,2.0,12.0,0.48,344.2,M,-38.6,M,,0131*77','$GNRMC,161247.0,A,4808.33816,N,7943.21906,W,15.708,1.88,50624.0,,,D,V*2B',,,,,,,,1,0.48466666666666675,0.6766666666666667,0.5613333333333334,1.0,10.0,0,0
10639277,16:12:50.500000,6.1850000000000005,2024-06-05,595200.7093740223,5332565.54285602,17,N,16:12:50.500,48.13921595,-79.72031599,54485.6483,1,-6837,-34391,27100,-0.582,-1.931,12.18,0.07918,-0.20741,0.95197,42.255,1.2,I,,,,,,,,,,,,,,,,,,,,,,,,,,,,,,,,,,,,,,,,,,,,,,1,0.48466666666666675,0.6766666666666667,0.5613333333333334,1.0,10.0,0,0
10642777,16:12:54,6.243333333333334,2024-06-05,595200.7229790292,5332593.529497606,17,N,16:12:54.000,48.13946768,-79.72030955,54486.29855,1,-7154,-36243,25994,4.388,2.14,8.218,0.12966,-0.28784,0.9768,42.27,2.4,G,0.48,2.0,12.0,346.3,-38.6,15.963,0.0, ,D,'$GNGGA,161254.0,4808.36832,N,7943.21855,W,2.0,12.0,0.48,346.3,M,-38.6,M,,0131*72','$GNRMC,161254.0,A,4808.36832,N,7943.21855,W,15.963,2.41,50624.0,,,D,V*28',,,,,,,,1,0.48466666666666675,0.6766666666666667,0.5613333333333334,1.0,10.0,0,0
10646277,16:12:57.500000,6.301666666666667,2024-06-05,595200.5581295048,5332621.507612687,17,N,16:12:57.500,48.13971936,-79.72030551,54490.64475,1,-5849,-35036,26978,0.885,-6.307,10.726,0.13965,-0.24514,0.95067,42.264,0.6,I,,,,,,,,,,,,,,,,,,,,,,,,,,,,,,,,,,,,,,,,,,,,,,1,0.5248235294117647,0.7049019607843137,0.5544313725490195,1.0,10.0,0,0
10649777,16:13:01,6.36,2024-06-05,595200.6044715503,5332649.672683646,17,N,16:13:01.000,48.13997269,-79.72029859,54495.2219,1,-6511,-32870,27913,5.198,1.355,12.691,0.14021,-0.16957,0.9768,42.254,360.0,G,0.48,2.0,12.0,348.1,-38.6,16.294,0.0, ,D,'$GNGGA,161301.0,4808.39862,N,7943.21791,W,2.0,12.0,0.48,348.1,M,-38.6,M,,0131*72','$GNRMC,161301.0,A,4808.39862,N,7943.21791,W,16.294,359.97,50624.0,,,D,V*22',,,,,,,,1,0.5582875816993463,0.7284313725490197,0.5486797385620915,1.0,10.0,0,0
10653277,16:13:04.500000,6.418333333333334,2024-06-05,595200.7687318224,5332677.413912428,17,N,16:13:04.500,48.14022219,-79.72029018,54494.64065,1,-7117,-34230,27150,-0.905,5.495,9.9,0.1133,-0.15835,0.98813,42.348,0.7,I,,,,,,,,,,,,,,,,,,,,,,,,,,,,,,,,,,,,,,,,,,,,,,1,0.55159477124183,0.7237254901960785,0.5498300653594771,1.0,10.0,0,0
10656777,16:13:08,6.4766666666666675,2024-06-05,595200.8844595597,5332705.119870401,17,N,16:13:08.000,48.14047138,-79.72028243,54491.658,1,-6676,-35822,26207,0.567,0.262,1.566,0.11098,-0.20887,0.95954,42.318,1.2,G,0.48,2.0,12.0,349.5,-38.6,15.037,0.0, ,D,'$GNGGA,161308.0,4808.42854,N,7943.21693,W,2.0,12.0,0.48,349.5,M,-38.6,M,,0131*74','$GNRMC,161308.0,A,4808.42854,N,7943.21693,W,15.037,1.2,50624.0,,,D,V*2B',,,,,,,,1,0.531516339869281,0.7096078431372549,0.553281045751634,1.0,10.0,0,0
10660277,16:13:11.500000,6.535,2024-06-05,595200.7407743889,5332733.345154211,17,N,16:13:11.500,48.14072528,-79.72027805,54490.32635,1,-8168,-34495,26841,-4.381,3.782,-1.25,0.14224,-0.22875,0.94476,42.275,1.0,I,,,,,,,,,,,,,,,,,,,,,,,,,,,,,,,,,,,,,,,,,,,,,,1,0.5181307189542483,0.7001960784313725,0.5555816993464052,1.0,10.0,0,0
10663777,16:13:15,6.593333333333334,2024-06-05,595200.4129868408,5332761.365035255,17,N,16:13:15.000,48.14097736,-79.72027619,54492.55195,1,-4850,-32371,28433,-0.25,1.875,-5.854,0.06847,-0.17401,0.91956,42.307,2.2,G,0.48,2.0,12.0,347.9,-38.6,15.739,0.0, ,D,'$GNGGA,161315.0,4808.4589,N,7943.21655,W,2.0,12.0,0.48,347.9,M,-38.6,M,,0131*7F','$GNRMC,161315.0,A,4808.4589,N,7943.21655,W,15.739,2.17,50624.0,,,D,V*2C',,,,,,,,1,0.5382091503267975,0.7143137254901961,0.5521307189542484,1.0,10.0,0,0
10667277,16:13:18.500000,6.651666666666667,2024-06-05,595200.2627646863,5332788.998754608,17,N,16:13:18.500,48.14122594,-79.72027203,54493.3844,1,-4310,-34450,27523,0.422,-0.505,1.867,0.07247,-0.1922,0.96813,42.329,0.8,I,,,,,,,,,,,,,,,,,,,,,,,,,,,,,,,,,,,,,,,,,,,,,,1,0.5449019607843137,0.7190196078431372,0.5509803921568628,1.0,10.0,0,0
10670777,16:13:22,6.71,2024-06-05,595200.438166152,5332816.9180574175,17,N,16:13:22.000,48.14147704,-79.72026343,54493.9048,1,-4005,-34170,27694,5.822,0.047,-0.314,0.047,-0.17427,1.02779,42.311,359.8,G,0.48,2.0,12.0,344.8,-38.6,15.776,0.0, ,D,'$GNGGA,161322.0,4808.48888,N,7943.2158,W,2.0,12.0,0.48,344.8,M,-38.6,M,,0131*76','$GNRMC,161322.0,A,4808.48888,N,7943.2158,W,15.776,359.8,50624.0,,,D,V*2F',,,,,,,,1,0.5449019607843137,0.7190196078431372,0.5509803921568628,1.0,10.0,0,0
10674277,16:13:25.500000,6.7683333333333335,2024-06-05,595200.518538534,5332844.555615995,17,N,16:13:25.500,48.14172562,-79.72025617,54489.4683,1,-6101,-35002,26957,-3.551,-1.449,-2.611,0.05699,-0.20182,0.9981,42.285,2.0,I,,,,,,,,,,,,,,,,,,,,,,,,,,,,,,,,,,,,,,,,,,,,,,1,0.511437908496732,0.6954901960784313,0.5567320261437909,1.0,10.0,0,0
10677777,16:13:29,6.826666666666667,2024-06-05,595200.667768572,5332871.989757025,17,N,16:13:29.000,48.14197236,-79.72024803,54485.91095,1,-6750,-35255,26543,1.323,2.3,-15.527,0.03359,-0.23306,0.9514,42.303,0.7,G,0.48,2.0,12.0,351.5,-38.6,15.329,0.0, ,D,'$GNGGA,161329.0,4808.5186,N,7943.21487,W,2.0,12.0,0.48,351.5,M,-38.6,M,,0131*7C','$GNRMC,161329.0,A,4808.5186,N,7943.21487,W,15.329,0.65,50624.0,,,D,V*26',,,,,,,,1,0.48466666666666675,0.6766666666666667,0.5613333333333334,1.0,10.0,0,0
10681277,16:13:32.500000,6.885000000000001,2024-06-05,595200.7378953268,5332899.795024049,17,N,16:13:32.500,48.14222245,-79.72024087,54487.00825,1,-9133,-34093,26864,-1.213,2.204,-18.151,0.11844,-0.19817,0.93071,42.34,2.4,I,,,,,,,,,,,,,,,,,,,,,,,,,,,,,,,,,,,,,,,,,,,,,,1,0.491359477124183,0.6813725490196079,0.5601830065359478,1.0,10.0,0,0
10684777,16:13:36,6.943333333333333,2024-06-05,595200.8596778124,5332927.804604653,17,N,16:13:36.000,48.14247437,-79.72023297,54492.6467,1,-10730,-32535,27097,3.838,-3.106,-10.84,0.16924,-0.13958,0.93111,42.347,359.0,G,0.48,2.0,12.0,359.8,-38.6,15.745,0.0, ,D,'$GNGGA,161336.0,4808.54872,N,7943.21398,W,2.0,12.0,0.48,359.8,M,-38.6,M,,0131*78','$GNRMC,161336.0,A,4808.54872,N,7943.21398,W,15.745,359.01,50624.0,,,D,V*24',,,,,,,,1,0.5382091503267975,0.7143137254901961,0.5521307189542484,1.0,10.0,0,0
10688277,16:13:39.500000,7.001666666666667,2024-06-05,595200.7528056399,5332955.827058464,17,N,16:13:39.500,48.14272644,-79.72022814,54496.79585,1,-11358,-32233,27264,-7.571,-3.554,-11.367,0.13103,-0.16257,0.9762,42.311,358.1,I,,,,,,,,,,,,,,,,,,,,,,,,,,,,,,,,,,,,,,,,,,,,,,1,0.5710980392156861,0.7371111111111112,0.5470196078431373,1.0,10.0,0,0
10691777,16:13:43,7.0600000000000005,2024-06-05,595200.6444012331,5332983.628247028,17,N,16:13:43.000,48.14297652,-79.72022338,54499.5622,1,-9700,-31503,27988,-3.276,6.677,-20.409,0.05213,-0.16693,0.93084,42.366,359.3,G,0.48,2.0,12.0,361.8,-38.6,15.217,0.0, ,D,'$GNGGA,161343.0,4808.57885,N,7943.2134,W,2.0,12.0,0.48,361.8,M,-38.6,M,,0131*7F','$GNRMC,161343.0,A,4808.57885,N,7943.2134,W,15.217,359.25,50624.0,,,D,V*2C',,,,,,,,1,0.5842745098039215,0.7424444444444445,0.5512549019607843,1.0,10.0,0,0
10695277,16:13:46.500000,7.118333333333334,2024-06-05,595200.5013872986,5333011.273214008,17,N,16:13:46.500,48.1432252,-79.72021912,54500.2968,1,-9397,-33954,26862,-4.117,4.542,-22.373,0.06799,-0.22398,0.93868,42.383,1.6,I,,,,,,,,,,,,,,,,,,,,,,,,,,,,,,,,,,,,,,,,,,,,,,1,0.5886666666666667,0.7442222222222222,0.5526666666666668,1.0,10.0,0,0
10698777,16:13:50,7.176666666666667,2024-06-05,595200.4035736275,5333039.286928224,17,N,16:13:50.000,48.14347719,-79.72021417,54502.1988,1,-8451,-34361,26832,0.425,0.228,-17.076,0.08665,-0.22294,0.94823,42.436,0.6,G,0.48,2.0,12.0,362.0,-38.6,15.775,0.0, ,D,'$GNGGA,161350.0,4808.60889,N,7943.21284,W,2.0,12.0,0.48,362.0,M,-38.6,M,,0131*77','$GNRMC,161350.0,A,4808.60889,N,7943.21284,W,15.775,0.59,50624.0,,,D,V*2A',,,,,,,,1,0.5974509803921568,0.7477777777777778,0.5554901960784314,1.0,10.0,0,0
10702277,16:13:53.500000,7.235,2024-06-05,595200.5051996195,5333067.074938895,17,N,16:13:53.500,48.14372712,-79.72020659,54504.08995,1,-8113,-35149,26436,-1.992,0.283,-13.87,0.09925,-0.22656,0.96247,42.373,1.4,I,,,,,,,,,,,,,,,,,,,,,,,,,,,,,,,,,,,,,,,,,,,,,,1,0.6106274509803922,0.7531111111111112,0.5597254901960785,1.0,10.0,0,0
10705777,16:13:57,7.293333333333334,2024-06-05,595200.6133403308,5333095.007588622,17,N,16:13:57.000,48.14397835,-79.72019889,54506.24605,1,-8051,-34617,26754,-0.948,-0.893,-9.038,0.13541,-0.23547,0.94716,42.365,1.1,G,0.48,2.0,12.0,357.9,-38.6,15.437,0.0, ,D,'$GNGGA,161357.0,4808.63896,N,7943.21192,W,2.0,12.0,0.48,357.9,M,-38.6,M,,0131*76','$GNRMC,161357.0,A,4808.63896,N,7943.21192,W,15.437,1.09,50624.0,,,D,V*25',,,,,,,,1,0.6194117647058823,0.7566666666666667,0.5625490196078431,1.0,10.0,0,0
10709277,16:14:00.500000,7.3516666666666675,2024-06-05,595200.7585023581,5333122.3694089055,17,N,16:14:00.500,48.14422444,-79.72019082,54504.62065,1,-8773,-36374,25622,1.817,2.993,-8.78,0.14453,-0.21644,0.97595,42.396,359.7,I,,,,,,,,,,,,,,,,,,,,,,,,,,,,,,,,,,,,,,,,,,,,,,1,0.6106274509803922,0.7531111111111112,0.5597254901960785,1.0,10.0,0,0
10712777,16:14:04,7.41,2024-06-05,595200.6168606654,5333150.690357665,17,N,16:14:04.000,48.1444792,-79.72018639,54504.6248,1,-6782,-35501,26402,3.309,1.157,-4.416,0.0944,-0.20046,0.96795,42.408,0.9,G,0.48,2.0,12.0,355.0,-38.6,15.674,0.0, ,D,'$GNGGA,161404.0,4808.66901,N,7943.21117,W,2.0,12.0,0.48,355.0,M,-38.6,M,,0131*7B','$GNRMC,161404.0,A,4808.66901,N,7943.21117,W,15.674,0.88,50624.0,,,D,V*2E',,,,,,,,1,0.6106274509803922,0.7531111111111112,0.5597254901960785,1.0,10.0,0,0
10716277,16:14:07.500000,7.468333333333334,2024-06-05,595200.4327780936,5333178.6103663435,17,N,16:14:07.500,48.14473036,-79.72018262,54504.89305,1,-6228,-36265,26111,-6.348,-2.293,-2.395,0.07061,-0.21336,0.94424,42.416,0.8,I,,,,,,,,,,,,,,,,,,,,,,,,,,,,,,,,,,,,,,,,,,,,,,1,0.6150196078431371,0.7548888888888888,0.5611372549019608,1.0,10.0,0,0
10719777,16:14:11,7.526666666666667,2024-06-05,595200.4245354116,5333206.738978698,17,N,16:14:11.000,48.14498337,-79.72017644,54509.59115,1,-6551,-34497,27131,0.299,1.555,-1.943,0.07172,-0.20074,0.94682,42.434,1.4,G,0.48,2.0,12.0,354.1,-38.6,15.359,0.0, ,D,'$GNGGA,161411.0,4808.69926,N,7943.21057,W,2.0,12.0,0.48,354.1,M,-38.6,M,,0131*70','$GNRMC,161411.0,A,4808.69926,N,7943.21057,W,15.359,1.42,50624.0,,,D,V*28',,,,,,,,1,0.6369803921568628,0.7637777777777778,0.5681960784313725,1.0,10.0,0,0
10723277,16:14:14.500000,7.585,2024-06-05,595200.4804414264,5333234.8575421795,17,N,16:14:14.500,48.14523628,-79.7201694,54514.87185,1,-6728,-34146,27357,-1.286,-2.395,0.314,0.08769,-0.20542,0.97596,42.438,1.1,I,,,,,,,,,,,,,,,,,,,,,,,,,,,,,,,,,,,,,,,,,,,,,,1,0.6633333333333333,0.7744444444444444,0.5766666666666667,1.0,10.0,0,0
10726777,16:14:18,7.6433333333333335,2024-06-05,595200.5049931764,5333262.624267667,17,N,16:14:18.000,48.14548603,-79.72016286,54521.43565,1,-6413,-33901,27476,1.39,-0.236,0.341,0.08192,-0.19248,0.95217,42.434,0.8,G,0.48,2.0,12.0,357.9,-38.6,15.177,0.0, ,D,'$GNGGA,161418.0,4808.72942,N,7943.20976,W,2.0,12.0,0.48,357.9,M,-38.6,M,,0131*71','$GNRMC,161418.0,A,4808.72942,N,7943.20976,W,15.177,0.82,50624.0,,,D,V*21',,,,,,,,1,0.6984705882352941,0.7886666666666666,0.5879607843137256,1.0,10.0,0,0
10730277,16:14:21.500000,7.701666666666667,2024-06-05,595200.6309608564,5333290.198123283,17,N,16:14:21.500,48.14573403,-79.720155,54528.48265,1,-6799,-34730,26927,-6.591,-3.426,0.563,0.09031,-0.22871,0.96297,42.463,1.3,I,,,,,,,,,,,,,,,,,,,,,,,,,,,,,,,,,,,,,,,,,,,,,,1,0.7379999999999999,0.8046666666666666,0.6006666666666667,1.0,10.0,0,0
10733777,16:14:25,7.760000000000001,2024-06-05,595200.4064631338,5333317.728348155,17,N,16:14:25.000,48.14598169,-79.72015186,54537.8778,1,-5740,-34350,27334,-0.767,-3.78,-1.092,0.07525,-0.21008,0.93586,42.459,0.8,G,0.48,2.0,12.0,365.9,-38.6,15.461,0.0, ,D,'$GNGGA,161425.0,4808.75916,N,7943.2091,W,2.0,12.0,0.48,365.9,M,-38.6,M,,0131*78','$GNRMC,161425.0,A,4808.75916,N,7943.2091,W,15.461,0.83,50624.0,,,D,V*2A',,,,,,,,1,0.7863137254901962,0.8242222222222222,0.6161960784313725,1.0,10.0,0,0
10737277,16:14:28.500000,7.818333333333333,2024-06-05,595200.5750111057,5333345.201744314,17,N,16:14:28.500,48.14622878,-79.72014345,54541.6312,1,-6855,-36643,25820,-0.586,-0.575,-2.846,0.08836,-0.27101,0.93732,42.442,0.9,I,,,,,,,,,,,,,,,,,,,,,,,,,,,,,,,,,,,,,,,,,,,,,,1,0.8038823529411765,0.8313333333333333,0.621843137254902,1.0,10.0,0,0
10740777,16:14:32,7.876666666666667,2024-06-05,595200.2818778486,5333373.055464738,17,N,16:14:32.000,48.14647936,-79.72014116,54540.3997,1,-7208,-36759,25663,-1.905,-3.764,0.731,0.10916,-0.26569,0.92531,42.438,0.6,G,0.48,2.0,12.0,369.3,-38.6,15.701,0.0, ,D,'$GNGGA,161432.0,4808.78902,N,7943.20846,W,2.0,12.0,0.48,369.3,M,-38.6,M,,0131*72','$GNRMC,161432.0,A,4808.78902,N,7943.20846,W,15.701,0.57,50624.0,,,D,V*2A',,,,,,,,1,0.7994901960784313,0.8295555555555556,0.6204313725490196,1.0,10.0,0,0
10744277,16:14:35.500000,7.9350000000000005,2024-06-05,595200.2889632083,5333401.109852982,17,N,16:14:35.500,48.1467317,-79.72013479,54534.52885,1,-7210,-36967,25532,-0.276,-2.217,2.908,0.11639,-0.28294,0.96482,42.498,0.9,I,,,,,,,,,,,,,,,,,,,,,,,,,,,,,,,,,,,,,,,,,,,,,,1,0.7687450980392156,0.817111111111111,0.6105490196078431,1.0,10.0,0,0
10747777,16:14:39,7.993333333333334,2024-06-05,595200.3873303039,5333428.998996874,17,N,16:14:39.000,48.14698254,-79.72012723,54533.9398,1,-5961,-35953,26437,-0.43,-1.4,5.414,0.05566,-0.20633,0.91785,42.47,1.1,G,0.48,2.0,12.0,369.9,-38.6,15.225,0.0, ,D,'$GNGGA,161439.0,4808.81921,N,7943.20762,W,2.0,12.0,0.48,369.9,M,-38.6,M,,0131*7D','$GNRMC,161439.0,A,4808.81921,N,7943.20762,W,15.225,1.07,50624.0,,,D,V*28',,,,,,,,1,0.7643529411764706,0.8153333333333334,0.6091372549019608,1.0,10.0,0,0
10751277,16:14:42.500000,8.051666666666668,2024-06-05,595200.6163562175,5333456.860298813,17,N,16:14:42.500,48.14723311,-79.72011792,54539.49345,1,-7335,-36545,25789,-4.566,-9.779,-1.706,0.08344,-0.2977,0.98563,42.471,2.1,I,,,,,,,,,,,,,,,,,,,,,,,,,,,,,,,,,,,,,,,,,,,,,,1,0.7950980392156863,0.8277777777777777,0.6190196078431373,1.0,10.0,0,0
10754777,16:14:46,8.110000000000001,2024-06-05,595200.3775275523,5333484.1768337535,17,N,16:14:46.000,48.14747885,-79.72011502,54561.3108,1,-6926,-33879,27456,2.035,-10.525,2.105,0.10959,-0.22799,0.94744,42.502,1.0,G,0.48,2.0,12.0,358.4,-38.6,15.555,0.0, ,D,'$GNGGA,161446.0,4808.84899,N,7943.20689,W,2.0,12.0,0.48,358.4,M,-38.6,M,,0131*79','$GNRMC,161446.0,A,4808.84899,N,7943.20689,W,15.555,0.97,50624.0,,,D,V*2B',,,,,,,,1,0.8486928104575163,0.7970588235294118,0.5752287581699347,1.0,10.0,0,0
10758277,16:14:49.500000,8.168333333333333,2024-06-05,595200.6408336228,5333511.050349775,17,N,16:14:49.500,48.14772053,-79.72010547,54592.13635,1,-8061,-35336,26509,0.541,6.771,6.079,0.13882,-0.2128,0.96362,42.492,0.3,I,,,,,,,,,,,,,,,,,,,,,,,,,,,,,,,,,,,,,,,,,,,,,,1,0.8448235294117648,0.6403529411764706,0.39337254901960783,1.0,10.0,0,0
10761777,16:14:53,8.226666666666667,2024-06-05,595200.6710934116,5333538.067853447,17,N,16:14:53.000,48.14796354,-79.72009902,54606.4501,1,-7865,-35158,26570,3.107,2.402,-2.361,0.05908,-0.2078,0.93596,42.467,359.1,G,0.48,2.0,12.0,345.2,-38.6,14.963,0.0, ,D,'$GNGGA,161453.0,4808.87807,N,7943.20594,W,2.0,12.0,0.48,345.2,M,-38.6,M,,0131*7C','$GNRMC,161453.0,A,4808.87807,N,7943.20594,W,14.963,359.1,50624.0,,,D,V*2C',,,,,,,,1,0.8378692810457516,0.5585751633986928,0.31341176470588233,1.0,10.0,0,0
10765277,16:14:56.500000,8.285,2024-06-05,595200.527884934,5333565.404883307,17,N,16:14:56.500,48.14820945,-79.72009483,54585.69025,1,-7892,-37278,25238,-4.787,-1.238,-5.612,0.07757,-0.22974,0.94282,42.509,2.0,I,,,,,,,,,,,,,,,,,,,,,,,,,,,,,,,,,,,,,,,,,,,,,,1,0.8456601307189543,0.6742352941176472,0.4326928104575163,1.0,10.0,0,0
10768777,16:15:00,8.343333333333334,2024-06-05,595200.2824589537,5333593.831966543,17,N,16:15:00.000,48.14846518,-79.72009177,54580.2377,1,-5467,-34288,27504,-1.748,0.617,-1.198,0.06003,-0.24448,0.93729,42.546,1.5,G,0.46,2.0,12.0,339.1,-38.6,15.111,0.0, ,D,'$GNGGA,161500.0,4808.90817,N,7943.20549,W,2.0,12.0,0.46,339.1,M,-38.6,M,,0131*7A','$GNRMC,161500.0,A,4808.90817,N,7943.20549,W,15.111,1.53,50624.0,,,D,V*29',,,,,,,,1,0.8462875816993464,0.6996470588235294,0.4621830065359477,1.0,10.0,0,0
10772277,16:15:03.500000,8.401666666666667,2024-06-05,595200.2018586998,5333620.8487406755,17,N,16:15:03.500,48.1487082,-79.72008681,54588.97055,1,-5931,-40147,23677,-13.947,-2.385,-1.511,0.07898,-0.34433,0.95011,42.502,1.1,I,,,,,,,,,,,,,,,,,,,,,,,,,,,,,,,,,,,,,,,,,,,,,,1,0.8452418300653595,0.6572941176470588,0.41303267973856206,1.0,10.0,0,0
10775777,16:15:07,8.46,2024-06-05,595200.3279104372,5333648.680543794,17,N,16:15:07.000,48.14895852,-79.72007889,54617.6603,1,-7479,-38107,24746,8.751,4.478,0.606,0.0927,-0.32671,0.97121,42.537,1.1,G,0.46,2.0,12.0,334.9,-38.6,15.467,0.0, ,D,'$GNGGA,161507.0,4808.93777,N,7943.20472,W,2.0,12.0,0.46,334.9,M,-38.6,M,,0131*7B','$GNRMC,161507.0,A,4808.93777,N,7943.20472,W,15.467,1.05,50624.0,,,D,V*2A',,,,,,,,1,0.8120392156862745,0.45729411764705885,0.26650980392156864,1.0,10.0,0,0
10779277,16:15:10.500000,8.518333333333334,2024-06-05,595200.4945296255,5333676.533035167,17,N,16:15:10.500,48.14920902,-79.72007042,54639.8861,1,-7945,-40491,22985,-0.837,-2.271,1.159,0.10911,-0.37102,0.97857,42.523,0.6,I,,,,,,,,,,,,,,,,,,,,,,,,,,,,,,,,,,,,,,,,,,,,,,1,0.7583921568627451,0.24694117647058828,0.16909803921568628,1.0,10.0,0,0
10782777,16:15:14,8.576666666666666,2024-06-05,595200.245685208,5333704.806642999,17,N,16:15:14.000,48.14946337,-79.72006744,54635.1974,1,-6306,-37970,25145,5.902,0.037,4.893,0.05349,-0.29837,0.93918,42.539,360.0,G,0.46,2.0,12.0,335.6,-38.6,15.911,0.0, ,D,'$GNGGA,161514.0,4808.96806,N,7943.20404,W,2.0,12.0,0.46,335.6,M,-38.6,M,,0131*7A','$GNRMC,161514.0,A,4808.96806,N,7943.20404,W,15.911,360.0,50624.0,,,D,V*28',,,,,,,,1,0.7703137254901962,0.29368627450980417,0.1907450980392158,1.0,10.0,0,0
10786277,16:15:17.500000,8.635,2024-06-05,595200.3077519665,5333732.860849988,17,N,16:15:17.500,48.1497157,-79.72006033,54594.97485,1,-5770,-37864,25238,-0.902,3.318,2.528,0.02755,-0.2891,0.96422,42.555,1.3,I,,,,,,,,,,,,,,,,,,,,,,,,,,,,,,,,,,,,,,,,,,,,,,1,0.8445098039215686,0.6276470588235296,0.37862745098039224,1.0,10.0,0,0
10789777,16:15:21,8.693333333333333,2024-06-05,595200.4521991485,5333760.658499804,17,N,16:15:21.000,48.14996571,-79.72005217,54549.33315,1,-6413,-37814,25185,2.331,0.254,0.22,0.0437,-0.27597,0.94329,42.541,1.9,G,0.46,2.0,12.0,335.9,-38.6,15.603,0.0, ,D,'$GNGGA,161521.0,4808.9982,N,7943.20311,W,2.0,12.0,0.46,335.9,M,-38.6,M,,0131*7B','$GNRMC,161521.0,A,4808.9982,N,7943.20311,W,15.603,1.94,50624.0,,,D,V*23',,,,,,,,1,0.8434117647058823,0.8473333333333333,0.6345490196078432,1.0,10.0,0,0
10793277,16:15:24.500000,8.751666666666667,2024-06-05,595200.1097610076,5333788.788247788,17,N,16:15:24.500,48.15021878,-79.72005048,54519.0151,1,-5682,-36924,25711,-4.891,1.209,-12.424,0.03341,-0.26293,0.98273,42.556,1.1,I,,,,,,,,,,,,,,,,,,,,,,,,,,,,,,,,,,,,,,,,,,,,,,1,0.6852941176470587,0.7833333333333332,0.5837254901960784,1.0,10.0,0,0
10796777,16:15:28,8.81,2024-06-05,595200.0541846217,5333816.221247333,17,N,16:15:28.000,48.15046554,-79.72004509,54500.7813,1,-6921,-39516,23847,2.526,-4.788,-3.71,0.05047,-0.30586,0.91176,42.52,2.9,G,0.46,2.0,12.0,335.2,-38.6,15.268,0.0, ,D,'$GNGGA,161528.0,4809.02819,N,7943.20268,W,2.0,12.0,0.46,335.2,M,-38.6,M,,0131*7F','$GNRMC,161528.0,A,4809.02819,N,7943.20268,W,15.268,2.91,50624.0,,,D,V*23',,,,,,,,1,0.5930588235294117,0.746,0.554078431372549,1.0,10.0,0,0
10800277,16:15:31.500000,8.868333333333334,2024-06-05,595199.9456271224,5333844.289296206,17,N,16:15:31.500,48.15071802,-79.72004027,54495.19765,1,-6389,-38623,24494,-3.487,8.165,1.594,0.04998,-0.32441,0.97041,42.567,359.9,I,,,,,,,,,,,,,,,,,,,,,,,,,,,,,,,,,,,,,,,,,,,,,,1,0.5582875816993463,0.7284313725490197,0.5486797385620915,1.0,10.0,0,0
10803777,16:15:35,8.926666666666668,2024-06-05,595200.6851005433,5333872.0045781145,17,N,16:15:35.000,48.1509672,-79.72002413,54500.68115,1,-9416,-36353,25419,0.936,-2.862,1.429,0.08241,-0.25922,0.9358,42.533,358.7,G,0.46,2.0,12.0,341.1,-38.6,15.111,0.0, ,D,'$GNGGA,161535.0,4809.05829,N,7943.20145,W,2.0,12.0,0.46,341.1,M,-38.6,M,,0131*7B','$GNRMC,161535.0,A,4809.05829,N,7943.20145,W,15.111,358.72,50624.0,,,D,V*2B',,,,,,,,1,0.5930588235294117,0.746,0.554078431372549,1.0,10.0,0,0
10807277,16:15:38.500000,8.985000000000001,2024-06-05,595200.4007607815,5333899.4137622,17,N,16:15:38.500,48.15121378,-79.72002182,54513.27745,1,-6465,-35481,26552,-4.038,-5.996,16.136,-0.00983,-0.21511,0.95442,42.6,359.7,I,,,,,,,,,,,,,,,,,,,,,,,,,,,,,,,,,,,,,,,,,,,,,,1,0.6545490196078431,0.7708888888888888,0.573843137254902,1.0,10.0,0,0
10810777,16:15:42,9.043333333333333,2024-06-05,595200.0699431828,5333927.156815361,17,N,16:15:42.000,48.15146337,-79.72002006,54530.2664,1,-4577,-33574,27903,3.984,-0.846,5.971,-0.02895,-0.1891,0.95878,42.557,2.3,G,0.46,2.0,12.0,353.0,-38.6,15.017,0.0, ,D,'$GNGGA,161542.0,4809.08806,N,7943.20118,W,2.0,12.0,0.46,353.0,M,-38.6,M,,0131*71','$GNRMC,161542.0,A,4809.08806,N,7943.20118,W,15.017,2.3,50624.0,,,D,V*2E',,,,,,,,1,0.7467843137254901,0.8082222222222222,0.6034901960784314,1.0,10.0,0,0
10814277,16:15:45.500000,9.101666666666667,2024-06-05,595199.9938642703,5333954.79182128,17,N,16:15:45.500,48.15171195,-79.7200149,54547.42555,1,-3800,-33814,27947,3.318,-1.099,6.289,0.00486,-0.19506,0.94373,42.525,2.7,I,,,,,,,,,,,,,,,,,,,,,,,,,,,,,,,,,,,,,,,,,,,,,,1,0.8346274509803921,0.8437777777777777,0.6317254901960784,1.0,10.0,0,0
10817777,16:15:49,9.16,2024-06-05,595200.0301995834,5333982.466499534,17,N,16:15:49.000,48.15196087,-79.72000822,54564.6621,1,-4427,-34429,27603,0.286,-1.066,5.378,0.01068,-0.21418,0.96715,42.572,1.1,G,0.46,2.0,12.0,359.8,-38.6,15.312,0.0, ,D,'$GNGGA,161549.0,4809.11791,N,7943.20048,W,2.0,12.0,0.46,359.8,M,-38.6,M,,0131*75','$GNRMC,161549.0,A,4809.11791,N,7943.20048,W,15.312,1.06,50624.0,,,D,V*28',,,,,,,,1,0.8482745098039216,0.7801176470588235,0.5555686274509805,1.0,10.0,0,0
10821277,16:15:52.500000,9.218333333333334,2024-06-05,595200.1610055235,5334010.409575283,17,N,16:15:52.500,48.15221219,-79.72000021,54583.70405,1,-5583,-33698,27848,2.129,-1.78,-0.924,0.01273,-0.21691,0.99509,42.53,0.2,I,,,,,,,,,,,,,,,,,,,,,,,,,,,,,,,,,,,,,,,,,,,,,,1,0.8458692810457517,0.6827058823529412,0.44252287581699346,1.0,10.0,0,0
10824777,16:15:56,9.276666666666667,2024-06-05,595200.5292953328,5334038.118687299,17,N,16:15:56.000,48.15246137,-79.71998906,54601.54435,1,-6351,-33339,27931,1.883,-0.408,-3.453,-0.00977,-0.19099,0.93315,42.523,0.9,G,0.46,2.0,12.0,363.8,-38.6,15.185,0.0, ,D,'$GNGGA,161556.0,4809.14794,N,7943.19933,W,2.0,12.0,0.46,363.8,M,-38.6,M,,0131*7D','$GNRMC,161556.0,A,4809.14794,N,7943.19933,W,15.185,0.85,50624.0,,,D,V*2F',,,,,,,,1,0.8436732026143792,0.593764705882353,0.3393071895424837,1.0,10.0,0,0
10828277,16:15:59.500000,9.335,2024-06-05,595200.2117299588,5334066.092102749,17,N,16:15:59.500,48.15271303,-79.71998707,54615.80885,1,-5802,-32872,28171,2.826,-6.931,-2.449,0.02611,-0.19406,0.93517,42.485,1.2,I,,,,,,,,,,,,,,,,,,,,,,,,,,,,,,,,,,,,,,,,,,,,,,1,0.8160130718954248,0.4728758169934641,0.27372549019607845,1.0,10.0,0,0
10831777,16:16:03,9.393333333333334,2024-06-05,595200.5486705551,5334093.761783829,17,N,16:16:03.000,48.15296186,-79.71997635,54624.444,1,-6735,-34570,27194,2.725,-1.377,-1.187,-0.0057,-0.24779,0.96044,42.521,0.5,G,0.46,2.0,12.0,361.4,-38.6,15.52,0.0, ,D,'$GNGGA,161603.0,4809.17797,N,7943.19857,W,2.0,12.0,0.46,361.4,M,-38.6,M,,0131*73','$GNRMC,161603.0,A,4809.17797,N,7943.19857,W,15.52,0.51,50624.0,,,D,V*2D',,,,,,,,1,0.7961437908496732,0.3949673202614379,0.23764705882352938,1.0,10.0,0,0
10835277,16:16:06.500000,9.451666666666666,2024-06-05,595200.5616712891,5334121.852992441,17,N,16:16:06.500,48.15321453,-79.71996989,54631.736,1,-6151,-33422,27909,0.417,0.856,-8.93,0.01343,-0.20662,0.97068,42.555,1.0,I,,,,,,,,,,,,,,,,,,,,,,,,,,,,,,,,,,,,,,,,,,,,,,1,0.7782614379084967,0.32484967320261443,0.2051764705882353,1.0,10.0,0,0
10838777,16:16:10,9.51,2024-06-05,595200.7322304437,5334149.595506879,17,N,16:16:10.000,48.15346404,-79.71996139,54635.4693,1,-7187,-33591,27560,4.053,2.201,-11.447,0.02924,-0.18019,0.98212,42.553,0.9,G,0.46,2.0,12.0,358.3,-38.6,15.49,0.0, ,D,'$GNGGA,161610.0,4809.2081,N,7943.19767,W,2.0,12.0,0.46,358.3,M,-38.6,M,,0131*74','$GNRMC,161610.0,A,4809.2081,N,7943.19767,W,15.49,0.93,50624.0,,,D,V*23',,,,,,,,1,0.7683267973856209,0.2858954248366013,0.18713725490196076,1.0,10.0,0,0
10842277,16:16:13.500000,9.568333333333333,2024-06-05,595200.8465292853,5334177.454933383,17,N,16:16:13.500,48.15371461,-79.71995362,54636.97665,1,-8182,-34645,26869,-0.165,-0.042,-8.745,0.07223,-0.21784,0.95299,42.498,1.6,I,,,,,,,,,,,,,,,,,,,,,,,,,,,,,,,,,,,,,,,,,,,,,,1,0.7663398692810457,0.2781045751633987,0.18352941176470589,1.0,10.0,0,0
10845777,16:16:17,9.626666666666667,2024-06-05,595200.658673519,5334205.366031748,17,N,16:16:17.000,48.15396569,-79.7199499,54640.47755,1,-5946,-34626,27443,-1.607,-4.218,-4.093,0.07632,-0.22591,0.9688,42.475,1.2,G,0.46,2.0,12.0,361.7,-38.6,15.268,0.0, ,D,'$GNGGA,161617.0,4809.2382,N,7943.19698,W,2.0,12.0,0.46,361.7,M,-38.6,M,,0131*7C','$GNRMC,161617.0,A,4809.2382,N,7943.19698,W,15.268,1.18,50624.0,,,D,V*26',,,,,,,,1,0.7583921568627451,0.24694117647058828,0.16909803921568628,1.0,10.0,0,0
10849277,16:16:20.500000,9.685,2024-06-05,595200.3744454144,5334233.480092168,17,N,16:16:20.500,48.15421861,-79.71994743,54646.0201,1,-5962,-33887,27669,-7.55,7.892,0.092,0.1011,-0.21818,0.94555,42.53,359.9,I,,,,,,,,,,,,,,,,,,,,,,,,,,,,,,,,,,,,,,,,,,,,,,1,0.7444836601307189,0.1924052287581699,0.14384313725490194,1.0,10.0,0,0
10852777,16:16:24,9.743333333333334,2024-06-05,595200.0884487092,5334261.610800885,17,N,16:16:24.000,48.15447168,-79.71994498,54652.30055,1,-4609,-32722,28393,-0.116,1.389,-4.171,0.04069,-0.20615,0.94097,42.469,359.0,G,0.46,2.0,12.0,364.4,-38.6,15.608,0.0, ,D,'$GNGGA,161624.0,4809.26856,N,7943.1967,W,2.0,12.0,0.46,364.4,M,-38.6,M,,0131*78','$GNRMC,161624.0,A,4809.26856,N,7943.1967,W,15.608,358.97,50624.0,,,D,V*2E',,,,,,,,1,0.7305751633986928,0.1378692810457517,0.11858823529411765,1.0,10.0,0,0
10856277,16:16:27.500000,9.801666666666668,2024-06-05,595200.1670994734,5334289.24172703,17,N,16:16:27.500,48.1547202,-79.71993774,54656.1966,1,-5663,-33464,27895,1.96,-1.311,3.283,0.034,-0.20284,0.97846,42.484,1.2,I,,,,,,,,,,,,,,,,,,,,,,,,,,,,,,,,,,,,,,,,,,,,,,1,0.7206405228758169,0.09891503267973854,0.10054901960784314,1.0,10.0,0,0
11231277,16:22:42.500000,16.051666666666666,2024-06-05,595251.0958104526,5331718.284301627,17,N,16:22:42.500,48.13158755,-79.71982836,54464.0239,1,-3585,-32520,28606,-8.782,-12.181,11.799,0.19883,-0.91464,0.58723,40.076,183.2,I,,,,,,,,,,,,,,,,,,,,,,,,,,,,,,,,,,,,,,,,,,,,,,2,0.2370326797385621,0.5025490196078432,0.6038954248366013,1.0,10.0,0,0
11227777,16:22:39,15.993333333333334,2024-06-05,595249.7942276055,5331746.990570002,17,N,16:22:39.000,48.13184595,-79.71983943,54459.61865,1,-6611,-28158,30075,-10.224,10.867,-14.738,0.09842,-0.61952,0.66904,40.123,182.0,G,0.46,2.0,12.0,373.2,-38.6,15.914,0.0, ,D,'$GNGGA,162239.0,4807.9105,N,7943.19039,W,2.0,12.0,0.46,373.2,M,-38.6,M,,0131*74','$GNRMC,162239.0,A,4807.9105,N,7943.19039,W,15.914,181.96,50624.0,,,D,V*27',,,,,,,,2,0.2035686274509804,0.4790196078431372,0.6096470588235293,1.0,10.0,0,0
11224277,16:22:35.500000,15.935,2024-06-05,595249.7195235972,5331774.601047411,17,N,16:22:35.500,48.13209431,-79.71983426,54456.9557,1,-6490,-27841,30278,1.029,0.17,-3.786,0.03721,-0.61123,0.77425,40.17,181.2,I,,,,,,,,,,,,,,,,,,,,,,,,,,,,,,,,,,,,,,,,,,,,,,2,0.17679738562091504,0.4601960784313725,0.6142483660130719,1.0,10.0,0,0
11220777,16:22:32,15.876666666666667,2024-06-05,595250.0779679918,5331802.031958295,17,N,16:22:32.000,48.13234099,-79.71982331,54456.4787,1,-5179,-26674,30847,5.071,1.13,-1.4,0.17134,-0.64052,0.76112,40.146,180.8,G,0.46,2.0,12.0,367.8,-38.6,15.672,0.0, ,D,'$GNGGA,162232.0,4807.9402,N,7943.18941,W,2.0,12.0,0.46,367.8,M,-38.6,M,,0131*75','$GNRMC,162232.0,A,4807.9402,N,7943.18941,W,15.672,180.81,50624.0,,,D,V*21',,,,,,,,2,0.17679738562091504,0.4601960784313725,0.6142483660130719,1.0,10.0,0,0
11217277,16:22:28.500000,15.818333333333333,2024-06-05,595250.227462651,5331829.854068812,17,N,16:22:28.500,48.13259122,-79.71981508,54455.70555,1,-5270,-26868,30757,-3.364,1.067,-11.064,0.22551,-0.6532,0.7772,40.184,180.6,I,,,,,,,,,,,,,,,,,,,,,,,,,,,,,,,,,,,,,,,,,,,,,,2,0.1701045751633987,0.45549019607843133,0.6153986928104574,1.0,10.0,0,0
11213777,16:22:25,15.76,2024-06-05,595250.3406964592,5331858.06580573,17,N,16:22:25.000,48.13284496,-79.71980725,54456.19405,1,-4146,-26739,30854,1.261,-0.045,-2.099,0.11918,-0.51683,0.78083,40.234,181.3,G,0.46,2.0,12.0,361.1,-38.6,15.589,0.0, ,D,'$GNGGA,162225.0,4807.97044,N,7943.18845,W,2.0,12.0,0.46,361.1,M,-38.6,M,,0131*78','$GNRMC,162225.0,A,4807.97044,N,7943.18845,W,15.589,181.33,50624.0,,,D,V*2C',,,,,,,,2,0.17679738562091504,0.4601960784313725,0.6142483660130719,1.0,10.0,0,0
11210277,16:22:21.500000,15.701666666666666,2024-06-05,595249.868352247,5331885.733041172,17,N,16:22:21.500,48.13309389,-79.71980741,54459.48345,1,-6668,-27540,30319,2.207,0.091,0.733,0.17536,-0.61349,0.8352,40.237,181.4,I,,,,,,,,,,,,,,,,,,,,,,,,,,,,,,,,,,,,,,,,,,,,,,2,0.2035686274509804,0.4790196078431372,0.6096470588235293,1.0,10.0,0,0
11206777,16:22:18,15.643333333333334,2024-06-05,595249.9505223638,5331913.261641683,17,N,16:22:18.000,48.13334149,-79.71980015,54468.6941,1,-6401,-25342,31000,-3.02,3.911,-7.792,0.15203,-0.56742,0.76675,40.259,180.6,G,0.46,2.0,12.0,355.3,-38.6,15.379,0.0, ,D,'$GNGGA,162218.0,4808.00023,N,7943.18802,W,2.0,12.0,0.46,355.3,M,-38.6,M,,0131*70','$GNRMC,162218.0,A,4808.00023,N,7943.18802,W,15.379,180.63,50624.0,,,D,V*2C',,,,,,,,2,0.2771895424836601,0.5307843137254902,0.5969934640522876,1.0,10.0,0,0
11203277,16:22:14.500000,15.585,2024-06-05,595250.2438664695,5331941.337409673,17,N,16:22:14.500,48.13359398,-79.71978993,54467.9829,1,-3878,-28078,30494,-3.665,-1.959,5.023,0.07846,-0.51522,0.76844,40.293,179.7,I,,,,,,,,,,,,,,,,,,,,,,,,,,,,,,,,,,,,,,,,,,,,,,2,0.2704967320261438,0.5260784313725491,0.5981437908496732,1.0,10.0,0,0
11199777,16:22:11,15.526666666666667,2024-06-05,595250.1022017917,5331968.005118858,17,N,16:22:11.000,48.13383387,-79.71978587,54470.0396,1,-6192,-24627,31308,-13.231,-7.24,-4.325,0.09795,-0.67502,0.70019,40.291,180.0,G,0.46,2.0,12.0,350.7,-38.6,16.199,0.0, ,D,'$GNGGA,162211.0,4808.02977,N,7943.18716,W,2.0,12.0,0.46,350.7,M,-38.6,M,,0131*78','$GNRMC,162211.0,A,4808.02977,N,7943.18716,W,16.199,179.99,50624.0,,,D,V*29',,,,,,,,2,0.29057516339869277,0.5401960784313725,0.5946928104575163,1.0,10.0,0,0
11196277,16:22:07.500000,15.468333333333334,2024-06-05,595250.8755196623,5331998.89941298,17,N,16:22:07.500,48.13411164,-79.71976857,54472.99195,1,-4236,-25344,31249,-3.418,-1.611,-5.002,0.19438,-0.62166,0.76861,40.355,180.7,I,,,,,,,,,,,,,,,,,,,,,,,,,,,,,,,,,,,,,,,,,,,,,,2,0.3106535947712418,0.5543137254901961,0.5912418300653595,1.0,10.0,0,0
11192777,16:22:04,15.41,2024-06-05,595250.1745841814,5332029.2555388985,17,N,16:22:04.000,48.13438479,-79.7197712,54468.681,1,-6441,-28424,29968,7.097,-4.458,-16.413,0.15972,-0.65111,0.80144,40.348,181.6,G,0.46,2.0,12.0,352.2,-38.6,16.112,0.0, ,D,'$GNGGA,162204.0,4808.06283,N,7943.18629,W,2.0,12.0,0.46,352.2,M,-38.6,M,,0131*72','$GNRMC,162204.0,A,4808.06283,N,7943.18629,W,16.112,181.6,50624.0,,,D,V*26',,,,,,,,2,0.2771895424836601,0.5307843137254902,0.5969934640522876,1.0,10.0,0,0
11189277,16:22:00.500000,15.351666666666667,2024-06-05,595249.7114400165,5332056.905146684,17,N,16:22:00.500,48.13463356,-79.71977124,54478.11425,1,-6840,-29055,29661,1.917,5.425,-7.28,0.13117,-0.64386,0.7334,40.368,180.6,I,,,,,,,,,,,,,,,,,,,,,,,,,,,,,,,,,,,,,,,,,,,,,,2,0.3575032679738562,0.5872549019607843,0.5831895424836602,1.0,10.0,0,0
11185777,16:21:57,15.293333333333333,2024-06-05,595249.853472224,5332083.338553449,17,N,16:21:57.000,48.1348713,-79.71976342,54488.4952,1,-6085,-28551,30014,2.626,-0.383,-4.162,0.17044,-0.61466,0.77856,40.394,181.2,G,0.46,2.0,12.0,353.0,-38.6,14.251,0.0, ,D,'$GNGGA,162157.0,4808.09202,N,7943.18582,W,2.0,12.0,0.46,353.0,M,-38.6,M,,0131*70','$GNRMC,162157.0,A,4808.09202,N,7943.18582,W,14.251,181.22,50624.0,,,D,V*27',,,,,,,,2,0.4378169934640523,0.6437254901960784,0.5693856209150326,1.0,10.0,0,0
11182277,16:21:53.500000,15.235000000000001,2024-06-05,595249.7504997599,5332108.305915913,17,N,16:21:53.500,48.13509589,-79.71975922,54496.4067,1,-5931,-28974,29886,0.44,-0.465,-1.528,0.17968,-0.64193,0.7399,40.42,179.4,I,,,,,,,,,,,,,,,,,,,,,,,,,,,,,,,,,,,,,,,,,,,,,,2,0.5047450980392156,0.6907843137254902,0.5578823529411765,1.0,10.0,0,0
11178777,16:21:50,15.176666666666668,2024-06-05,595249.522380506,5332131.178859204,17,N,16:21:50.000,48.13530166,-79.71975717,54502.4782,1,-7178,-28211,29924,9.87,0.392,-3.849,0.22808,-0.6662,0.76109,40.449,179.1,G,0.46,2.0,12.0,353.0,-38.6,12.975,0.0, ,D,'$GNGGA,162150.0,4808.11784,N,7943.18543,W,2.0,12.0,0.46,353.0,M,-38.6,M,,0131*78','$GNRMC,162150.0,A,4808.11784,N,7943.18543,W,12.975,179.14,50624.0,,,D,V*26',,,,,,,,2,0.5582875816993463,0.7284313725490197,0.5486797385620915,1.0,10.0,0,0
11175277,16:21:46.500000,15.118333333333334,2024-06-05,595249.9221311172,5332154.780451879,17,N,16:21:46.500,48.13551389,-79.71974652,54504.1695,1,-6372,-28310,30078,1.217,-1.359,4.784,0.17751,-0.58895,0.82545,40.484,181.9,I,,,,,,,,,,,,,,,,,,,,,,,,,,,,,,,,,,,,,,,,,,,,,,2,0.5710980392156861,0.7371111111111112,0.5470196078431373,1.0,10.0,0,0
11171777,16:21:43,15.06,2024-06-05,595249.7056429446,5332178.832058993,17,N,16:21:43.000,48.13573026,-79.71974405,54500.6627,1,-6897,-28436,29987,-0.197,-4.457,-4.564,0.13739,-0.53312,0.7868,40.496,185.6,G,0.46,2.0,12.0,352.9,-38.6,12.872,0.0, ,D,'$GNGGA,162143.0,4808.14356,N,7943.18469,W,2.0,12.0,0.46,352.9,M,-38.6,M,,0131*75','$GNRMC,162143.0,A,4808.14356,N,7943.18469,W,12.872,185.64,50624.0,,,D,V*21',,,,,,,,2,0.5382091503267975,0.7143137254901961,0.5521307189542484,1.0,10.0,0,0
11168277,16:21:39.500000,15.001666666666667,2024-06-05,595250.1214975239,5332202.135969269,17,N,16:21:39.500,48.13593981,-79.71973325,54494.4752,1,-5337,-29217,29928,-0.344,-3.169,-6.564,0.19676,-0.62621,0.75175,40.504,182.1,I,,,,,,,,,,,,,,,,,,,,,,,,,,,,,,,,,,,,,,,,,,,,,,2,0.491359477124183,0.6813725490196079,0.5601830065359478,1.0,10.0,0,0
11164777,16:21:36,14.943333333333333,2024-06-05,595249.9597506566,5332227.145717146,17,N,16:21:36.000,48.13616479,-79.71972983,54484.0484,1,-5695,-29829,29552,-8.157,-14.512,25.405,0.23352,-0.60114,0.65314,40.557,183.3,G,0.47,2.0,12.0,351.8,-38.6,14.439,0.0, ,D,'$GNGGA,162136.0,4808.16963,N,7943.18382,W,2.0,12.0,0.47,351.8,M,-38.6,M,,0131*78','$GNRMC,162136.0,A,4808.16963,N,7943.18382,W,14.439,183.31,50624.0,,,D,V*2C',,,,,,,,2,0.4043529411764706,0.6201960784313726,0.5751372549019608,1.0,10.0,0,0
11161277,16:21:32.500000,14.885,2024-06-05,595250.2155124194,5332252.555979069,17,N,16:21:32.500,48.13639331,-79.71972071,54474.55725,1,-5578,-29478,29783,-16.703,-0.753,-17.329,0.20744,-0.61097,0.70826,40.575,181.6,I,,,,,,,,,,,,,,,,,,,,,,,,,,,,,,,,,,,,,,,,,,,,,,2,0.32403921568627453,0.5637254901960784,0.5889411764705882,1.0,10.0,0,0
11157777,16:21:29,14.826666666666666,2024-06-05,595249.8671504331,5332278.583221351,17,N,16:21:29.000,48.13662747,-79.71971957,54466.5172,1,-6008,-28874,29982,-1.406,-0.621,6.392,0.16536,-0.62758,0.73143,40.573,178.4,G,0.47,2.0,12.0,350.2,-38.6,13.501,0.0, ,D,'$GNGGA,162129.0,4808.19739,N,7943.18317,W,2.0,12.0,0.47,350.2,M,-38.6,M,,0131*7F','$GNRMC,162129.0,A,4808.19739,N,7943.18317,W,13.501,178.44,50624.0,,,D,V*2B',,,,,,,,2,0.25711111111111107,0.5166666666666666,0.6004444444444444,1.0,10.0,0,0
11154277,16:21:25.500000,14.768333333333334,2024-06-05,595249.9755534701,5332304.351244034,17,N,16:21:25.500,48.13685923,-79.71971235,54462.34635,1,-5970,-29151,29865,-3.559,-0.911,9.41,0.16196,-0.69943,0.69447,40.615,181.2,I,,,,,,,,,,,,,,,,,,,,,,,,,,,,,,,,,,,,,,,,,,,,,,2,0.2236470588235294,0.49313725490196075,0.6061960784313726,1.0,10.0,0,0
11150777,16:21:22,14.71,2024-06-05,595250.4637221656,5332330.551394059,17,N,16:21:22.000,48.13709482,-79.71969993,54465.9197,1,-5273,-27486,30449,4.472,-5.092,-4.144,0.11488,-0.7087,0.80663,40.643,184.0,G,0.47,2.0,12.0,348.3,-38.6,14.993,0.0, ,D,'$GNGGA,162122.0,4808.22543,N,7943.18203,W,2.0,12.0,0.47,348.3,M,-38.6,M,,0131*7F','$GNRMC,162122.0,A,4808.22543,N,7943.18203,W,14.993,183.99,50624.0,,,D,V*27',,,,,,,,2,0.25711111111111107,0.5166666666666666,0.6004444444444444,1.0,10.0,0,0
11147277,16:21:18.500000,14.651666666666667,2024-06-05,595250.2761824036,5332356.081023006,17,N,16:21:18.500,48.13732448,-79.71969674,54470.1149,1,-4583,-29214,29995,-0.302,-3.478,16.156,0.11404,-0.59233,0.73431,40.73,179.9,I,,,,,,,,,,,,,,,,,,,,,,,,,,,,,,,,,,,,,,,,,,,,,,2,0.29057516339869277,0.5401960784313725,0.5946928104575163,1.0,10.0,0,0
11143777,16:21:15,14.593333333333334,2024-06-05,595249.817873029,5332380.0841424195,17,N,16:21:15.000,48.13754045,-79.71969753,54477.4928,1,-4704,-28818,30198,-4.593,-1.824,-13.899,0.16575,-0.49954,0.78073,40.707,178.9,G,0.47,2.0,12.0,347.2,-38.6,13.003,0.0, ,D,'$GNGGA,162115.0,4808.25217,N,7943.18185,W,2.0,12.0,0.47,347.2,M,-38.6,M,,0131*79','$GNRMC,162115.0,A,4808.25217,N,7943.18185,W,13.003,178.88,50624.0,,,D,V*2C',,,,,,,,2,0.3508104575163399,0.5825490196078431,0.5843398692810458,1.0,10.0,0,0
11140277,16:21:11.500000,14.535,2024-06-05,595249.8177403011,5332403.87698332,17,N,16:21:11.500,48.13775446,-79.71969221,54485.00925,1,-7193,-27445,30245,-0.455,-4.25,-7.104,0.23506,-0.4565,0.81427,40.703,185.4,I,,,,,,,,,,,,,,,,,,,,,,,,,,,,,,,,,,,,,,,,,,,,,,2,0.4110457516339869,0.6249019607843137,0.5739869281045751,1.0,10.0,0,0
11136777,16:21:08,14.476666666666667,2024-06-05,595250.0146922659,5332428.302363583,17,N,16:21:08.000,48.13797413,-79.7196841,54487.9267,1,-4407,-30065,29620,9.017,1.116,-2.34,0.15737,-0.63216,0.75692,40.728,178.3,G,0.47,2.0,12.0,346.3,-38.6,14.141,0.0, ,D,'$GNGGA,162108.0,4808.27819,N,7943.18104,W,2.0,12.0,0.47,346.3,M,-38.6,M,,0131*7A','$GNRMC,162108.0,A,4808.27819,N,7943.18104,W,14.141,178.27,50624.0,,,D,V*2A',,,,,,,,2,0.4378169934640523,0.6437254901960784,0.5693856209150326,1.0,10.0,0,0
11133277,16:21:04.500000,14.418333333333333,2024-06-05,595249.6942132461,5332454.664717973,17,N,16:21:04.500,48.1382113,-79.71968251,54490.43045,1,-6617,-29141,29782,7.047,-3.19,17.608,0.11109,-0.51692,0.79176,40.777,183.4,I,,,,,,,,,,,,,,,,,,,,,,,,,,,,,,,,,,,,,,,,,,,,,,2,0.4578954248366013,0.657843137254902,0.5659346405228758,1.0,10.0,0,0
11129777,16:21:01,14.360000000000001,2024-06-05,595250.2010571052,5332482.02030779,17,N,16:21:01.000,48.13845728,-79.71966958,54495.2959,1,-5910,-28976,29962,-14.441,-2.484,28.022,0.18111,-0.60274,0.7845,40.787,180.9,G,0.47,2.0,12.0,345.8,-38.6,13.744,0.0, ,D,'$GNGGA,162101.0,4808.30718,N,7943.18019,W,2.0,12.0,0.47,345.8,M,-38.6,M,,0131*7E','$GNRMC,162101.0,A,4808.30718,N,7943.18019,W,13.744,180.89,50624.0,,,D,V*21',,,,,,,,2,0.4980522875816993,0.686078431372549,0.5590326797385622,1.0,10.0,0,0
11126277,16:20:57.500000,14.301666666666668,2024-06-05,595249.9316097207,5332508.043314302,17,N,16:20:57.500,48.13869139,-79.71966738,54501.28095,1,-5282,-25072,31284,-9.318,3.218,-22.022,0.16749,-0.65885,0.76333,40.84,180.9,I,,,,,,,,,,,,,,,,,,,,,,,,,,,,,,,,,,,,,,,,,,,,,,2,0.5449019607843137,0.7190196078431372,0.5509803921568628,1.0,10.0,0,0
11122777,16:20:54,14.243333333333334,2024-06-05,595249.5916779293,5332534.768894879,17,N,16:20:54.000,48.13893183,-79.71966597,54503.68665,1,-5886,-24731,31220,18.273,8.006,-18.309,-0.00102,-0.66706,0.816,40.816,184.8,G,0.47,2.0,12.0,345.3,-38.6,14.434,0.0, ,D,'$GNGGA,162054.0,4808.33565,N,7943.18,W,2.0,12.0,0.47,345.3,M,-38.6,M,,0131*77','$GNRMC,162054.0,A,4808.33565,N,7943.18,W,14.434,184.79,50624.0,,,D,V*2B',,,,,,,,2,0.5649803921568627,0.7331372549019607,0.5475294117647059,1.0,10.0,0,0
11119277,16:20:50.500000,14.185,2024-06-05,595250.619624346,5332563.27272015,17,N,16:20:50.500,48.13918806,-79.71964578,54507.35765,1,-3493,-23791,31884,16.41,1.716,-4.926,0.11593,-0.5254,0.83917,40.866,181.8,I,,,,,,,,,,,,,,,,,,,,,,,,,,,,,,,,,,,,,,,,,,,,,,2,0.5886666666666667,0.7442222222222222,0.5526666666666668,1.0,10.0,0,0
11115777,16:20:47,14.126666666666667,2024-06-05,595250.5714504564,5332591.960975226,17,N,16:20:47.000,48.13944611,-79.71964001,54506.356,1,-1754,-26797,31081,-6.335,-7.866,0.079,0.06869,-0.50007,0.78555,40.879,178.9,G,0.47,2.0,12.0,346.2,-38.6,14.865,0.0, ,D,'$GNGGA,162047.0,4808.36651,N,7943.1784,W,2.0,12.0,0.47,346.2,M,-38.6,M,,0131*75','$GNRMC,162047.0,A,4808.36651,N,7943.1784,W,14.865,178.9,50624.0,,,D,V*27',,,,,,,,2,0.5798823529411764,0.7406666666666666,0.549843137254902,1.0,10.0,0,0
11112277,16:20:43.500000,14.068333333333333,2024-06-05,595249.826124589,5332619.346869436,17,N,16:20:43.500,48.13969255,-79.7196439,54506.3262,1,-7248,-24584,31139,7.765,-7.581,3.931,0.12275,-0.60202,0.87535,40.906,182.2,I,,,,,,,,,,,,,,,,,,,,,,,,,,,,,,,,,,,,,,,,,,,,,,2,0.5798823529411764,0.7406666666666666,0.549843137254902,1.0,10.0,0,0
11108777,16:20:40,14.01,2024-06-05,595250.6289738064,5332646.038112828,17,N,16:20:40.000,48.13993251,-79.71962714,54523.2112,1,-3860,-16196,33363,-2.559,1.957,-3.09,0.13639,-0.4215,0.87997,40.91,179.5,G,0.47,2.0,12.0,347.3,-38.6,15.068,0.0, ,D,'$GNGGA,162040.0,4808.39569,N,7943.17763,W,2.0,12.0,0.47,347.3,M,-38.6,M,,0131*7B','$GNRMC,162040.0,A,4808.39569,N,7943.17763,W,15.068,179.47,50624.0,,,D,V*26',,,,,,,,2,0.6721176470588235,0.778,0.5794901960784314,1.0,10.0,0,0
11105277,16:20:36.500000,13.951666666666666,2024-06-05,595250.6578134454,5332674.300736562,17,N,16:20:36.500,48.14018672,-79.71962043,54519.4168,1,-4672,-17160,33011,2.439,-1.151,-1.913,0.16988,-0.4186,0.92152,40.949,181.9,I,,,,,,,,,,,,,,,,,,,,,,,,,,,,,,,,,,,,,,,,,,,,,,2,0.6545490196078431,0.7708888888888888,0.573843137254902,1.0,10.0,0,0
11101777,16:20:33,13.893333333333334,2024-06-05,595250.7300135778,5332702.103813245,17,N,16:20:33.000,48.14043679,-79.71961324,54513.60505,1,-3301,-18938,32881,-4.256,-1.488,-12.404,0.10289,-0.47832,0.89585,40.951,185.7,G,0.47,2.0,12.0,350.9,-38.6,13.951,0.0, ,D,'$GNGGA,162033.0,4808.42595,N,7943.17684,W,2.0,12.0,0.47,350.9,M,-38.6,M,,0131*74','$GNRMC,162033.0,A,4808.42595,N,7943.17684,W,13.951,185.69,50624.0,,,D,V*2F',,,,,,,,2,0.6194117647058823,0.7566666666666667,0.5625490196078431,1.0,10.0,0,0
11098277,16:20:29.500000,13.835,2024-06-05,595250.2633027518,5332730.319278709,17,N,16:20:29.500,48.14069065,-79.7196132,54503.3011,1,-6541,-22257,31948,-20.775,5.518,5.324,0.11402,-0.54662,0.79051,40.973,180.3,I,,,,,,,,,,,,,,,,,,,,,,,,,,,,,,,,,,,,,,,,,,,,,,2,0.5649803921568627,0.7331372549019607,0.5475294117647059,1.0,10.0,0,0
11094777,16:20:26,13.776666666666667,2024-06-05,595250.5315314162,5332758.817138257,17,N,16:20:26.000,48.14094694,-79.71960322,54502.33225,1,-3571,-21917,32394,2.888,-5.683,-11.61,0.17165,-0.382,0.80312,41.047,177.5,G,0.47,2.0,12.0,356.3,-38.6,15.276,0.0, ,D,'$GNGGA,162026.0,4808.45656,N,7943.17618,W,2.0,12.0,0.47,356.3,M,-38.6,M,,0131*72','$GNRMC,162026.0,A,4808.45656,N,7943.17618,W,15.276,177.53,50624.0,,,D,V*29',,,,,,,,2,0.55159477124183,0.7237254901960785,0.5498300653594771,1.0,10.0,0,0
11091277,16:20:22.500000,13.718333333333334,2024-06-05,595249.9125530205,5332786.345224921,17,N,16:20:22.500,48.14119464,-79.71960538,54498.61005,1,-6923,-24567,31167,-5.211,-0.754,-4.2,0.23117,-0.52478,0.77651,41.032,182.4,I,,,,,,,,,,,,,,,,,,,,,,,,,,,,,,,,,,,,,,,,,,,,,,2,0.5248235294117647,0.7049019607843137,0.5544313725490195,1.0,10.0,0,0
11087777,16:20:19,13.66,2024-06-05,595249.9393756937,5332814.637839198,17,N,16:20:19.000,48.14144912,-79.71959869,54499.204,1,-5507,-25704,31045,-4.192,0.171,-12.258,0.15463,-0.50558,0.77739,41.095,181.9,G,0.47,2.0,12.0,355.2,-38.6,15.137,0.0, ,D,'$GNGGA,162019.0,4808.48669,N,7943.17594,W,2.0,12.0,0.47,355.2,M,-38.6,M,,0131*7A','$GNRMC,162019.0,A,4808.48669,N,7943.17594,W,15.137,181.87,50624.0,,,D,V*25',,,,,,,,2,0.531516339869281,0.7096078431372549,0.553281045751634,1.0,10.0,0,0
11084277,16:20:15.500000,13.601666666666667,2024-06-05,595250.3362159962,5332843.09670853,17,N,16:20:15.500,48.14170504,-79.71958699,54496.36895,1,-5813,-27970,30186,-4.551,0.868,-13.143,0.17289,-0.65436,0.77314,41.125,184.4,I,,,,,,,,,,,,,,,,,,,,,,,,,,,,,,,,,,,,,,,,,,,,,,2,0.5047450980392156,0.6907843137254902,0.5578823529411765,1.0,10.0,0,0
11080777,16:20:12,13.543333333333333,2024-06-05,595250.5163395623,5332870.314578235,17,N,16:20:12.000,48.14194983,-79.71957848,54504.9848,1,-4597,-22137,32140,4.156,0.204,22.087,0.19682,-0.53911,0.90811,41.123,184.0,G,0.47,2.0,12.0,351.2,-38.6,15.326,0.0, ,D,'$GNGGA,162012.0,4808.51673,N,7943.17474,W,2.0,12.0,0.47,351.2,M,-38.6,M,,0131*79','$GNRMC,162012.0,A,4808.51673,N,7943.17474,W,15.326,183.97,50624.0,,,D,V*23',,,,,,,,2,0.5754901960784313,0.7388888888888889,0.5484313725490196,1.0,10.0,0,0
11077277,16:20:08.500000,13.485000000000001,2024-06-05,595249.770985142,5332898.326406718,17,N,16:20:08.500,48.1422019,-79.71958223,54493.8373,1,-7303,-27452,30342,-11.615,-4.753,16.114,0.22745,-0.78096,0.71471,41.148,179.2,I,,,,,,,,,,,,,,,,,,,,,,,,,,,,,,,,,,,,,,,,,,,,,,2,0.48466666666666675,0.6766666666666667,0.5613333333333334,1.0,10.0,0,0
11073777,16:20:05,13.426666666666668,2024-06-05,595249.0948599695,5332926.023647849,17,N,16:20:05.000,48.14245113,-79.71958512,54492.532,1,-9846,-27952,29517,0.91,2.98,-8.964,0.10287,-0.70023,0.75557,41.197,183.5,G,0.47,2.0,12.0,352.4,-38.6,16.185,0.0, ,D,'$GNGGA,162005.0,4808.54681,N,7943.17514,W,2.0,12.0,0.47,352.4,M,-38.6,M,,0131*75','$GNRMC,162005.0,A,4808.54681,N,7943.17514,W,16.185,183.5,50624.0,,,D,V*29',,,,,,,,2,0.47128104575163404,0.6672549019607843,0.5636339869281046,1.0,10.0,0,0
11070277,16:20:01.500000,13.368333333333334,2024-06-05,595250.7289526328,5332953.327985062,17,N,16:20:01.500,48.14269648,-79.71955705,54509.43675,1,-1803,-22087,32416,-6.339,0.865,-8.812,0.14892,-0.54783,0.81529,41.198,177.9,I,,,,,,,,,,,,,,,,,,,,,,,,,,,,,,,,,,,,,,,,,,,,,,2,0.5974509803921568,0.7477777777777778,0.5554901960784314,1.0,10.0,0,0
11066777,16:19:58,13.31,2024-06-05,595250.803475566,5332980.361772557,17,N,16:19:58.000,48.14293963,-79.71955,54518.60595,1,-3731,-17810,33084,14.427,5.807,1.226,0.20186,-0.47141,0.94339,41.251,183.8,G,0.47,2.0,12.0,354.5,-38.6,14.994,0.0, ,D,'$GNGGA,161958.0,4808.57612,N,7943.17303,W,2.0,12.0,0.47,354.5,M,-38.6,M,,0131*79','$GNRMC,161958.0,A,4808.57612,N,7943.17303,W,14.994,183.76,50624.0,,,D,V*2C',,,,,,,,2,0.6501568627450979,0.7691111111111111,0.5724313725490197,1.0,10.0,0,0
11063277,16:19:54.500000,13.251666666666667,2024-06-05,595251.298381602,5333008.42427124,17,N,16:19:54.500,48.14319197,-79.71953707,54518.6603,1,-1252,-16489,33565,-7.518,2.576,-12.656,0.12305,-0.37442,0.92532,41.242,182.9,I,,,,,,,,,,,,,,,,,,,,,,,,,,,,,,,,,,,,,,,,,,,,,,2,0.6501568627450979,0.7691111111111111,0.5724313725490197,1.0,10.0,0,0
