Counter,UTC_time_stamps,elapsed_time_minutes,Date,UTME,UTMN,UTM_zone,UTM_letter,Time,Latitude,Longitude,Mag_TMI_nT,Mag_Lock,CompassX,CompassY,CompassZ,GyroscopeX,GyroscopeY,GyroscopeZ,AccelerometerX,AccelerometerY,AccelerometerZ,ImuTemperature,Track,LocationSource,Hdop,FixQuality,SatellitesUsed,Altitude,HeightOverEllipsoid,SpeedOverGround,MagneticVariation,VariationDirection,ModeIndicator,GgaSentence,RmcSentence,EventCode,EventInfo,EventDataLength,EventData,uk1,uk2,uk3,uk4,uk5,uk6,uk7,uk8,uk9,uk10,uk11,uk12,uk13,uk14,uk15,uk16,uk17,uk18,uk19,uk20,uk21,uk22,uk23,uk24,uk25,uk26,uk27,uk28,uk29,uk30,Flightline,r,g,b,a,size,range_noise,noise_bad
4308777,14:27:20,3.643333333333333,2024-06-05,595700.8812566646,5331701.789563859,17,N,14:27:20.000,48.1313717,-79.71378854,54683.71635,1,-3887,-35018,27321,1.583,-0.228,13.071,-0.00376,-0.24228,0.94178,38.551,2.3,G,0.51,2.0,12.0,375.7,-38.6,14.711,0.0, ,D,'$GNGGA,142720.0,4807.88256,N,7942.82729,W,2.0,12.0,0.51,375.7,M,-38.6,M,,0131*77','$GNRMC,142720.0,A,4807.88256,N,7942.82729,W,14.711,2.25,50624.0,,,D,V*29',,,,,,,,1,0.6633333333333333,0.7744444444444444,0.5766666666666667,1.0,10.0,0,0
4312277,14:27:23.500000,3.7016666666666667,2024-06-05,595701.0085012274,5331729.789257384,17,N,14:27:23.500,48.13162353,-79.71378054,54675.2377,1,-2793,-34551,27668,-1.788,-3.758,14.668,0.03775,-0.24018,0.95975,38.59,1.6,I,,,,,,,,,,,,,,,,,,,,,,,,,,,,,,,,,,,,,,,,,,,,,,1,0.6413725490196078,0.7655555555555555,0.5696078431372549,1.0,10.0,0,0
4315777,14:27:27,3.76,2024-06-05,595701.093771563,5331757.583685749,17,N,14:27:27.000,48.13187352,-79.71377315,54666.3002,1,-3364,-35966,26801,-9.233,9.52,13.479,0.03616,-0.24717,0.99694,38.582,0.4,G,0.51,2.0,12.0,370.2,-38.6,16.033,0.0, ,D,'$GNGGA,142727.0,4807.91267,N,7942.82638,W,2.0,12.0,0.51,370.2,M,-38.6,M,,0131*7B','$GNRMC,142727.0,A,4807.91267,N,7942.82638,W,16.033,0.42,50624.0,,,D,V*23',,,,,,,,1,0.6194117647058823,0.7566666666666667,0.5625490196078431,1.0,10.0,0,0
4319277,14:27:30.500000,3.8183333333333334,2024-06-05,595700.7496754262,5331785.418742188,17,N,14:27:30.500,48.13212394,-79.71377152,54655.8275,1,-2598,-34524,27674,-8.865,-5.697,12.214,-0.00113,-0.19938,0.9553,38.587,359.3,I,,,,,,,,,,,,,,,,,,,,,,,,,,,,,,,,,,,,,,,,,,,,,,1,0.5974509803921568,0.7477777777777778,0.5554901960784314,1.0,10.0,0,0
4322777,14:27:34,3.8766666666666665,2024-06-05,595700.6997599404,5331813.018577456,17,N,14:27:34.000,48.1323722,-79.71376599,54647.85995,1,-2783,-35434,27070,-0.526,-1.386,9.873,-0.03553,-0.22035,0.96039,38.602,0.3,G,0.52,2.0,12.0,364.4,-38.6,15.427,0.0, ,D,'$GNGGA,142734.0,4807.94259,N,7942.82595,W,2.0,12.0,0.52,364.4,M,-38.6,M,,0131*75','$GNRMC,142734.0,A,4807.94259,N,7942.82595,W,15.427,0.33,50624.0,,,D,V*29',,,,,,,,1,0.5754901960784313,0.7388888888888889,0.5484313725490196,1.0,10.0,0,0
4326277,14:27:37.500000,3.935,2024-06-05,595700.7473850189,5331840.971362564,17,N,14:27:37.500,48.13262362,-79.71375907,54642.29375,1,-2570,-34797,27527,-2.678,-1.928,3.061,-0.02406,-0.20197,0.96664,38.564,2.7,I,,,,,,,,,,,,,,,,,,,,,,,,,,,,,,,,,,,,,,,,,,,,,,1,0.5582875816993463,0.7284313725490197,0.5486797385620915,1.0,10.0,0,0
4329777,14:27:41,3.993333333333333,2024-06-05,595700.5813036496,5331868.97505215,17,N,14:27:41.000,48.13287553,-79.71375501,54639.5463,1,-1551,-34521,27764,0.457,0.032,0.498,-0.0023,-0.21219,0.96279,38.637,2.1,G,0.52,2.0,12.0,359.9,-38.6,15.298,0.0, ,D,'$GNGGA,142741.0,4807.97279,N,7942.82528,W,2.0,12.0,0.52,359.9,M,-38.6,M,,0131*73','$GNRMC,142741.0,A,4807.97279,N,7942.82528,W,15.298,2.07,50624.0,,,D,V*2B',,,,,,,,1,0.55159477124183,0.7237254901960785,0.5498300653594771,1.0,10.0,0,0
4333277,14:27:44.500000,4.051666666666667,2024-06-05,595700.4168298169,5331896.570752169,17,N,14:27:44.500,48.13312377,-79.71375102,54636.4493,1,-1700,-35477,27198,0.647,0.108,2.955,-0.00107,-0.21596,0.97648,38.564,0.6,I,,,,,,,,,,,,,,,,,,,,,,,,,,,,,,,,,,,,,,,,,,,,,,1,0.5382091503267975,0.7143137254901961,0.5521307189542484,1.0,10.0,0,0
4336777,14:27:48,4.11,2024-06-05,595700.8813966864,5331924.422671593,17,N,14:27:48.000,48.13337422,-79.71373852,54631.64585,1,-1154,-37616,25873,-3.569,-5.057,5.097,0.01698,-0.24335,0.97758,38.58,2.1,G,0.52,2.0,12.0,356.0,-38.6,15.218,0.0, ,D,'$GNGGA,142748.0,4808.00271,N,7942.82429,W,2.0,12.0,0.52,356.0,M,-38.6,M,,0131*75','$GNRMC,142748.0,A,4808.00271,N,7942.82429,W,15.218,2.13,50624.0,,,D,V*26',,,,,,,,1,0.5248235294117647,0.7049019607843137,0.5544313725490195,1.0,10.0,0,0
4340277,14:27:51.500000,4.168333333333333,2024-06-05,595700.7724413933,5331952.703037923,17,N,14:27:51.500,48.13362861,-79.71373363,54621.39275,1,-1804,-36055,26733,0.097,1.899,0.818,0.00853,-0.2463,0.97503,38.567,1.0,I,,,,,,,,,,,,,,,,,,,,,,,,,,,,,,,,,,,,,,,,,,,,,,1,0.48466666666666675,0.6766666666666667,0.5613333333333334,1.0,10.0,0,0
4343777,14:27:55,4.226666666666667,2024-06-05,595700.0964527369,5331980.623718104,17,N,14:27:55.000,48.13387985,-79.71373644,54611.25825,1,-1206,-35915,26892,-1.832,2.203,-4.328,-0.01368,-0.25401,0.94411,38.577,358.8,G,0.52,2.0,12.0,353.5,-38.6,15.208,0.0, ,D,'$GNGGA,142755.0,4808.03305,N,7942.82419,W,2.0,12.0,0.52,353.5,M,-38.6,M,,0131*7B','$GNRMC,142755.0,A,4808.03305,N,7942.82419,W,15.208,358.79,50624.0,,,D,V*29',,,,,,,,1,0.4445098039215686,0.6484313725490196,0.5682352941176471,1.0,10.0,0,0
4347277,14:27:58.500000,4.285,2024-06-05,595700.2662233784,5332008.524076886,17,N,14:27:58.500,48.13413078,-79.71372789,54602.21765,1,-2035,-35154,27239,0.305,-1.496,5.686,-0.01511,-0.25267,0.9617,38.619,1.1,I,,,,,,,,,,,,,,,,,,,,,,,,,,,,,,,,,,,,,,,,,,,,,,1,0.4110457516339869,0.6249019607843137,0.5739869281045751,1.0,10.0,0,0
4350777,14:28:02,4.343333333333334,2024-06-05,595700.4024341886,5332036.606205323,17,N,14:28:02.000,48.13438335,-79.71371975,54601.67655,1,-1806,-34844,27462,-0.109,-2.492,8.564,-0.03864,-0.24987,0.95176,38.623,1.2,G,0.52,2.0,12.0,351.5,-38.6,15.828,0.0, ,D,'$GNGGA,142802.0,4808.06326,N,7942.82317,W,2.0,12.0,0.52,351.5,M,-38.6,M,,0131*79','$GNRMC,142802.0,A,4808.06326,N,7942.82317,W,15.828,1.22,50624.0,,,D,V*20',,,,,,,,1,0.4110457516339869,0.6249019607843137,0.5739869281045751,1.0,10.0,0,0
4354277,14:28:05.500000,4.401666666666667,2024-06-05,595700.5784538423,5332064.265418253,17,N,14:28:05.500,48.13463211,-79.71371117,54608.6716,1,-1913,-36803,26260,-5.059,-2.609,-1.081,-0.01191,-0.28305,0.93841,38.641,2.1,I,,,,,,,,,,,,,,,,,,,,,,,,,,,,,,,,,,,,,,,,,,,,,,1,0.4378169934640523,0.6437254901960784,0.5693856209150326,1.0,10.0,0,0
4357777,14:28:09,4.46,2024-06-05,595700.7041328031,5332091.774814185,17,N,14:28:09.000,48.13487953,-79.7137033,54614.9656,1,-3035,-38695,24889,1.349,0.155,-2.334,0.01401,-0.28824,0.9376,38.658,0.3,G,0.52,2.0,12.0,350.0,-38.6,15.423,0.0, ,D,'$GNGGA,142809.0,4808.09303,N,7942.82219,W,2.0,12.0,0.52,350.0,M,-38.6,M,,0131*71','$GNRMC,142809.0,A,4808.09303,N,7942.82219,W,15.423,0.34,50624.0,,,D,V*2D',,,,,,,,1,0.4578954248366013,0.657843137254902,0.5659346405228758,1.0,10.0,0,0
4361277,14:28:12.500000,4.5183333333333335,2024-06-05,595700.6433704568,5332119.974835272,17,N,14:28:12.500,48.13513319,-79.71369778,54617.422,1,-2454,-37901,25519,3.981,0.367,-4.038,-0.0178,-0.3181,0.96414,38.634,0.1,I,,,,,,,,,,,,,,,,,,,,,,,,,,,,,,,,,,,,,,,,,,,,,,1,0.47128104575163404,0.6672549019607843,0.5636339869281046,1.0,10.0,0,0
4364777,14:28:16,4.576666666666667,2024-06-05,595700.7076456377,5332148.084672031,17,N,14:28:16.000,48.13538602,-79.7136906,54618.5829,1,-4226,-36892,26123,0.133,1.332,-8.222,-0.01512,-0.29688,0.97621,38.641,359.8,G,0.52,2.0,12.0,353.6,-38.6,15.226,0.0, ,D,'$GNGGA,142816.0,4808.12342,N,7942.82143,W,2.0,12.0,0.52,353.6,M,-38.6,M,,0131*79','$GNRMC,142816.0,A,4808.12342,N,7942.82143,W,15.226,359.81,50624.0,,,D,V*22',,,,,,,,1,0.47128104575163404,0.6672549019607843,0.5636339869281046,1.0,10.0,0,0
4368277,14:28:19.500000,4.635000000000001,2024-06-05,595700.8020009157,5332175.641353975,17,N,14:28:19.500,48.13563387,-79.71368314,54620.0613,1,-4386,-36725,26128,2.828,-2.249,4.067,-0.00243,-0.27208,0.94276,38.654,2.6,I,,,,,,,,,,,,,,,,,,,,,,,,,,,,,,,,,,,,,,,,,,,,,,1,0.4779738562091504,0.6719607843137254,0.5624836601307189,1.0,10.0,0,0
4371777,14:28:23,4.693333333333333,2024-06-05,595700.8028397779,5332203.894662073,17,N,14:28:23.000,48.135888,-79.71367678,54620.4546,1,-1831,-35645,26991,3.274,1.444,3.025,-0.02941,-0.28017,0.8709,38.65,1.4,G,0.52,2.0,12.0,360.4,-38.6,15.533,0.0, ,D,'$GNGGA,142823.0,4808.15354,N,7942.82059,W,2.0,12.0,0.52,360.4,M,-38.6,M,,0131*77','$GNRMC,142823.0,A,4808.15354,N,7942.82059,W,15.533,1.36,50624.0,,,D,V*2F',,,,,,,,1,0.4779738562091504,0.6719607843137254,0.5624836601307189,1.0,10.0,0,0
4375277,14:28:26.500000,4.751666666666667,2024-06-05,595700.7585620006,5332231.552422502,17,N,14:28:26.500,48.13613678,-79.71367116,54619.2664,1,-2477,-35553,27037,1.01,-2.144,-0.831,0.00787,-0.24215,0.89354,38.625,1.9,I,,,,,,,,,,,,,,,,,,,,,,,,,,,,,,,,,,,,,,,,,,,,,,1,0.4779738562091504,0.6719607843137254,0.5624836601307189,1.0,10.0,0,0
4378777,14:28:30,4.8100000000000005,2024-06-05,595700.8521532906,5332259.153566159,17,N,14:28:30.000,48.13638503,-79.7136637,54619.83,1,-2483,-34657,27612,1.414,-1.048,-1.817,0.0142,-0.18499,0.95546,38.658,0.9,G,0.52,2.0,12.0,356.5,-38.6,15.556,0.0, ,D,'$GNGGA,142830.0,4808.18336,N,7942.81981,W,2.0,12.0,0.52,356.5,M,-38.6,M,,0131*77','$GNRMC,142830.0,A,4808.18336,N,7942.81981,W,15.556,0.94,50624.0,,,D,V*21',,,,,,,,1,0.4779738562091504,0.6719607843137254,0.5624836601307189,1.0,10.0,0,0
4382277,14:28:33.500000,4.868333333333334,2024-06-05,595700.5896036988,5332286.868826101,17,N,14:28:33.500,48.13663436,-79.713661,54625.9575,1,-4280,-35168,27125,-7.428,-7.1,-2.289,-0.01,-0.21081,0.94876,38.613,359.1,I,,,,,,,,,,,,,,,,,,,,,,,,,,,,,,,,,,,,,,,,,,,,,,1,0.4980522875816993,0.686078431372549,0.5590326797385622,1.0,10.0,0,0
4385777,14:28:37,4.926666666666667,2024-06-05,595700.5906883057,5332314.349466384,17,N,14:28:37.000,48.13688154,-79.71365481,54632.922,1,-3203,-37001,26121,0.85,-0.147,1.437,-0.02901,-0.25991,0.97452,38.65,1.7,G,0.52,2.0,12.0,350.1,-38.6,15.307,0.0, ,D,'$GNGGA,142837.0,4808.21315,N,7942.81927,W,2.0,12.0,0.52,350.1,M,-38.6,M,,0131*75','$GNRMC,142837.0,A,4808.21315,N,7942.81927,W,15.307,1.68,50624.0,,,D,V*21',,,,,,,,1,0.5248235294117647,0.7049019607843137,0.5544313725490195,1.0,10.0,0,0
4389277,14:28:40.500000,4.985,2024-06-05,595700.584857088,5332342.688275373,17,N,14:28:40.500,48.13713644,-79.71364852,54627.01345,1,-1592,-34801,27618,0.526,-1.499,-1.612,-0.03295,-0.23773,0.98185,38.678,0.7,I,,,,,,,,,,,,,,,,,,,,,,,,,,,,,,,,,,,,,,,,,,,,,,1,0.5047450980392156,0.6907843137254902,0.5578823529411765,1.0,10.0,0,0
4392777,14:28:44,5.043333333333334,2024-06-05,595700.5502431088,5332370.656386363,17,N,14:28:44.000,48.13738801,-79.7136427,54618.37545,1,-2653,-33998,27829,2.731,3.028,-3.41,-0.01778,-0.24445,0.96976,38.623,359.4,G,0.52,2.0,12.0,353.0,-38.6,15.529,0.0, ,D,'$GNGGA,142844.0,4808.24354,N,7942.81856,W,2.0,12.0,0.52,353.0,M,-38.6,M,,0131*74','$GNRMC,142844.0,A,4808.24354,N,7942.81856,W,15.529,359.35,50624.0,,,D,V*2E',,,,,,,,1,0.47128104575163404,0.6672549019607843,0.5636339869281046,1.0,10.0,0,0
4396277,14:28:47.500000,5.1016666666666675,2024-06-05,595701.0465564838,5332398.247594855,17,N,14:28:47.500,48.13763611,-79.71362983,54617.3987,1,-4259,-34665,27405,-3.074,-2.16,-2.029,-0.02772,-0.20889,0.96196,38.623,1.3,I,,,,,,,,,,,,,,,,,,,,,,,,,,,,,,,,,,,,,,,,,,,,,,1,0.47128104575163404,0.6672549019607843,0.5636339869281046,1.0,10.0,0,0
4399777,14:28:51,5.16,2024-06-05,595700.7196278581,5332425.806137159,17,N,14:28:51.000,48.13788404,-79.71362803,54623.3621,1,-4278,-35701,26714,-1.168,0.088,-6.153,-0.01274,-0.20925,0.95265,38.656,0.8,G,0.52,2.0,12.0,357.3,-38.6,15.046,0.0, ,D,'$GNGGA,142851.0,4808.2733,N,7942.81767,W,2.0,12.0,0.52,357.3,M,-38.6,M,,0131*7B','$GNRMC,142851.0,A,4808.2733,N,7942.81767,W,15.046,0.76,50624.0,,,D,V*22',,,,,,,,1,0.491359477124183,0.6813725490196079,0.5601830065359478,1.0,10.0,0,0
4403277,14:28:54.500000,5.218333333333334,2024-06-05,595700.5589871207,5332453.521997052,17,N,14:28:54.500,48.13813336,-79.71362396,54629.9846,1,-4150,-36990,26030,-0.357,-1.452,3.83,0.00422,-0.25096,0.9577,38.646,1.0,I,,,,,,,,,,,,,,,,,,,,,,,,,,,,,,,,,,,,,,,,,,,,,,1,0.5181307189542483,0.7001960784313725,0.5555816993464052,1.0,10.0,0,0
4406777,14:28:58,5.276666666666667,2024-06-05,595700.5399914363,5332481.667145149,17,N,14:28:58.000,48.13838652,-79.71361789,54630.83435,1,-4165,-35972,26704,3.484,1.053,0.665,0.0234,-0.25341,0.95223,38.681,359.7,G,0.52,2.0,12.0,360.6,-38.6,15.377,0.0, ,D,'$GNGGA,142858.0,4808.30345,N,7942.81707,W,2.0,12.0,0.52,360.6,M,-38.6,M,,0131*71','$GNRMC,142858.0,A,4808.30345,N,7942.81707,W,15.377,359.65,50624.0,,,D,V*25',,,,,,,,1,0.5181307189542483,0.7001960784313725,0.5555816993464052,1.0,10.0,0,0
4410277,14:29:01.500000,5.335,2024-06-05,595700.3696362542,5332509.829775009,17,N,14:29:01.500,48.13863986,-79.71361385,54628.6122,1,-2875,-34783,27508,-1.077,-2.429,9.219,-0.03659,-0.24875,0.94906,38.639,360.0,I,,,,,,,,,,,,,,,,,,,,,,,,,,,,,,,,,,,,,,,,,,,,,,1,0.511437908496732,0.6954901960784313,0.5567320261437909,1.0,10.0,0,0
4413777,14:29:05,5.3933333333333335,2024-06-05,595700.4718872656,5332537.754600241,17,N,14:29:05.000,48.13889102,-79.7136062,54627.6923,1,-1593,-34860,27540,2.646,-0.85,5.715,-0.05825,-0.24673,0.94145,38.666,2.2,G,0.52,2.0,12.0,363.6,-38.6,15.734,0.0, ,D,'$GNGGA,142905.0,4808.33372,N,7942.81635,W,2.0,12.0,0.52,363.6,M,-38.6,M,,0131*7C','$GNRMC,142905.0,A,4808.33372,N,7942.81635,W,15.734,2.21,50624.0,,,D,V*25',,,,,,,,1,0.5047450980392156,0.6907843137254902,0.5578823529411765,1.0,10.0,0,0
4417277,14:29:08.500000,5.451666666666667,2024-06-05,595700.6782802105,5332565.6366978595,17,N,14:29:08.500,48.13914178,-79.71359716,54629.33525,1,-1530,-35239,27401,-1.163,-0.677,-0.506,-0.02799,-0.24152,0.9413,38.688,2.0,I,,,,,,,,,,,,,,,,,,,,,,,,,,,,,,,,,,,,,,,,,,,,,,1,0.511437908496732,0.6954901960784313,0.5567320261437909,1.0,10.0,0,0
4420777,14:29:12,5.510000000000001,2024-06-05,595700.8163543369,5332593.5543425195,17,N,14:29:12.000,48.13939287,-79.71358903,54632.9187,1,-1401,-35135,27353,2.448,1.559,-1.793,-0.02921,-0.22948,0.95904,38.689,0.8,G,0.52,2.0,12.0,365.8,-38.6,15.578,0.0, ,D,'$GNGGA,142912.0,4808.36383,N,7942.81533,W,2.0,12.0,0.52,365.8,M,-38.6,M,,0131*7C','$GNRMC,142912.0,A,4808.36383,N,7942.81533,W,15.578,0.81,50624.0,,,D,V*2F',,,,,,,,1,0.5248235294117647,0.7049019607843137,0.5544313725490195,1.0,10.0,0,0
4424277,14:29:15.500000,5.568333333333333,2024-06-05,595700.7349849327,5332621.689559877,17,N,14:29:15.500,48.13964595,-79.7135838,54636.56875,1,-1405,-34123,28004,-1.268,-0.829,3.862,-0.02207,-0.20924,0.94847,38.695,1.7,I,,,,,,,,,,,,,,,,,,,,,,,,,,,,,,,,,,,,,,,,,,,,,,1,0.5382091503267975,0.7143137254901961,0.5521307189542484,1.0,10.0,0,0
4427777,14:29:19,5.626666666666667,2024-06-05,595700.6601727629,5332649.56584666,17,N,14:29:19.000,48.1398967,-79.71357854,54640.6199,1,-1064,-34467,27803,1.284,-1.765,2.793,-0.01629,-0.21185,0.97405,38.645,1.0,G,0.52,2.0,12.0,366.7,-38.6,15.667,0.0, ,D,'$GNGGA,142919.0,4808.39406,N,7942.8147,W,2.0,12.0,0.52,366.7,M,-38.6,M,,0131*78','$GNRMC,142919.0,A,4808.39406,N,7942.8147,W,15.667,0.95,50624.0,,,D,V*2F',,,,,,,,1,0.55159477124183,0.7237254901960785,0.5498300653594771,1.0,10.0,0,0
4431277,14:29:22.500000,5.6850000000000005,2024-06-05,595700.7916427186,5332677.565655521,17,N,14:29:22.500,48.14014853,-79.71357048,54642.12495,1,-1268,-33975,28013,1.574,-3.066,3.472,-0.01749,-0.19483,0.96788,38.691,1.1,I,,,,,,,,,,,,,,,,,,,,,,,,,,,,,,,,,,,,,,,,,,,,,,1,0.5582875816993463,0.7284313725490197,0.5486797385620915,1.0,10.0,0,0
4434777,14:29:26,5.743333333333334,2024-06-05,595700.8399541541,5332705.509598343,17,N,14:29:26.000,48.14039987,-79.71356355,54642.2661,1,-998,-33971,28014,2.661,0.095,-0.958,-0.0334,-0.19097,0.95951,38.709,1.0,G,0.52,2.0,12.0,366.1,-38.6,15.481,0.0, ,D,'$GNGGA,142926.0,4808.42425,N,7942.8138,W,2.0,12.0,0.52,366.1,M,-38.6,M,,0131*77','$GNRMC,142926.0,A,4808.42425,N,7942.8138,W,15.481,1.04,50624.0,,,D,V*25',,,,,,,,1,0.5582875816993463,0.7284313725490197,0.5486797385620915,1.0,10.0,0,0
4438277,14:29:29.500000,5.801666666666667,2024-06-05,595700.7418216422,5332733.533363879,17,N,14:29:29.500,48.14065195,-79.71355857,54641.40825,1,-795,-33674,28234,0.412,-0.334,0.602,-0.03457,-0.19336,0.96899,38.678,1.2,I,,,,,,,,,,,,,,,,,,,,,,,,,,,,,,,,,,,,,,,,,,,,,,1,0.5582875816993463,0.7284313725490197,0.5486797385620915,1.0,10.0,0,0
4441777,14:29:33,5.86,2024-06-05,595700.7083463046,5332761.428135432,17,N,14:29:33.000,48.14090286,-79.71355275,54641.34615,1,-699,-33576,28225,-2.215,0.78,0.92,-0.02977,-0.18357,0.94783,38.704,1.3,G,0.53,2.0,12.0,367.4,-38.6,15.541,0.0, ,D,'$GNGGA,142933.0,4808.45443,N,7942.81315,W,2.0,12.0,0.53,367.4,M,-38.6,M,,0131*7D','$GNRMC,142933.0,A,4808.45443,N,7942.81315,W,15.541,1.28,50624.0,,,D,V*29',,,,,,,,1,0.5582875816993463,0.7284313725490197,0.5486797385620915,1.0,10.0,0,0
4445277,14:29:36.500000,5.918333333333334,2024-06-05,595700.7782663514,5332789.280166949,17,N,14:29:36.500,48.14115337,-79.71354555,54642.52115,1,-1150,-33851,28161,-0.255,-1.304,-0.343,-0.02633,-0.18371,0.9663,38.702,1.0,I,,,,,,,,,,,,,,,,,,,,,,,,,,,,,,,,,,,,,,,,,,,,,,1,0.5582875816993463,0.7284313725490197,0.5486797385620915,1.0,10.0,0,0
4448777,14:29:40,5.9766666666666675,2024-06-05,595700.7937080713,5332817.185765149,17,N,14:29:40.000,48.14140437,-79.71353907,54644.9104,1,-1201,-34113,27987,-1.298,0.322,-0.212,-0.03071,-0.19392,0.95607,38.688,1.1,G,0.53,2.0,12.0,369.4,-38.6,15.441,0.0, ,D,'$GNGGA,142940.0,4808.48452,N,7942.81233,W,2.0,12.0,0.53,369.4,M,-38.6,M,,0131*7F','$GNRMC,142940.0,A,4808.48452,N,7942.81233,W,15.441,1.12,50624.0,,,D,V*2D',,,,,,,,1,0.5710980392156861,0.7371111111111112,0.5470196078431373,1.0,10.0,0,0
4452277,14:29:43.500000,6.035,2024-06-05,595700.8260119164,5332845.239511639,17,N,14:29:43.500,48.1416567,-79.71353233,54647.1083,1,-1177,-33462,28347,1.693,-0.785,-2.596,-0.02142,-0.1827,0.95684,38.697,1.3,I,,,,,,,,,,,,,,,,,,,,,,,,,,,,,,,,,,,,,,,,,,,,,,1,0.5754901960784313,0.7388888888888889,0.5484313725490196,1.0,10.0,0,0
4455777,14:29:47,6.093333333333334,2024-06-05,595700.7899818207,5332873.107563229,17,N,14:29:47.000,48.14190737,-79.71352655,54650.8793,1,-1209,-33576,28219,1.35,1.248,-2.756,-0.00903,-0.17167,0.96403,38.695,1.0,G,0.53,2.0,12.0,369.6,-38.6,15.671,0.0, ,D,'$GNGGA,142947.0,4808.5147,N,7942.81158,W,2.0,12.0,0.53,369.6,M,-38.6,M,,0131*7C','$GNRMC,142947.0,A,4808.5147,N,7942.81158,W,15.671,1.01,50624.0,,,D,V*2F',,,,,,,,1,0.5842745098039215,0.7424444444444445,0.5512549019607843,1.0,10.0,0,0
4459277,14:29:50.500000,6.151666666666667,2024-06-05,595700.7948977897,5332901.196430776,17,N,14:29:50.500,48.14216002,-79.71352017,54657.05745,1,-1439,-33393,28314,-0.029,-0.114,-0.984,-0.01597,-0.17744,0.97169,38.676,0.6,I,,,,,,,,,,,,,,,,,,,,,,,,,,,,,,,,,,,,,,,,,,,,,,1,0.5974509803921568,0.7477777777777778,0.5554901960784314,1.0,10.0,0,0
4462777,14:29:54,6.21,2024-06-05,595700.8154281719,5332929.196619463,17,N,14:29:54.000,48.14241187,-79.7135136,54667.47275,1,-1731,-32902,28525,0.014,-1.358,2.406,-0.01649,-0.16295,0.97225,38.716,1.4,G,0.53,2.0,12.0,369.6,-38.6,15.51,0.0, ,D,'$GNGGA,142954.0,4808.54497,N,7942.8108,W,2.0,12.0,0.53,369.6,M,-38.6,M,,0131*76','$GNRMC,142954.0,A,4808.54497,N,7942.8108,W,15.51,1.42,50624.0,,,D,V*26',,,,,,,,1,0.6238039215686274,0.7584444444444445,0.5639607843137255,1.0,10.0,0,0
4466277,14:29:57.500000,6.2683333333333335,2024-06-05,595700.7573794354,5332957.089877266,17,N,14:29:57.500,48.14266277,-79.71350811,54686.7584,1,-1717,-33237,28453,-0.643,-0.584,-0.392,-0.01231,-0.17564,0.96927,38.695,0.8,I,,,,,,,,,,,,,,,,,,,,,,,,,,,,,,,,,,,,,,,,,,,,,,1,0.6721176470588235,0.778,0.5794901960784314,1.0,10.0,0,0
4469777,14:30:01,6.326666666666667,2024-06-05,595700.8011795813,5332984.9881752245,17,N,14:30:01.000,48.1429137,-79.71350125,54717.6816,1,-1634,-33280,28489,0.994,-0.384,3.249,-0.01223,-0.17302,0.96148,38.702,1.2,G,0.53,2.0,12.0,370.5,-38.6,15.47,0.0, ,D,'$GNGGA,143001.0,4808.57508,N,7942.81006,W,2.0,12.0,0.53,370.5,M,-38.6,M,,0131*7F','$GNRMC,143001.0,A,4808.57508,N,7942.81006,W,15.47,1.18,50624.0,,,D,V*2C',,,,,,,,1,0.7423921568627451,0.8064444444444445,0.602078431372549,1.0,10.0,0,0
4473277,14:30:04.500000,6.385000000000001,2024-06-05,595700.8091740265,5333012.846963736,17,N,14:30:04.500,48.14316428,-79.71349488,54760.2882,1,-1619,-34032,28145,-1.802,0.589,0.526,-0.01423,-0.19853,0.96088,38.713,1.0,I,,,,,,,,,,,,,,,,,,,,,,,,,,,,,,,,,,,,,,,,,,,,,,1,0.8478039215686275,0.8491111111111111,0.6359607843137255,1.0,10.0,0,0
4476777,14:30:08,6.443333333333333,2024-06-05,595700.7795420473,5333040.908577521,17,N,14:30:08.000,48.14341669,-79.71348897,54801.67325,1,-798,-33079,28678,-0.775,-0.859,0.086,-0.02763,-0.18717,0.95751,38.74,1.7,G,0.53,2.0,12.0,371.4,-38.6,15.616,0.0, ,D,'$GNGGA,143008.0,4808.60526,N,7942.80932,W,2.0,12.0,0.53,371.4,M,-38.6,M,,0131*71','$GNRMC,143008.0,A,4808.60526,N,7942.80932,W,15.616,1.69,50624.0,,,D,V*26',,,,,,,,1,0.8477516339869281,0.7589411764705882,0.5309934640522875,1.0,10.0,0,0
4480277,14:30:11.500000,6.501666666666667,2024-06-05,595700.7694667439,5333068.823766483,17,N,14:30:11.500,48.14366778,-79.71348283,54828.4766,1,-1706,-33464,28433,-0.732,-0.825,-2.202,0.01002,-0.19652,0.97703,38.734,1.3,I,,,,,,,,,,,,,,,,,,,,,,,,,,,,,,,,,,,,,,,,,,,,,,1,0.8461830065359477,0.6954117647058824,0.45726797385620926,1.0,10.0,0,0
4483777,14:30:15,6.5600000000000005,2024-06-05,595700.7644240183,5333096.57116409,17,N,14:30:15.000,48.14391736,-79.71347666,54840.30845,1,-1398,-34131,28114,5.919,5.823,0.319,-0.03636,-0.21097,0.97512,38.744,0.4,G,0.53,2.0,12.0,371.6,-38.6,15.55,0.0, ,D,'$GNGGA,143015.0,4808.6353,N,7942.80859,W,2.0,12.0,0.53,371.6,M,-38.6,M,,0131*77','$GNRMC,143015.0,A,4808.6353,N,7942.80859,W,15.55,0.38,50624.0,,,D,V*26',,,,,,,,1,0.8455555555555555,0.67,0.42777777777777776,1.0,10.0,0,0
4487277,14:30:18.500000,6.618333333333334,2024-06-05,595700.761867986,5333124.569863939,17,N,14:30:18.500,48.1441692,-79.7134704,54844.94435,1,-2303,-35124,27646,-1.129,1.342,-0.573,-0.0127,-0.2377,0.92474,38.761,1.1,I,,,,,,,,,,,,,,,,,,,,,,,,,,,,,,,,,,,,,,,,,,,,,,1,0.8452418300653595,0.6572941176470588,0.41303267973856206,1.0,10.0,0,0
4490777,14:30:22,6.676666666666667,2024-06-05,595700.5946920398,5333152.712564691,17,N,14:30:22.000,48.14442236,-79.71346632,54847.05575,1,-854,-33768,28370,2.821,0.139,0.423,-0.02775,-0.20413,0.96028,38.721,1.9,G,0.53,2.0,12.0,371.3,-38.6,15.786,0.0, ,D,'$GNGGA,143022.0,4808.6656,N,7942.80796,W,2.0,12.0,0.53,371.3,M,-38.6,M,,0131*7A','$GNRMC,143022.0,A,4808.6656,N,7942.80796,W,15.786,1.86,50624.0,,,D,V*23',,,,,,,,1,0.8451372549019608,0.6530588235294118,0.40811764705882353,1.0,10.0,0,0
4494277,14:30:25.500000,6.735,2024-06-05,595700.5140940612,5333180.616573229,17,N,14:30:25.500,48.14467336,-79.71346113,54852.83945,1,-851,-33514,28546,1.775,2.661,-2.191,-0.02298,-0.18505,0.96795,38.713,1.0,I,,,,,,,,,,,,,,,,,,,,,,,,,,,,,,,,,,,,,,,,,,,,,,1,0.8448235294117648,0.6403529411764706,0.39337254901960783,1.0,10.0,0,0
4497777,14:30:29,6.793333333333334,2024-06-05,595700.5509990819,5333208.523660357,17,N,14:30:29.000,48.14492437,-79.71345436,54866.4972,1,-1040,-33912,28252,0.417,0.92,-2.994,-0.04228,-0.18364,0.96099,38.748,0.7,G,0.58,2.0,12.0,370.3,-38.6,15.754,0.0, ,D,'$GNGGA,143029.0,4808.69572,N,7942.80725,W,2.0,12.0,0.58,370.3,M,-38.6,M,,0131*7F','$GNRMC,143029.0,A,4808.69572,N,7942.80725,W,15.754,0.67,50624.0,,,D,V*2D',,,,,,,,1,0.8439869281045752,0.6064705882352941,0.3540522875816993,1.0,10.0,0,0
4501277,14:30:32.500000,6.8516666666666675,2024-06-05,595700.3558003834,5333236.294565886,17,N,14:30:32.500,48.14517419,-79.71345074,54881.70655,1,-2237,-35145,27589,0.353,-4.778,-2.773,-0.05731,-0.2163,0.96036,38.775,0.5,I,,,,,,,,,,,,,,,,,,,,,,,,,,,,,,,,,,,,,,,,,,,,,,1,0.8398562091503269,0.5663660130718954,0.3170196078431372,1.0,10.0,0,0
4504777,14:30:36,6.91,2024-06-05,595700.5991447397,5333264.2251207065,17,N,14:30:36.000,48.14542538,-79.71344119,54896.91505,1,-2259,-35113,27639,-3.824,3.712,-5.502,-0.03745,-0.20564,0.95293,38.736,3.6,G,0.58,2.0,12.0,370.1,-38.6,15.075,0.0, ,D,'$GNGGA,143036.0,4808.72578,N,7942.80644,W,2.0,12.0,0.58,370.1,M,-38.6,M,,0131*75','$GNRMC,143036.0,A,4808.72578,N,7942.80644,W,15.075,3.64,50624.0,,,D,V*21',,,,,,,,1,0.8239607843137254,0.5040392156862745,0.288156862745098,1.0,10.0,0,0
4508277,14:30:39.500000,6.968333333333334,2024-06-05,595700.7157680239,5333291.991239045,17,N,14:30:39.500,48.14567511,-79.71343338,54917.25565,1,-2365,-35238,27537,-7.427,-5.193,7.842,-6e-05,-0.19199,0.93921,38.776,1.7,I,,,,,,,,,,,,,,,,,,,,,,,,,,,,,,,,,,,,,,,,,,,,,,1,0.8021045751633987,0.41833986928104594,0.2484705882352942,1.0,10.0,0,0
4511777,14:30:43,7.026666666666667,2024-06-05,595700.7086672846,5333320.036566181,17,N,14:30:43.000,48.14592737,-79.71342717,54944.85765,1,-1556,-36724,26710,7.14,2.884,-2.565,-0.03038,-0.25596,0.91396,38.77,359.0,G,0.58,2.0,12.0,370.7,-38.6,15.434,0.0, ,D,'$GNGGA,143043.0,4808.7559,N,7942.80563,W,2.0,12.0,0.58,370.7,M,-38.6,M,,0131*76','$GNRMC,143043.0,A,4808.7559,N,7942.80563,W,15.434,358.99,50624.0,,,D,V*2A',,,,,,,,1,0.7703137254901962,0.29368627450980417,0.1907450980392158,1.0,10.0,0,0
4515277,14:30:46.500000,7.085,2024-06-05,595700.5355575769,5333348.309253431,17,N,14:30:46.500,48.1461817,-79.71342314,54959.3799,1,-1070,-34769,27950,6.019,3.403,-3.359,-0.04187,-0.24325,0.95487,38.814,1.8,I,,,,,,,,,,,,,,,,,,,,,,,,,,,,,,,,,,,,,,,,,,,,,,1,0.75640522875817,0.2391503267973856,0.16549019607843138,1.0,10.0,0,0
4518777,14:30:50,7.1433333333333335,2024-06-05,595700.5697081413,5333376.289678947,17,N,14:30:50.000,48.14643337,-79.71341639,54950.0987,1,-245,-34782,27930,-1.237,2.66,-2.786,-0.04284,-0.22364,0.91178,38.762,2.4,G,0.58,2.0,12.0,368.8,-38.6,15.667,0.0, ,D,'$GNGGA,143050.0,4808.78626,N,7942.80496,W,2.0,12.0,0.58,368.8,M,-38.6,M,,0131*7A','$GNRMC,143050.0,A,4808.78626,N,7942.80496,W,15.667,2.39,50624.0,,,D,V*22',,,,,,,,1,0.7663398692810457,0.2781045751633987,0.18352941176470589,1.0,10.0,0,0
4522277,14:30:53.500000,7.201666666666667,2024-06-05,595700.5262720456,5333404.415561178,17,N,14:30:53.500,48.14668636,-79.71341065,54933.03585,1,176,-33740,28479,-0.074,-0.326,-9.31,-0.032,-0.20593,0.96284,38.785,1.1,I,,,,,,,,,,,,,,,,,,,,,,,,,,,,,,,,,,,,,,,,,,,,,,1,0.7842222222222223,0.3482222222222222,0.21599999999999997,1.0,10.0,0,0
4525777,14:30:57,7.260000000000001,2024-06-05,595700.7258151661,5333432.471021047,17,N,14:30:57.000,48.14693868,-79.71340166,54913.33245,1,-1269,-32861,28821,2.272,0.685,-4.935,0.00684,-0.18879,0.95668,38.836,0.6,G,0.58,2.0,12.0,366.3,-38.6,15.756,0.0, ,D,'$GNGGA,143057.0,4808.81658,N,7942.80409,W,2.0,12.0,0.58,366.3,M,-38.6,M,,0131*71','$GNRMC,143057.0,A,4808.81658,N,7942.80409,W,15.756,0.58,50624.0,,,D,V*2A',,,,,,,,1,0.8060784313725491,0.43392156862745096,0.2556862745098039,1.0,10.0,0,0
4529277,14:31:00.500000,7.318333333333333,2024-06-05,595700.9374736919,5333460.335460912,17,N,14:31:00.500,48.14718928,-79.71339255,54857.5934,1,-2031,-32637,28960,0.47,0.336,-5.271,0.01517,-0.16874,0.94434,38.829,0.2,I,,,,,,,,,,,,,,,,,,,,,,,,,,,,,,,,,,,,,,,,,,,,,,1,0.8445098039215686,0.6276470588235296,0.37862745098039224,1.0,10.0,0,0
4532777,14:31:04,7.376666666666667,2024-06-05,595701.1145552191,5333488.087035144,17,N,14:31:04.000,48.14743887,-79.71338393,54804.29485,1,-3037,-33075,28608,2.478,3.037,-2.972,-0.00835,-0.15094,0.96571,38.79,359.8,G,0.58,2.0,12.0,367.5,-38.6,15.761,0.0, ,D,'$GNGGA,143104.0,4808.84659,N,7942.80303,W,2.0,12.0,0.58,367.5,M,-38.6,M,,0131*78','$GNRMC,143104.0,A,4808.84659,N,7942.80303,W,15.761,359.82,50624.0,,,D,V*28',,,,,,,,1,0.8475424836601306,0.7504705882352941,0.5211633986928104,1.0,10.0,0,0
4536277,14:31:07.500000,7.4350000000000005,2024-06-05,595700.9651179388,5333516.054390045,17,N,14:31:07.500,48.14769045,-79.71337965,54793.64885,1,-3370,-33006,28606,1.372,-0.466,-4.08,0.00305,-0.14465,0.98139,38.859,1.1,I,,,,,,,,,,,,,,,,,,,,,,,,,,,,,,,,,,,,,,,,,,,,,,1,0.8481699346405229,0.7758823529411765,0.5506535947712418,1.0,10.0,0,0
4539777,14:31:11,7.493333333333334,2024-06-05,595700.8158615902,5333543.9661608385,17,N,14:31:11.000,48.14794153,-79.71337538,54825.5435,1,-2794,-32894,28628,-0.09,0.951,-2.926,0.00135,-0.15701,0.95814,38.777,0.9,G,0.58,2.0,12.0,368.6,-38.6,15.255,0.0, ,D,'$GNGGA,143111.0,4808.87675,N,7942.80251,W,2.0,12.0,0.58,368.6,M,-38.6,M,,0131*7B','$GNRMC,143111.0,A,4808.87675,N,7942.80251,W,15.255,0.9,50624.0,,,D,V*29',,,,,,,,1,0.846392156862745,0.7038823529411764,0.4670980392156862,1.0,10.0,0,0
4543277,14:31:14.500000,7.551666666666667,2024-06-05,595700.7560974422,5333571.731564919,17,N,14:31:14.500,48.14819128,-79.71336994,54887.2934,1,-1524,-33408,28680,0.532,1.591,-7.514,-0.00729,-0.16044,0.98405,38.793,0.7,I,,,,,,,,,,,,,,,,,,,,,,,,,,,,,,,,,,,,,,,,,,,,,,1,0.8338954248366014,0.5429934640522878,0.30619607843137264,1.0,10.0,0,0
4546777,14:31:18,7.61,2024-06-05,595700.7907892213,5333599.720904092,17,N,14:31:18.000,48.14844303,-79.71336318,54955.4559,1,-1901,-32281,29147,-0.691,2.258,-5.119,-0.02876,-0.14538,0.95689,38.845,0.6,G,0.58,2.0,12.0,365.2,-38.6,15.237,0.0, ,D,'$GNGGA,143118.0,4808.90684,N,7942.80178,W,2.0,12.0,0.58,365.2,M,-38.6,M,,0131*7B','$GNRMC,143118.0,A,4808.90684,N,7942.80178,W,15.237,0.6,50624.0,,,D,V*2B',,,,,,,,1,0.7603790849673202,0.2547320261437908,0.17270588235294115,1.0,10.0,0,0
4550277,14:31:21.500000,7.668333333333334,2024-06-05,595700.7611922696,5333627.505715475,17,N,14:31:21.500,48.14869295,-79.71335733,54994.13335,1,-2331,-33156,28668,-0.365,-2.036,-3.699,-0.01863,-0.16916,0.94124,38.82,1.2,I,,,,,,,,,,,,,,,,,,,,,,,,,,,,,,,,,,,,,,,,,,,,,,1,0.7186535947712419,0.09112418300653592,0.09694117647058824,1.0,10.0,0,0
4553777,14:31:25,7.7266666666666675,2024-06-05,595700.7373721767,5333655.345101417,17,N,14:31:25.000,48.14894336,-79.71335139,54984.82405,1,-1435,-32566,29214,1.06,-1.653,-2.655,-0.01416,-0.17154,0.93749,38.871,1.0,G,0.58,2.0,12.0,360.0,-38.6,15.338,0.0, ,D,'$GNGGA,143125.0,4808.93686,N,7942.80107,W,2.0,12.0,0.58,360.0,M,-38.6,M,,0131*7B','$GNRMC,143125.0,A,4808.93686,N,7942.80107,W,15.338,1.02,50624.0,,,D,V*27',,,,,,,,1,0.7285882352941176,0.13007843137254899,0.11498039215686275,1.0,10.0,0,0
4557277,14:31:28.500000,7.785,2024-06-05,595700.8180659566,5333682.8071242375,17,N,14:31:28.500,48.14919036,-79.71334413,54951.2992,1,-1636,-33304,28617,-0.404,0.053,-1.485,-0.01606,-0.19266,0.9736,38.879,1.0,I,,,,,,,,,,,,,,,,,,,,,,,,,,,,,,,,,,,,,,,,,,,,,,1,0.7643529411764706,0.27031372549019606,0.17992156862745098,1.0,10.0,0,0
4560777,14:31:32,7.843333333333334,2024-06-05,595700.8083836857,5333710.378813131,17,N,14:31:32.000,48.14943836,-79.71333806,54928.01295,1,-1353,-33070,28779,1.856,0.628,-1.775,-0.01655,-0.18312,0.96556,38.879,1.1,G,0.58,2.0,12.0,350.5,-38.6,15.578,0.0, ,D,'$GNGGA,143132.0,4808.96656,N,7942.80027,W,2.0,12.0,0.58,350.5,M,-38.6,M,,0131*70','$GNRMC,143132.0,A,4808.96656,N,7942.80027,W,15.578,1.05,50624.0,,,D,V*2F',,,,,,,,1,0.7901830065359476,0.37159477124183005,0.2268235294117647,1.0,10.0,0,0
4564277,14:31:35.500000,7.901666666666667,2024-06-05,595700.7816070792,5333737.904634788,17,N,14:31:35.500,48.14968595,-79.71333223,54886.4892,1,-1664,-32997,28822,0.717,-0.675,-2.775,-0.00601,-0.16098,0.98513,38.873,1.1,I,,,,,,,,,,,,,,,,,,,,,,,,,,,,,,,,,,,,,,,,,,,,,,1,0.8338954248366014,0.5429934640522878,0.30619607843137264,1.0,10.0,0,0
4567777,14:31:39,7.96,2024-06-05,595700.6737718645,5333765.650343424,17,N,14:31:39.000,48.14993553,-79.71332744,54779.6704,1,-1302,-33091,28706,-2.222,1.982,-3.586,-0.0139,-0.15961,0.96738,38.869,0.1,G,0.58,2.0,12.0,343.1,-38.6,15.505,0.0, ,D,'$GNGGA,143139.0,4808.99639,N,7942.79964,W,2.0,12.0,0.58,343.1,M,-38.6,M,,0131*73','$GNRMC,143139.0,A,4808.99639,N,7942.79964,W,15.505,0.06,50624.0,,,D,V*22',,,,,,,,1,0.8490065359477125,0.8097647058823529,0.5899738562091503,1.0,10.0,0,0
4571277,14:31:42.500000,8.018333333333334,2024-06-05,595700.7870159014,5333793.566517396,17,N,14:31:42.500,48.15018661,-79.71331964,54654.82095,1,-1186,-32472,28837,-0.912,1.653,-0.458,-0.05278,-0.15319,0.968,38.884,1.1,I,,,,,,,,,,,,,,,,,,,,,,,,,,,,,,,,,,,,,,,,,,,,,,1,0.5930588235294117,0.746,0.554078431372549,1.0,10.0,0,0
4574777,14:31:46,8.076666666666666,2024-06-05,595700.7590306267,5333821.296888007,17,N,14:31:46.000,48.15043604,-79.71331378,54573.5918,1,-1124,-33653,28147,-0.602,-3.617,-2.859,-0.03925,-0.17694,0.9708,38.906,2.9,G,0.58,2.0,12.0,338.9,-38.6,15.213,0.0, ,D,'$GNGGA,143146.0,4809.02642,N,7942.7988,W,2.0,12.0,0.58,338.9,M,-38.6,M,,0131*7B','$GNRMC,143146.0,A,4809.02642,N,7942.7988,W,15.213,2.92,50624.0,,,D,V*21',,,,,,,,1,0.3106535947712418,0.5543137254901961,0.5912418300653595,1.0,10.0,0,0
4578277,14:31:49.500000,8.135,2024-06-05,595700.6011970099,5333849.273011748,17,N,14:31:49.500,48.1506877,-79.71330961,54537.3338,1,-893,-33199,28429,-0.32,-1.699,-8.171,0.00028,-0.19297,0.98435,38.926,1.5,I,,,,,,,,,,,,,,,,,,,,,,,,,,,,,,,,,,,,,,,,,,,,,,1,0.17679738562091504,0.4601960784313725,0.6142483660130719,1.0,10.0,0,0
4581777,14:31:53,8.193333333333333,2024-06-05,595700.6390782805,5333877.067857724,17,N,14:31:53.000,48.1509377,-79.71330285,54528.76295,1,-590,-33006,28466,1.578,0.893,-3.956,-0.00515,-0.17108,0.9559,38.924,0.7,G,0.58,2.0,12.0,339.1,-38.6,15.473,0.0, ,D,'$GNGGA,143153.0,4809.05652,N,7942.79816,W,2.0,12.0,0.58,339.1,M,-38.6,M,,0131*7F','$GNRMC,143153.0,A,4809.05652,N,7942.79816,W,15.473,0.74,50624.0,,,D,V*26',,,,,,,,1,0.14333333333333334,0.4366666666666666,0.62,1.0,10.0,0,0
4585277,14:31:56.500000,8.251666666666667,2024-06-05,595700.6641415729,5333904.916967189,17,N,14:31:56.500,48.15118819,-79.71329625,54527.67675,1,-2583,-33638,28034,1.084,-0.183,-7.269,0.0027,-0.17034,0.97035,38.928,0.5,I,,,,,,,,,,,,,,,,,,,,,,,,,,,,,,,,,,,,,,,,,,,,,,1,0.14333333333333334,0.4366666666666666,0.62,1.0,10.0,0,0
4588777,14:32:00,8.31,2024-06-05,595700.8437302152,5333932.956552295,17,N,14:32:00.000,48.15144037,-79.71328753,54532.60765,1,-2333,-33271,28198,-0.918,0.803,0.028,0.00328,-0.17051,0.93099,38.92,0.8,G,0.58,2.0,12.0,342.3,-38.6,15.444,0.0, ,D,'$GNGGA,143200.0,4809.08668,N,7942.79724,W,2.0,12.0,0.58,342.3,M,-38.6,M,,0131*7E','$GNRMC,143200.0,A,4809.08668,N,7942.79724,W,15.444,0.82,50624.0,,,D,V*24',,,,,,,,1,0.15671895424836602,0.44607843137254893,0.6176993464052287,1.0,10.0,0,0
4592277,14:32:03.500000,8.368333333333334,2024-06-05,595700.9494755286,5333960.9181912,17,N,14:32:03.500,48.15169186,-79.71327982,54536.4971,1,-2733,-32981,28450,-2.398,-2.271,-0.201,-0.00474,-0.17356,0.94047,38.911,0.4,I,,,,,,,,,,,,,,,,,,,,,,,,,,,,,,,,,,,,,,,,,,,,,,1,0.17679738562091504,0.4601960784313725,0.6142483660130719,1.0,10.0,0,0
4595777,14:32:07,8.426666666666668,2024-06-05,595700.8917577224,5333988.822619723,17,N,14:32:07.000,48.15194286,-79.71327432,54540.23405,1,-3132,-32765,28568,-0.781,2.313,-0.794,0.00068,-0.179,0.95448,38.961,1.8,G,0.58,2.0,12.0,339.9,-38.6,15.473,0.0, ,D,'$GNGGA,143207.0,4809.11683,N,7942.79644,W,2.0,12.0,0.58,339.9,M,-38.6,M,,0131*75','$GNRMC,143207.0,A,4809.11683,N,7942.79644,W,15.473,1.78,50624.0,,,D,V*29',,,,,,,,1,0.19018300653594772,0.4696078431372549,0.6119477124183006,1.0,10.0,0,0
4599277,14:32:10.500000,8.485000000000001,2024-06-05,595700.6896008139,5334016.511173168,17,N,14:32:10.500,48.15219194,-79.71327081,54549.62795,1,-1622,-33990,27886,-0.447,1.756,-4.698,-0.02345,-0.2052,0.96625,38.904,0.4,I,,,,,,,,,,,,,,,,,,,,,,,,,,,,,,,,,,,,,,,,,,,,,,1,0.2236470588235294,0.49313725490196075,0.6061960784313726,1.0,10.0,0,0
4602777,14:32:14,8.543333333333333,2024-06-05,595700.5411927078,5334044.27733921,17,N,14:32:14.000,48.15244171,-79.71326656,54557.7147,1,-2380,-34665,27518,-0.382,-1.794,1.205,0.00293,-0.20886,0.98761,38.945,2.5,G,0.58,2.0,12.0,336.0,-38.6,15.587,0.0, ,D,'$GNGGA,143214.0,4809.14676,N,7942.79597,W,2.0,12.0,0.58,336.0,M,-38.6,M,,0131*73','$GNRMC,143214.0,A,4809.14676,N,7942.79597,W,15.587,2.5,50624.0,,,D,V*2A',,,,,,,,1,0.25041830065359477,0.5119607843137255,0.60159477124183,1.0,10.0,0,0
4606277,14:32:17.500000,8.601666666666667,2024-06-05,595700.6843584208,5334072.31298617,17,N,14:32:17.500,48.15269386,-79.71325833,54569.23695,1,-852,-33824,28047,1.412,-2.17,7.895,0.01421,-0.17672,0.95771,38.986,2.0,I,,,,,,,,,,,,,,,,,,,,,,,,,,,,,,,,,,,,,,,,,,,,,,1,0.29057516339869277,0.5401960784313725,0.5946928104575163,1.0,10.0,0,0
4609777,14:32:21,8.66,2024-06-05,595700.7544638002,5334100.312947166,17,N,14:32:21.000,48.1529457,-79.71325109,54582.43025,1,-2373,-33864,27969,2.367,-0.464,7.418,0.06566,-0.18279,0.96235,38.931,1.5,G,0.58,2.0,12.0,337.4,-38.6,15.552,0.0, ,D,'$GNGGA,143221.0,4809.177,N,7942.79505,W,2.0,12.0,0.58,337.4,M,-38.6,M,,0131*78','$GNRMC,143221.0,A,4809.177,N,7942.79505,W,15.552,1.46,50624.0,,,D,V*28',,,,,,,,1,0.34411764705882353,0.577843137254902,0.5854901960784313,1.0,10.0,0,0
4613277,14:32:24.500000,8.718333333333334,2024-06-05,595700.9147385606,5334128.303300565,17,N,14:32:24.500,48.15319744,-79.71324264,54596.04115,1,-1901,-33475,28239,-0.124,1.008,6.791,0.04538,-0.19745,0.97524,38.983,0.3,I,,,,,,,,,,,,,,,,,,,,,,,,,,,,,,,,,,,,,,,,,,,,,,1,0.3909673202614379,0.6107843137254901,0.577437908496732,1.0,10.0,0,0
4616777,14:32:28,8.776666666666667,2024-06-05,595700.9232312384,5334156.161038605,17,N,14:32:28.000,48.15344801,-79.71323626,54612.01295,1,-2006,-33667,28214,2.676,-2.974,3.769,0.00932,-0.21216,0.98074,38.972,359.8,G,0.58,2.0,12.0,340.9,-38.6,15.456,0.0, ,D,'$GNGGA,143228.0,4809.20714,N,7942.79417,W,2.0,12.0,0.58,340.9,M,-38.6,M,,0131*7F','$GNRMC,143228.0,A,4809.20714,N,7942.79417,W,15.456,359.78,50624.0,,,D,V*24',,,,,,,,1,0.45120261437908493,0.6531372549019608,0.5670849673202615,1.0,10.0,0,0
4620277,14:32:31.500000,8.835,2024-06-05,595700.9037186039,5334183.558036929,17,N,14:32:31.500,48.15369444,-79.71323036,54631.5028,1,-2571,-33489,28196,-1.121,2.054,-1.147,-0.00287,-0.18788,0.9589,38.959,0.7,I,,,,,,,,,,,,,,,,,,,,,,,,,,,,,,,,,,,,,,,,,,,,,,1,0.5181307189542483,0.7001960784313725,0.5555816993464052,1.0,10.0,0,0
4623777,14:32:35,8.893333333333334,2024-06-05,595700.7969442359,5334210.879087809,17,N,14:32:35.000,48.1539402,-79.71322565,54651.87455,1,-2382,-34169,27870,2.93,-5.329,-2.306,0.00382,-0.17633,0.96136,38.984,1.8,G,0.58,2.0,12.0,350.4,-38.6,15.452,0.0, ,D,'$GNGGA,143235.0,4809.23667,N,7942.79352,W,2.0,12.0,0.58,350.4,M,-38.6,M,,0131*7F','$GNRMC,143235.0,A,4809.23667,N,7942.79352,W,15.452,1.84,50624.0,,,D,V*21',,,,,,,,1,0.5886666666666667,0.7442222222222222,0.5526666666666668,1.0,10.0,0,0
4627277,14:32:38.500000,8.951666666666666,2024-06-05,595700.7552748537,5334238.532536524,17,N,14:32:38.500,48.15418894,-79.71321999,54671.2765,1,-1911,-34275,27921,0.546,2.748,-3.115,0.00406,-0.17674,0.89844,38.986,0.5,I,,,,,,,,,,,,,,,,,,,,,,,,,,,,,,,,,,,,,,,,,,,,,,1,0.6325882352941177,0.762,0.5667843137254902,1.0,10.0,0,0
4630777,14:32:42,9.01,2024-06-05,595700.6900788386,5334266.391270129,17,N,14:32:42.000,48.15443953,-79.7132146,54684.42425,1,-2703,-33571,28160,1.463,0.544,-4.209,0.02181,-0.17032,0.89291,39.022,1.5,G,0.58,2.0,12.0,356.2,-38.6,15.436,0.0, ,D,'$GNGGA,143242.0,4809.26663,N,7942.79286,W,2.0,12.0,0.58,356.2,M,-38.6,M,,0131*76','$GNRMC,143242.0,A,4809.26663,N,7942.79286,W,15.436,1.46,50624.0,,,D,V*24',,,,,,,,1,0.6633333333333333,0.7744444444444444,0.5766666666666667,1.0,10.0,0,0
4634277,14:32:45.500000,9.068333333333333,2024-06-05,595700.8435991048,5334294.38263012,17,N,14:32:45.500,48.15469128,-79.71320624,54694.1261,1,-2537,-33365,28411,-0.352,-1.538,-3.714,0.02025,-0.17976,0.96191,39.009,0.5,I,,,,,,,,,,,,,,,,,,,,,,,,,,,,,,,,,,,,,,,,,,,,,,1,0.6896862745098039,0.7851111111111111,0.5851372549019608,1.0,10.0,0,0
4998677,14:38:49.900000,15.141666666666667,2024-06-05,595750.1924143296,5331722.324727115,17,N,14:38:49.900,48.13154899,-79.71312136,54651.8513,1,-3955,-17515,33165,-1.835,-2.111,-3.33,0.11254,-0.34521,0.93569,37.809,181.0,I,,,,,,,,,,,,,,,,,,,,,,,,,,,,,,,,,,,,,,,,,,,,,,2,0.5449019607843137,0.7190196078431372,0.5509803921568628,1.0,10.0,0,0
4995177,14:38:46.400000,15.083333333333334,2024-06-05,595750.904252688,5331749.309162249,17,N,14:38:46.400,48.1317916,-79.71310573,54645.74215,1,-2230,-17477,33337,-5.089,-1.676,-14.536,0.13443,-0.37582,0.92744,37.815,182.6,I,,,,,,,,,,,,,,,,,,,,,,,,,,,,,,,,,,,,,,,,,,,,,,2,0.5248235294117647,0.7049019607843137,0.5544313725490195,1.0,10.0,0,0
4991677,14:38:42.900000,15.025,2024-06-05,595750.7632969721,5331777.2654679995,17,N,14:38:42.900,48.13204308,-79.71310134,54635.8165,1,-3792,-17364,33170,2.493,-3.239,2.152,0.16154,-0.33982,0.85623,37.861,181.3,I,,,,,,,,,,,,,,,,,,,,,,,,,,,,,,,,,,,,,,,,,,,,,,2,0.4980522875816993,0.686078431372549,0.5590326797385622,1.0,10.0,0,0
4988177,14:38:39.400000,14.966666666666667,2024-06-05,595750.7742644858,5331804.948598827,17,N,14:38:39.400,48.13229208,-79.71309497,54628.2954,1,-3133,-17461,33221,5.275,-0.446,-7.741,0.14603,-0.40867,0.89037,37.814,179.9,I,,,,,,,,,,,,,,,,,,,,,,,,,,,,,,,,,,,,,,,,,,,,,,2,0.47128104575163404,0.6672549019607843,0.5636339869281046,1.0,10.0,0,0
4984677,14:38:35.900000,14.908333333333333,2024-06-05,595750.2201984187,5331832.908002008,17,N,14:38:35.900,48.13254365,-79.71309613,54619.86175,1,-5979,-16988,32937,4.608,2.865,-2.118,0.19422,-0.39379,0.87531,37.857,181.7,I,,,,,,,,,,,,,,,,,,,,,,,,,,,,,,,,,,,,,,,,,,,,,,2,0.45120261437908493,0.6531372549019608,0.5670849673202615,1.0,10.0,0,0
4981177,14:38:32.400000,14.85,2024-06-05,595750.0315389389,5331861.134784126,17,N,14:38:32.400,48.13279757,-79.71309232,54619.34035,1,-5761,-18737,32724,2.694,2.374,-4.498,0.15901,-0.46871,0.84014,37.86,181.0,I,,,,,,,,,,,,,,,,,,,,,,,,,,,,,,,,,,,,,,,,,,,,,,2,0.4445098039215686,0.6484313725490196,0.5682352941176471,1.0,10.0,0,0
4977677,14:38:28.900000,14.791666666666666,2024-06-05,595750.1724523683,5331888.967957384,17,N,14:38:28.900,48.1330479,-79.71308417,54616.63815,1,-5041,-19099,32822,-0.166,1.695,-15.132,0.13535,-0.51859,0.82976,37.858,182.6,I,,,,,,,,,,,,,,,,,,,,,,,,,,,,,,,,,,,,,,,,,,,,,,2,0.4378169934640523,0.6437254901960784,0.5693856209150326,1.0,10.0,0,0
4974177,14:38:25.400000,14.733333333333333,2024-06-05,595750.4569319006,5331916.493351284,17,N,14:38:25.400,48.13329544,-79.71307416,54612.0638,1,-4083,-20427,32648,3.757,3.535,-10.923,0.19939,-0.61247,0.86317,37.912,181.8,I,,,,,,,,,,,,,,,,,,,,,,,,,,,,,,,,,,,,,,,,,,,,,,2,0.4244313725490196,0.634313725490196,0.5716862745098039,1.0,10.0,0,0
4970677,14:38:21.900000,14.675,2024-06-05,595750.9162465576,5331944.4663775945,17,N,14:38:21.900,48.13354698,-79.7130617,54604.9836,1,-1558,-20376,32810,-2.748,-1.204,-11.439,0.13053,-0.40129,0.85231,37.92,180.7,I,,,,,,,,,,,,,,,,,,,,,,,,,,,,,,,,,,,,,,,,,,,,,,2,0.4043529411764706,0.6201960784313726,0.5751372549019608,1.0,10.0,0,0
4967177,14:38:18.400000,14.616666666666667,2024-06-05,595750.847342514,5331971.983638631,17,N,14:38:18.400,48.1337945,-79.71305644,54591.14995,1,-2398,-17360,33358,-2.788,-10.496,5.344,0.12323,-0.34674,0.89164,37.918,183.1,I,,,,,,,,,,,,,,,,,,,,,,,,,,,,,,,,,,,,,,,,,,,,,,2,0.3641960784313725,0.5919607843137255,0.5820392156862746,1.0,10.0,0,0
4963677,14:38:14.900000,14.558333333333334,2024-06-05,595750.4868632016,5332000.33651743,17,N,14:38:14.900,48.13404958,-79.71305491,54584.9034,1,-2326,-20923,32630,-8.425,0.109,0.046,0.01903,-0.39399,0.80371,37.947,183.2,I,,,,,,,,,,,,,,,,,,,,,,,,,,,,,,,,,,,,,,,,,,,,,,2,0.34411764705882353,0.577843137254902,0.5854901960784313,1.0,10.0,0,0
4960177,14:38:11.400000,14.5,2024-06-05,595750.417428394,5332027.840430876,17,N,14:38:11.400,48.13429698,-79.71304966,54580.21085,1,-3732,-22204,32205,-3.194,-4.459,5.515,0.12951,-0.47272,0.84393,37.935,181.1,I,,,,,,,,,,,,,,,,,,,,,,,,,,,,,,,,,,,,,,,,,,,,,,2,0.3307320261437909,0.5684313725490195,0.5877908496732026,1.0,10.0,0,0
4956677,14:38:07.900000,14.441666666666666,2024-06-05,595750.2733311204,5332055.981249798,17,N,14:38:07.900,48.13455012,-79.71304527,54581.8263,1,-4350,-23043,31898,9.119,1.055,3.6,0.14886,-0.52878,0.8781,37.931,181.6,I,,,,,,,,,,,,,,,,,,,,,,,,,,,,,,,,,,,,,,,,,,,,,,2,0.3374248366013072,0.5731372549019608,0.586640522875817,1.0,10.0,0,0
4953177,14:38:04.400000,14.383333333333333,2024-06-05,595750.1631166233,5332083.9202955505,17,N,14:38:04.400,48.13480144,-79.71304047,54586.65365,1,-3984,-23994,31792,-1.616,-0.468,-1.752,0.11156,-0.51286,0.77822,37.959,181.4,I,,,,,,,,,,,,,,,,,,,,,,,,,,,,,,,,,,,,,,,,,,,,,,2,0.3508104575163399,0.5825490196078431,0.5843398692810458,1.0,10.0,0,0
4949677,14:38:00.900000,14.325,2024-06-05,595750.2010983605,5332111.763986606,17,N,14:38:00.900,48.13505188,-79.7130337,54591.9171,1,-4124,-26412,31086,4.853,0.176,5.205,0.12944,-0.55158,0.76404,37.979,181.8,I,,,,,,,,,,,,,,,,,,,,,,,,,,,,,,,,,,,,,,,,,,,,,,2,0.3641960784313725,0.5919607843137255,0.5820392156862746,1.0,10.0,0,0
4946177,14:37:57.400000,14.266666666666667,2024-06-05,595750.4485197474,5332138.742894115,17,N,14:37:57.400,48.13529451,-79.71302431,54591.2036,1,-3508,-21488,32503,2.319,0.206,6.488,0.1434,-0.52176,0.85144,37.938,180.5,I,,,,,,,,,,,,,,,,,,,,,,,,,,,,,,,,,,,,,,,,,,,,,,2,0.3641960784313725,0.5919607843137255,0.5820392156862746,1.0,10.0,0,0
4942677,14:37:53.900000,14.208333333333334,2024-06-05,595750.5013493769,5332166.943712952,17,N,14:37:53.900,48.13554816,-79.71301726,54594.5269,1,-3317,-22221,32212,-2.893,0.647,-5.613,0.15066,-0.4741,0.81234,37.993,180.3,I,,,,,,,,,,,,,,,,,,,,,,,,,,,,,,,,,,,,,,,,,,,,,,2,0.3708888888888889,0.5966666666666666,0.5808888888888889,1.0,10.0,0,0
4939177,14:37:50.400000,14.15,2024-06-05,595750.572641715,5332195.330506899,17,N,14:37:50.400,48.13580348,-79.71300992,54599.4398,1,-2396,-26756,31077,5.481,3.135,-4.529,0.08576,-0.51893,0.76706,38.007,181.3,I,,,,,,,,,,,,,,,,,,,,,,,,,,,,,,,,,,,,,,,,,,,,,,2,0.3909673202614379,0.6107843137254901,0.577437908496732,1.0,10.0,0,0
4935677,14:37:46.900000,14.091666666666667,2024-06-05,595750.4636022523,5332222.218960102,17,N,14:37:46.900,48.13604535,-79.71300534,54591.7487,1,-3724,-20888,32593,2.838,-1.848,-1.216,0.10285,-0.53926,0.84179,38.01,182.6,I,,,,,,,,,,,,,,,,,,,,,,,,,,,,,,,,,,,,,,,,,,,,,,2,0.3641960784313725,0.5919607843137255,0.5820392156862746,1.0,10.0,0,0
4932177,14:37:43.400000,14.033333333333333,2024-06-05,595750.5922781555,5332250.555575548,17,N,14:37:43.400,48.13630021,-79.71299724,54595.8756,1,-2343,-21089,32658,-0.002,-2.903,3.139,0.04304,-0.5222,0.83511,37.982,181.3,I,,,,,,,,,,,,,,,,,,,,,,,,,,,,,,,,,,,,,,,,,,,,,,2,0.37758169934640523,0.6013725490196079,0.5797385620915033,1.0,10.0,0,0
4928677,14:37:39.900000,13.975,2024-06-05,595751.0625564953,5332279.156949363,17,N,14:37:39.900,48.1365574,-79.71298449,54608.24135,1,-1234,-25879,31428,6.276,0.794,-12.615,0.10692,-0.61512,0.8175,38.02,181.6,I,,,,,,,,,,,,,,,,,,,,,,,,,,,,,,,,,,,,,,,,,,,,,,2,0.41773856209150323,0.6296078431372549,0.5728366013071895,1.0,10.0,0,0
4925177,14:37:36.400000,13.916666666666666,2024-06-05,595750.9818814333,5332306.75074049,17,N,14:37:36.400,48.13680561,-79.71297937,54611.7445,1,-1482,-24580,31759,10.987,2.752,-8.886,0.13191,-0.5709,0.84085,38.027,180.2,I,,,,,,,,,,,,,,,,,,,,,,,,,,,,,,,,,,,,,,,,,,,,,,2,0.4244313725490196,0.634313725490196,0.5716862745098039,1.0,10.0,0,0
4921677,14:37:32.900000,13.858333333333333,2024-06-05,595750.3122474264,5332334.319113782,17,N,14:37:32.900,48.13705368,-79.71298217,54604.10385,1,-5111,-21829,32167,4.831,-0.886,0.406,0.15901,-0.51759,0.84551,38.062,182.4,I,,,,,,,,,,,,,,,,,,,,,,,,,,,,,,,,,,,,,,,,,,,,,,2,0.4043529411764706,0.6201960784313726,0.5751372549019608,1.0,10.0,0,0
4918177,14:37:29.400000,13.8,2024-06-05,595750.7626533979,5332361.660528324,17,N,14:37:29.400,48.13729954,-79.71296997,54597.74605,1,-3487,-19672,32873,-4.889,-4.514,7.215,0.09439,-0.51629,0.81564,38.082,182.3,I,,,,,,,,,,,,,,,,,,,,,,,,,,,,,,,,,,,,,,,,,,,,,,2,0.3842745098039215,0.606078431372549,0.5785882352941177,1.0,10.0,0,0
4914677,14:37:25.900000,13.741666666666667,2024-06-05,595750.6234499911,5332388.882013992,17,N,14:37:25.900,48.13754441,-79.71296572,54590.97375,1,-3656,-16096,33237,-3.346,4.573,-11.944,0.11911,-0.47191,0.88381,38.061,177.6,I,,,,,,,,,,,,,,,,,,,,,,,,,,,,,,,,,,,,,,,,,,,,,,2,0.3641960784313725,0.5919607843137255,0.5820392156862746,1.0,10.0,0,0
4911177,14:37:22.400000,13.683333333333334,2024-06-05,595750.717470638,5332417.374816582,17,N,14:37:22.400,48.13780068,-79.71295805,54594.7647,1,-4075,-18055,33025,16.949,10.511,-3.142,0.16753,-0.38277,0.89822,38.066,179.5,I,,,,,,,,,,,,,,,,,,,,,,,,,,,,,,,,,,,,,,,,,,,,,,2,0.37758169934640523,0.6013725490196079,0.5797385620915033,1.0,10.0,0,0
4907677,14:37:18.900000,13.625,2024-06-05,595750.517997439,5332444.995532082,17,N,14:37:18.900,48.13804915,-79.71295452,54597.06005,1,-4863,-16731,33170,-1.761,-1.646,-5.152,0.23531,-0.45015,0.89005,38.096,178.9,I,,,,,,,,,,,,,,,,,,,,,,,,,,,,,,,,,,,,,,,,,,,,,,2,0.3842745098039215,0.606078431372549,0.5785882352941177,1.0,10.0,0,0
4904177,14:37:15.400000,13.566666666666666,2024-06-05,595750.6099958536,5332473.430491659,17,N,14:37:15.400,48.1383049,-79.71294689,54602.02255,1,-5128,-18888,32737,1.325,-7.882,7.126,0.17597,-0.49672,0.8949,38.123,183.3,I,,,,,,,,,,,,,,,,,,,,,,,,,,,,,,,,,,,,,,,,,,,,,,2,0.39766013071895423,0.6154901960784314,0.5762875816993464,1.0,10.0,0,0
4900677,14:37:11.900000,13.508333333333333,2024-06-05,595750.7735341792,5332501.102866241,17,N,14:37:11.900,48.13855378,-79.71293847,54606.5381,1,-2946,-19767,32787,-0.089,0.53,-4.953,0.11683,-0.5315,0.90509,38.121,182.4,I,,,,,,,,,,,,,,,,,,,,,,,,,,,,,,,,,,,,,,,,,,,,,,2,0.4110457516339869,0.6249019607843137,0.5739869281045751,1.0,10.0,0,0
4897177,14:37:08.400000,13.45,2024-06-05,595750.5365692964,5332529.273282484,17,N,14:37:08.400,48.1388072,-79.71293532,54605.6388,1,-3955,-17564,33130,9.355,1.936,4.275,0.11055,-0.35999,0.90885,38.144,182.7,I,,,,,,,,,,,,,,,,,,,,,,,,,,,,,,,,,,,,,,,,,,,,,,2,0.4043529411764706,0.6201960784313726,0.5751372549019608,1.0,10.0,0,0
4893677,14:37:04.900000,13.391666666666667,2024-06-05,595750.5076208678,5332556.6633854285,17,N,14:37:04.900,48.13905357,-79.71292955,54610.5266,1,-4183,-18413,32955,2.438,0.225,-2.187,0.09831,-0.51264,0.91039,38.156,179.6,I,,,,,,,,,,,,,,,,,,,,,,,,,,,,,,,,,,,,,,,,,,,,,,2,0.4244313725490196,0.634313725490196,0.5716862745098039,1.0,10.0,0,0
4890177,14:37:01.400000,13.333333333333334,2024-06-05,595750.465517679,5332585.061641631,17,N,14:37:01.400,48.13930901,-79.71292373,54615.17585,1,-4622,-18956,32864,-5.766,-1.7,0.172,0.22055,-0.44618,0.79842,38.143,179.9,I,,,,,,,,,,,,,,,,,,,,,,,,,,,,,,,,,,,,,,,,,,,,,,2,0.4378169934640523,0.6437254901960784,0.5693856209150326,1.0,10.0,0,0
4886677,14:36:57.900000,13.275,2024-06-05,595750.7908492822,5332613.291500219,17,N,14:36:57.900,48.13956288,-79.71291301,54624.0988,1,-3491,-24496,31711,-4.884,-3.928,-1.392,0.13956,-0.62483,0.77193,38.139,181.0,I,,,,,,,,,,,,,,,,,,,,,,,,,,,,,,,,,,,,,,,,,,,,,,2,0.46458823529411764,0.6625490196078432,0.5647843137254902,1.0,10.0,0,0
4883177,14:36:54.400000,13.216666666666667,2024-06-05,595751.0475077872,5332641.177787014,17,N,14:36:54.400,48.13981367,-79.71290329,54620.4922,1,-1497,-18411,33243,2.432,-2.467,-6.361,0.17642,-0.39162,0.8602,38.186,181.8,I,,,,,,,,,,,,,,,,,,,,,,,,,,,,,,,,,,,,,,,,,,,,,,2,0.45120261437908493,0.6531372549019608,0.5670849673202615,1.0,10.0,0,0
4879677,14:36:50.900000,13.158333333333333,2024-06-05,595750.324238289,5332667.991499197,17,N,14:36:50.900,48.14005496,-79.71290698,54615.47185,1,-5489,-17240,33010,-6.199,-1.974,-7.001,0.06823,-0.50482,0.87472,38.165,183.8,I,,,,,,,,,,,,,,,,,,,,,,,,,,,,,,,,,,,,,,,,,,,,,,2,0.4378169934640523,0.6437254901960784,0.5693856209150326,1.0,10.0,0,0
4876177,14:36:47.400000,13.1,2024-06-05,595751.0492675933,5332696.569362591,17,N,14:36:47.400,48.1403119,-79.71289081,54619.7853,1,-2751,-18585,33159,-11.965,-3.619,0.139,0.13036,-0.4902,0.81521,38.196,182.5,I,,,,,,,,,,,,,,,,,,,,,,,,,,,,,,,,,,,,,,,,,,,,,,2,0.45120261437908493,0.6531372549019608,0.5670849673202615,1.0,10.0,0,0
4872677,14:36:43.900000,13.041666666666666,2024-06-05,595750.2836809114,5332725.422460749,17,N,14:36:43.900,48.14057154,-79.71289461,54623.74515,1,-3099,-21107,32577,-2.502,3.956,-8.58,0.04377,-0.41195,0.80478,38.221,180.1,I,,,,,,,,,,,,,,,,,,,,,,,,,,,,,,,,,,,,,,,,,,,,,,2,0.4578954248366013,0.657843137254902,0.5659346405228758,1.0,10.0,0,0
4869177,14:36:40.400000,12.983333333333333,2024-06-05,595750.4331715852,5332752.596540504,17,N,14:36:40.400,48.14081594,-79.71288649,54626.6045,1,-4488,-22802,32022,5.104,-2.218,6.405,0.15275,-0.60487,0.83405,38.221,181.8,I,,,,,,,,,,,,,,,,,,,,,,,,,,,,,,,,,,,,,,,,,,,,,,2,0.47128104575163404,0.6672549019607843,0.5636339869281046,1.0,10.0,0,0
4865677,14:36:36.900000,12.925,2024-06-05,595750.4181960942,5332780.527206039,17,N,14:36:36.900,48.14106717,-79.71288041,54626.1253,1,-4167,-18392,32994,-2.911,-4.539,-1.966,0.10925,-0.43682,0.82701,38.213,181.0,I,,,,,,,,,,,,,,,,,,,,,,,,,,,,,,,,,,,,,,,,,,,,,,2,0.46458823529411764,0.6625490196078432,0.5647843137254902,1.0,10.0,0,0
4862177,14:36:33.400000,12.866666666666667,2024-06-05,595750.3086652454,5332808.460737616,17,N,14:36:33.400,48.14131844,-79.7128756,54628.26625,1,-5612,-17341,32955,0.549,1.492,-6.214,0.1714,-0.48065,0.88653,38.239,180.8,I,,,,,,,,,,,,,,,,,,,,,,,,,,,,,,,,,,,,,,,,,,,,,,2,0.47128104575163404,0.6672549019607843,0.5636339869281046,1.0,10.0,0,0
4858677,14:36:29.900000,12.808333333333334,2024-06-05,595751.157222708,5332837.07958724,17,N,14:36:29.900,48.14157573,-79.71285776,54645.11685,1,-1597,-22894,32326,-2.576,-3.6,-3.338,0.234,-0.64105,0.76646,38.258,178.3,I,,,,,,,,,,,,,,,,,,,,,,,,,,,,,,,,,,,,,,,,,,,,,,2,0.5248235294117647,0.7049019607843137,0.5544313725490195,1.0,10.0,0,0
4855177,14:36:26.400000,12.75,2024-06-05,595750.4829355822,5332864.87804084,17,N,14:36:26.400,48.14182587,-79.71286057,54653.1446,1,-3822,-21787,32396,-14.05,-2.451,-0.04,0.18875,-0.52143,0.77626,38.252,182.6,I,,,,,,,,,,,,,,,,,,,,,,,,,,,,,,,,,,,,,,,,,,,,,,2,0.5449019607843137,0.7190196078431372,0.5509803921568628,1.0,10.0,0,0
4851677,14:36:22.900000,12.691666666666666,2024-06-05,595750.6129010464,5332891.927282379,17,N,14:36:22.900,48.14206915,-79.71285274,54662.4083,1,-4538,-16991,33206,-0.938,0.086,-3.531,0.10268,-0.46323,0.84785,38.238,182.9,I,,,,,,,,,,,,,,,,,,,,,,,,,,,,,,,,,,,,,,,,,,,,,,2,0.5754901960784313,0.7388888888888889,0.5484313725490196,1.0,10.0,0,0
4848177,14:36:19.400000,12.633333333333333,2024-06-05,595750.624616689,5332919.95067773,17,N,14:36:19.400,48.14232121,-79.71284628,54681.9367,1,-4599,-16629,33230,-4.476,0.539,-3.254,0.10745,-0.47116,0.88152,38.268,180.2,I,,,,,,,,,,,,,,,,,,,,,,,,,,,,,,,,,,,,,,,,,,,,,,2,0.6106274509803922,0.7531111111111112,0.5597254901960785,1.0,10.0,0,0
4844677,14:36:15.900000,12.575,2024-06-05,595750.5246139959,5332947.979987146,17,N,14:36:15.900,48.14257334,-79.71284132,54709.07595,1,-4283,-17180,33254,-3.152,-5.064,7.339,0.16867,-0.44063,0.8694,38.301,180.8,I,,,,,,,,,,,,,,,,,,,,,,,,,,,,,,,,,,,,,,,,,,,,,,2,0.6633333333333333,0.7744444444444444,0.5766666666666667,1.0,10.0,0,0
4841177,14:36:12.400000,12.516666666666667,2024-06-05,595750.558186105,5332976.252786708,17,N,14:36:12.400,48.14282764,-79.71283451,54746.45945,1,-3478,-17726,33275,1.329,-0.966,-8.732,0.10827,-0.39564,0.89712,38.309,181.6,I,,,,,,,,,,,,,,,,,,,,,,,,,,,,,,,,,,,,,,,,,,,,,,2,0.7379999999999999,0.8046666666666666,0.6006666666666667,1.0,10.0,0,0
4837677,14:36:08.900000,12.458333333333334,2024-06-05,595750.9359786994,5333004.053288377,17,N,14:36:08.900,48.14307764,-79.71282318,54789.3924,1,-2350,-17158,33364,2.493,-3.239,-2.884,0.15204,-0.43833,0.89928,38.351,180.2,I,,,,,,,,,,,,,,,,,,,,,,,,,,,,,,,,,,,,,,,,,,,,,,2,0.8214509803921568,0.8384444444444444,0.6274901960784314,1.0,10.0,0,0
4834177,14:36:05.400000,12.4,2024-06-05,595751.1110578282,5333031.828163586,17,N,14:36:05.400,48.14332744,-79.71281458,54825.16155,1,-2663,-14994,33649,4.113,1.429,0.502,0.12693,-0.3671,0.88108,38.352,181.6,I,,,,,,,,,,,,,,,,,,,,,,,,,,,,,,,,,,,,,,,,,,,,,,2,0.8490065359477125,0.8097647058823529,0.5899738562091503,1.0,10.0,0,0
4830677,14:36:01.900000,12.341666666666667,2024-06-05,595750.0673069808,5333060.405350003,17,N,14:36:01.900,48.14358464,-79.71282218,54855.2742,1,-5206,-20591,32757,6.219,1.376,-4.053,0.19985,-0.48581,0.87303,38.352,178.0,I,,,,,,,,,,,,,,,,,,,,,,,,,,,,,,,,,,,,,,,,,,,,,,2,0.8476470588235293,0.7547058823529412,0.5260784313725491,1.0,10.0,0,0
4827177,14:35:58.400000,12.283333333333333,2024-06-05,595750.2229609906,5333088.184349686,17,N,14:35:58.400,48.14383448,-79.71281384,54871.9311,1,-6056,-18474,32916,-2.549,-5.16,10.616,0.2327,-0.47031,0.87812,38.404,181.3,I,,,,,,,,,,,,,,,,,,,,,,,,,,,,,,,,,,,,,,,,,,,,,,2,0.8469150326797386,0.7250588235294118,0.4916732026143791,1.0,10.0,0,0
4823677,14:35:54.900000,12.225,2024-06-05,595750.3903408312,5333116.106964937,17,N,14:35:54.900,48.14408561,-79.71280531,54889.026,1,-4394,-18678,33183,-2.77,-0.94,-2.677,0.09985,-0.43577,0.88882,38.441,182.4,I,,,,,,,,,,,,,,,,,,,,,,,,,,,,,,,,,,,,,,,,,,,,,,2,0.846078431372549,0.6911764705882353,0.4523529411764705,1.0,10.0,0,0
4820177,14:35:51.400000,12.166666666666666,2024-06-05,595750.6562780035,5333142.941698901,17,N,14:35:51.400,48.14432694,-79.7127957,54901.1941,1,-3426,-15190,33631,-1.077,1.364,-5.129,0.14941,-0.48504,0.85684,38.398,179.1,I,,,,,,,,,,,,,,,,,,,,,,,,,,,,,,,,,,,,,,,,,,,,,,2,0.8455555555555555,0.67,0.42777777777777776,1.0,10.0,0,0
4816677,14:35:47.900000,12.108333333333333,2024-06-05,595750.8667624333,5333171.6221518945,17,N,14:35:47.900,48.14458488,-79.71278642,54922.58135,1,-2597,-17911,33550,-1.254,-2.988,7.712,0.15584,-0.41759,0.83337,38.42,180.6,I,,,,,,,,,,,,,,,,,,,,,,,,,,,,,,,,,,,,,,,,,,,,,,2,0.8445098039215686,0.6276470588235296,0.37862745098039224,1.0,10.0,0,0
4813177,14:35:44.400000,12.05,2024-06-05,595750.384797672,5333199.441626801,17,N,14:35:44.400,48.14483518,-79.71278664,54940.2252,1,-5208,-17791,33224,-0.56,-0.511,-3.17,0.10472,-0.41041,0.83685,38.436,180.7,I,,,,,,,,,,,,,,,,,,,,,,,,,,,,,,,,,,,,,,,,,,,,,,2,0.8436732026143792,0.593764705882353,0.3393071895424837,1.0,10.0,0,0
4809677,14:35:40.900000,11.991666666666667,2024-06-05,595750.8569365888,5333227.3804656295,17,N,14:35:40.900,48.14508641,-79.71277401,54967.35585,1,-1723,-15921,33767,5.214,-3.418,17.978,0.13611,-0.3297,0.913,38.486,178.5,I,,,,,,,,,,,,,,,,,,,,,,,,,,,,,,,,,,,,,,,,,,,,,,2,0.8259477124183007,0.5118300653594772,0.2917647058823529,1.0,10.0,0,0
4806177,14:35:37.400000,11.933333333333334,2024-06-05,595750.1555859654,5333255.504230833,17,N,14:35:37.400,48.14533948,-79.71277711,54982.79385,1,-6277,-20350,32751,11.893,2.683,0.039,0.10888,-0.44527,0.87202,38.465,180.5,I,,,,,,,,,,,,,,,,,,,,,,,,,,,,,,,,,,,,,,,,,,,,,,2,0.8120392156862745,0.45729411764705885,0.26650980392156864,1.0,10.0,0,0
4802677,14:35:33.900000,11.875,2024-06-05,595750.5665676388,5333283.050706538,17,N,14:35:33.900,48.14558719,-79.71276539,55004.0537,1,-3952,-18312,33425,-3.415,-1.114,-1.886,0.12024,-0.46074,0.88777,38.516,179.1,I,,,,,,,,,,,,,,,,,,,,,,,,,,,,,,,,,,,,,,,,,,,,,,2,0.7941568627450981,0.3871764705882353,0.2340392156862745,1.0,10.0,0,0
4799177,14:35:30.400000,11.816666666666666,2024-06-05,595750.4523168098,5333311.259900565,17,N,14:35:30.400,48.14584094,-79.71276058,55040.59915,1,-4012,-19213,33275,-0.609,0.986,-7.901,0.14483,-0.45151,0.85327,38.502,180.1,I,,,,,,,,,,,,,,,,,,,,,,,,,,,,,,,,,,,,,,,,,,,,,,2,0.7623660130718954,0.26252287581699346,0.17631372549019605,1.0,10.0,0,0
4795677,14:35:26.900000,11.758333333333333,2024-06-05,595750.4202168331,5333339.361517602,17,N,14:35:26.900,48.14609371,-79.71275469,55084.80265,1,-5076,-22149,32509,6.282,-0.439,-2.727,0.17397,-0.52089,0.82149,38.521,182.0,I,,,,,,,,,,,,,,,,,,,,,,,,,,,,,,,,,,,,,,,,,,,,,,2,0.7226274509803922,0.10670588235294115,0.10415686274509806,1.0,10.0,0,0
4792177,14:35:23.400000,11.7,2024-06-05,595750.4653614652,5333366.715097265,17,N,14:35:23.400,48.14633974,-79.71274793,55084.13515,1,-5118,-18741,33211,-8.449,-6.122,12.868,0.1295,-0.48133,0.81014,38.551,182.3,I,,,,,,,,,,,,,,,,,,,,,,,,,,,,,,,,,,,,,,,,,,,,,,2,0.7226274509803922,0.10670588235294115,0.10415686274509806,1.0,10.0,0,0
4788677,14:35:19.900000,11.641666666666667,2024-06-05,595750.590213909,5333394.72929066,17,N,14:35:19.900,48.1465917,-79.71273995,55031.4395,1,-4009,-20300,33079,4.098,-0.996,-3.834,0.11214,-0.50702,0.84651,38.586,180.2,I,,,,,,,,,,,,,,,,,,,,,,,,,,,,,,,,,,,,,,,,,,,,,,2,0.7703137254901962,0.29368627450980417,0.1907450980392158,1.0,10.0,0,0
