Counter,UTC_time_stamps,elapsed_time_minutes,Date,UTME,UTMN,UTM_zone,UTM_letter,Time,Latitude,Longitude,Mag_TMI_nT,Mag_Lock,CompassX,CompassY,CompassZ,GyroscopeX,GyroscopeY,GyroscopeZ,AccelerometerX,AccelerometerY,AccelerometerZ,ImuTemperature,Track,LocationSource,Hdop,FixQuality,SatellitesUsed,Altitude,HeightOverEllipsoid,SpeedOverGround,MagneticVariation,VariationDirection,ModeIndicator,GgaSentence,RmcSentence,EventCode,EventInfo,EventDataLength,EventData,uk1,uk2,uk3,uk4,uk5,uk6,uk7,uk8,uk9,uk10,uk11,uk12,uk13,uk14,uk15,uk16,uk17,uk18,uk19,uk20,uk21,uk22,uk23,uk24,uk25,uk26,uk27,uk28,uk29,uk30,Flightline,r,g,b,a,size,range_noise,noise_bad
702277,13:27:13.500000,3.368333333333333,2024-06-05,596000.6307971135,5331700.814523216,17,N,13:27:13.500,48.13131778,-79.70976121,54655.39315,1,-3546,-34742,27556,-0.453,0.315,2.316,0.07142,-0.22109,0.94618,35.598,0.9,I,,,,,,,,,,,,,,,,,,,,,,,,,,,,,,,,,,,,,,,,,,,,,,1,0.4043529411764706,0.6201960784313726,0.5751372549019608,1.0,10.0,0,0
705777,13:27:17,3.4266666666666667,2024-06-05,596000.7637473688,5331728.564215734,17,N,13:27:17.000,48.13156736,-79.70975317,54651.9619,1,-4237,-35122,27366,0.348,-0.661,6.145,0.0635,-0.22577,0.95618,35.67,0.6,G,0.52,2.0,12.0,375.7,-38.6,15.521,0.0, ,D,'$GNGGA,132717.0,4807.8943,N,7942.58518,W,2.0,12.0,0.52,375.7,M,-38.6,M,,0131*77','$GNRMC,132717.0,A,4807.8943,N,7942.58518,W,15.521,0.64,50624.0,,,D,V*2D',,,,,,,,1,0.3909673202614379,0.6107843137254901,0.577437908496732,1.0,10.0,0,0
709277,13:27:20.500000,3.485,2024-06-05,596000.8025739898,5331756.201154251,17,N,13:27:20.500,48.13181594,-79.70974642,54636.61495,1,-4183,-34869,27559,-0.888,-1.569,6.94,0.04649,-0.19579,0.95123,35.668,0.6,I,,,,,,,,,,,,,,,,,,,,,,,,,,,,,,,,,,,,,,,,,,,,,,1,0.3508104575163399,0.5825490196078431,0.5843398692810458,1.0,10.0,0,0
712777,13:27:24,3.5433333333333334,2024-06-05,596000.6716078768,5331783.799669655,17,N,13:27:24.000,48.1320642,-79.70974196,54616.22455,1,-3900,-35860,26899,1.857,-2.53,6.965,0.04814,-0.22023,0.95645,35.648,1.6,G,0.52,2.0,12.0,367.9,-38.6,15.254,0.0, ,D,'$GNGGA,132724.0,4807.92411,N,7942.5845,W,2.0,12.0,0.52,367.9,M,-38.6,M,,0131*7E','$GNRMC,132724.0,A,4807.92411,N,7942.5845,W,15.254,1.56,50624.0,,,D,V*2C',,,,,,,,1,0.2972679738562092,0.5449019607843137,0.5935424836601306,1.0,10.0,0,0
716277,13:27:27.500000,3.6016666666666666,2024-06-05,596000.7771961744,5331811.493318803,17,N,13:27:27.500,48.13231328,-79.7097343,54596.0413,1,-3639,-35973,26798,-2.626,-4.83,5.832,0.05453,-0.22045,0.95077,35.674,1.7,I,,,,,,,,,,,,,,,,,,,,,,,,,,,,,,,,,,,,,,,,,,,,,,1,0.24372549019607845,0.5072549019607843,0.6027450980392157,1.0,10.0,0,0
719777,13:27:31,3.6599999999999997,2024-06-05,596000.859397463,5331839.649071857,17,N,13:27:31.000,48.13256652,-79.70972685,54582.1843,1,-4412,-35335,27092,-3.292,-0.376,4.724,0.06363,-0.22044,0.95859,35.652,0.6,G,0.52,2.0,12.0,363.3,-38.6,15.555,0.0, ,D,'$GNGGA,132731.0,4807.95425,N,7942.5836,W,2.0,12.0,0.52,363.3,M,-38.6,M,,0131*70','$GNRMC,132731.0,A,4807.95425,N,7942.5836,W,15.555,0.55,50624.0,,,D,V*28',,,,,,,,1,0.2035686274509804,0.4790196078431372,0.6096470588235293,1.0,10.0,0,0
723277,13:27:34.500000,3.7183333333333333,2024-06-05,596000.6303053972,5331867.5060985405,17,N,13:27:34.500,48.13281712,-79.70972365,54571.8037,1,-3220,-35198,27307,-1.067,1.373,2.109,0.03592,-0.2139,0.95395,35.709,1.2,I,,,,,,,,,,,,,,,,,,,,,,,,,,,,,,,,,,,,,,,,,,,,,,1,0.17679738562091504,0.4601960784313725,0.6142483660130719,1.0,10.0,0,0
726777,13:27:38,3.7766666666666664,2024-06-05,596000.6125651642,5331895.363336192,17,N,13:27:38.000,48.13306769,-79.70971761,54569.91495,1,-2936,-36119,26768,-3.235,-0.811,3.809,0.03369,-0.24241,0.9412,35.713,1.5,G,0.52,2.0,12.0,361.1,-38.6,15.699,0.0, ,D,'$GNGGA,132738.0,4807.98432,N,7942.58304,W,2.0,12.0,0.52,361.1,M,-38.6,M,,0131*70','$GNRMC,132738.0,A,4807.98432,N,7942.58304,W,15.699,1.53,50624.0,,,D,V*2C',,,,,,,,1,0.1701045751633987,0.45549019607843133,0.6153986928104574,1.0,10.0,0,0
730277,13:27:41.500000,3.835,2024-06-05,596000.8307819613,5331923.217862317,17,N,13:27:41.500,48.1333182,-79.7097084,54562.678,1,-3586,-34404,27706,0.71,0.44,3.824,0.0709,-0.15823,0.92489,35.732,1.2,I,,,,,,,,,,,,,,,,,,,,,,,,,,,,,,,,,,,,,,,,,,,,,,1,0.1500261437908497,0.44137254901960776,0.6188496732026144,1.0,10.0,0,0
733777,13:27:45,3.893333333333333,2024-06-05,596000.7524770644,5331951.268645865,17,N,13:27:45.000,48.13357052,-79.70970313,54569.27415,1,-4515,-36506,26339,9.833,9.82,-2.09,0.04672,-0.24855,0.94375,35.734,0.1,G,0.52,2.0,12.0,357.2,-38.6,15.281,0.0, ,D,'$GNGGA,132745.0,4808.01449,N,7942.58218,W,2.0,12.0,0.52,357.2,M,-38.6,M,,0131*73','$GNRMC,132745.0,A,4808.01449,N,7942.58218,W,15.281,0.13,50624.0,,,D,V*21',,,,,,,,1,0.1701045751633987,0.45549019607843133,0.6153986928104574,1.0,10.0,0,0
737277,13:27:48.500000,3.9516666666666667,2024-06-05,596000.5399681854,5331978.801319833,17,N,13:27:48.500,48.1338182,-79.70969978,54567.642,1,-3852,-36642,26361,3.48,1.67,-4.479,0.04894,-0.22912,0.95904,35.733,1.5,I,,,,,,,,,,,,,,,,,,,,,,,,,,,,,,,,,,,,,,,,,,,,,,1,0.16341176470588237,0.45078431372549016,0.616549019607843,1.0,10.0,0,0
740777,13:27:52,4.01,2024-06-05,596000.6939808567,5332006.4891197,17,N,13:27:52.000,48.13406722,-79.70969147,54568.73855,1,-4629,-37155,25814,6.441,8.913,-4.488,0.0914,-0.21796,0.99986,35.748,1.7,G,0.52,2.0,12.0,353.0,-38.6,15.374,0.0, ,D,'$GNGGA,132752.0,4808.04429,N,7942.58147,W,2.0,12.0,0.52,353.0,M,-38.6,M,,0131*79','$GNRMC,132752.0,A,4808.04429,N,7942.58147,W,15.374,1.65,50624.0,,,D,V*26',,,,,,,,1,0.1701045751633987,0.45549019607843133,0.6153986928104574,1.0,10.0,0,0
744277,13:27:55.500000,4.068333333333333,2024-06-05,596000.7555787655,5332034.716801192,17,N,13:27:55.500,48.13432111,-79.70968428,54565.35825,1,-4521,-36430,26493,2.538,-3.549,-1.998,0.09433,-0.21872,0.94341,35.785,0.8,I,,,,,,,,,,,,,,,,,,,,,,,,,,,,,,,,,,,,,,,,,,,,,,1,0.15671895424836602,0.44607843137254893,0.6176993464052287,1.0,10.0,0,0
747777,13:27:59,4.126666666666667,2024-06-05,596000.8220407497,5332062.520982421,17,N,13:27:59.000,48.13457119,-79.70967712,54569.3593,1,-4947,-37185,25846,0.079,-2.523,5.378,0.08336,-0.26862,0.95512,35.795,0.2,G,0.52,2.0,12.0,355.1,-38.6,15.172,0.0, ,D,'$GNGGA,132759.0,4808.07453,N,7942.58062,W,2.0,12.0,0.52,355.1,M,-38.6,M,,0131*7D','$GNRMC,132759.0,A,4808.07453,N,7942.58062,W,15.172,0.16,50624.0,,,D,V*24',,,,,,,,1,0.1701045751633987,0.45549019607843133,0.6153986928104574,1.0,10.0,0,0
751277,13:28:02.500000,4.185,2024-06-05,596000.8152376136,5332090.1671768455,17,N,13:28:02.500,48.13481986,-79.70967098,54577.81475,1,-5449,-38634,24735,-2.974,-4.513,9.087,0.08688,-0.30833,0.92261,35.812,0.3,I,,,,,,,,,,,,,,,,,,,,,,,,,,,,,,,,,,,,,,,,,,,,,,1,0.19018300653594772,0.4696078431372549,0.6119477124183006,1.0,10.0,0,0
754777,13:28:06,4.243333333333333,2024-06-05,596000.7092216284,5332118.18192672,17,N,13:28:06.000,48.13507186,-79.70966609,54576.13485,1,-4199,-38067,25234,5.245,-2.413,6.818,0.05831,-0.2749,0.93506,35.788,1.3,G,0.52,2.0,12.0,357.8,-38.6,16.096,0.0, ,D,'$GNGGA,132806.0,4808.10457,N,7942.57995,W,2.0,12.0,0.52,357.8,M,-38.6,M,,0131*7F','$GNRMC,132806.0,A,4808.10457,N,7942.57995,W,16.096,1.29,50624.0,,,D,V*28',,,,,,,,1,0.19018300653594772,0.4696078431372549,0.6119477124183006,1.0,10.0,0,0
758277,13:28:09.500000,4.301666666666667,2024-06-05,596000.5764976133,5332146.5019658,17,N,13:28:09.500,48.13532661,-79.70966149,54571.99225,1,-3523,-36262,26648,-2.19,-1.864,-2.875,0.04097,-0.21796,0.97219,35.859,0.5,I,,,,,,,,,,,,,,,,,,,,,,,,,,,,,,,,,,,,,,,,,,,,,,1,0.17679738562091504,0.4601960784313725,0.6142483660130719,1.0,10.0,0,0
761777,13:28:13,4.36,2024-06-05,596000.7058174391,5332174.3283302,17,N,13:28:13.000,48.13557688,-79.70965348,54581.39215,1,-5216,-36957,25925,5.189,0.134,4.506,0.08173,-0.22441,0.95219,35.836,1.8,G,0.52,2.0,12.0,357.5,-38.6,15.346,0.0, ,D,'$GNGGA,132813.0,4808.13487,N,7942.57919,W,2.0,12.0,0.52,357.5,M,-38.6,M,,0131*7C','$GNRMC,132813.0,A,4808.13487,N,7942.57919,W,15.346,1.77,50624.0,,,D,V*20',,,,,,,,1,0.2035686274509804,0.4790196078431372,0.6096470588235293,1.0,10.0,0,0
765277,13:28:16.500000,4.418333333333334,2024-06-05,596000.5944042618,5332201.99834557,17,N,13:28:16.500,48.13582578,-79.70964874,54587.55715,1,-4055,-37842,25521,-4.885,-3.299,-0.194,0.05252,-0.22486,0.93022,35.834,359.7,I,,,,,,,,,,,,,,,,,,,,,,,,,,,,,,,,,,,,,,,,,,,,,,1,0.2169542483660131,0.4884313725490196,0.6073464052287582,1.0,10.0,0,0
768777,13:28:20,4.4766666666666675,2024-06-05,596000.6987511187,5332230.247876967,17,N,13:28:20.000,48.13607986,-79.70964097,54587.08885,1,-5264,-36104,26508,5.3,3.238,-1.78,0.05462,-0.24269,0.93184,35.901,0.3,G,0.52,2.0,12.0,356.3,-38.6,15.451,0.0, ,D,'$GNGGA,132820.0,4808.16505,N,7942.57845,W,2.0,12.0,0.52,356.3,M,-38.6,M,,0131*7D','$GNRMC,132820.0,A,4808.16505,N,7942.57845,W,15.451,0.29,50624.0,,,D,V*2D',,,,,,,,1,0.2169542483660131,0.4884313725490196,0.6073464052287582,1.0,10.0,0,0
772277,13:28:23.500000,4.535,2024-06-05,596000.8085251247,5332257.951623032,17,N,13:28:23.500,48.13632903,-79.70963325,54595.3037,1,-6696,-37553,25351,2.138,0.033,1.137,0.0535,-0.28133,0.93503,35.871,0.6,I,,,,,,,,,,,,,,,,,,,,,,,,,,,,,,,,,,,,,,,,,,,,,,1,0.2370326797385621,0.5025490196078432,0.6038954248366013,1.0,10.0,0,0
775777,13:28:27,4.593333333333334,2024-06-05,596000.694032562,5332285.892861779,17,N,13:28:27.000,48.13658037,-79.70962849,54592.8419,1,-6171,-37088,25779,-0.194,0.197,-1.112,0.04671,-0.26645,0.93005,35.936,1.8,G,0.52,2.0,12.0,353.4,-38.6,15.681,0.0, ,D,'$GNGGA,132827.0,4808.19508,N,7942.57769,W,2.0,12.0,0.52,353.4,M,-38.6,M,,0131*7B','$GNRMC,132827.0,A,4808.19508,N,7942.57769,W,15.681,1.82,50624.0,,,D,V*26',,,,,,,,1,0.23033986928104577,0.4978431372549019,0.6050457516339869,1.0,10.0,0,0
779277,13:28:30.500000,4.651666666666667,2024-06-05,596000.7057990842,5332313.937390672,17,N,13:28:30.500,48.13683262,-79.70962201,54590.31475,1,-4136,-37773,25547,-1.967,0.236,-6.24,0.053,-0.272,0.97716,35.926,2.2,I,,,,,,,,,,,,,,,,,,,,,,,,,,,,,,,,,,,,,,,,,,,,,,1,0.2236470588235294,0.49313725490196075,0.6061960784313726,1.0,10.0,0,0
782777,13:28:34,4.71,2024-06-05,596000.6852201894,5332341.869089751,17,N,13:28:34.000,48.13708386,-79.70961599,54586.7561,1,-4848,-36594,26238,1.875,0.204,-8.058,0.05728,-0.25811,0.94226,35.953,0.5,G,0.52,2.0,12.0,352.8,-38.6,15.671,0.0, ,D,'$GNGGA,132834.0,4808.22529,N,7942.57695,W,2.0,12.0,0.52,352.8,M,-38.6,M,,0131*7D','$GNRMC,132834.0,A,4808.22529,N,7942.57695,W,15.671,0.47,50624.0,,,D,V*2A',,,,,,,,1,0.2169542483660131,0.4884313725490196,0.6073464052287582,1.0,10.0,0,0
786277,13:28:37.500000,4.7683333333333335,2024-06-05,596000.5038928045,5332369.623545961,17,N,13:28:37.500,48.13733353,-79.70961217,54591.5074,1,-5429,-38099,25147,-1.148,-1.224,0.925,0.06774,-0.28427,0.96048,35.905,359.8,I,,,,,,,,,,,,,,,,,,,,,,,,,,,,,,,,,,,,,,,,,,,,,,1,0.23033986928104577,0.4978431372549019,0.6050457516339869,1.0,10.0,0,0
789777,13:28:41,4.826666666666667,2024-06-05,596000.5148948999,5332397.712536609,17,N,13:28:41.000,48.13758618,-79.70960569,54581.7589,1,-4194,-36711,26270,4.269,-1.208,4.453,0.0219,-0.26432,0.95839,35.895,0.7,G,0.52,2.0,12.0,355.2,-38.6,15.527,0.0, ,D,'$GNGGA,132841.0,4808.25543,N,7942.57633,W,2.0,12.0,0.52,355.2,M,-38.6,M,,0131*75','$GNRMC,132841.0,A,4808.25543,N,7942.57633,W,15.527,0.69,50624.0,,,D,V*23',,,,,,,,1,0.2035686274509804,0.4790196078431372,0.6096470588235293,1.0,10.0,0,0
793277,13:28:44.500000,4.885000000000001,2024-06-05,596000.826496697,5332425.448582267,17,N,13:28:44.500,48.13783561,-79.70959525,54587.535,1,-4705,-38954,24609,-2.748,0.913,-3.387,0.02241,-0.30857,0.9049,35.93,1.2,I,,,,,,,,,,,,,,,,,,,,,,,,,,,,,,,,,,,,,,,,,,,,,,1,0.2169542483660131,0.4884313725490196,0.6073464052287582,1.0,10.0,0,0
796777,13:28:48,4.943333333333333,2024-06-05,596000.6773224185,5332453.325876111,17,N,13:28:48.000,48.13808638,-79.70959097,54582.8781,1,-4652,-37539,25632,1.393,3.512,-2.754,0.0336,-0.24513,0.94956,35.963,1.6,G,0.52,2.0,12.0,356.1,-38.6,15.421,0.0, ,D,'$GNGGA,132848.0,4808.28544,N,7942.57544,W,2.0,12.0,0.52,356.1,M,-38.6,M,,0131*75','$GNRMC,132848.0,A,4808.28544,N,7942.57544,W,15.421,1.61,50624.0,,,D,V*2D',,,,,,,,1,0.2035686274509804,0.4790196078431372,0.6096470588235293,1.0,10.0,0,0
800277,13:28:51.500000,5.001666666666667,2024-06-05,596000.3138851813,5332481.2885180935,17,N,13:28:51.500,48.13833795,-79.70958955,54587.0125,1,-2441,-37906,25611,3.24,2.352,-2.375,0.02728,-0.27909,0.94641,35.98,1.8,I,,,,,,,,,,,,,,,,,,,,,,,,,,,,,,,,,,,,,,,,,,,,,,1,0.2169542483660131,0.4884313725490196,0.6073464052287582,1.0,10.0,0,0
803777,13:28:55,5.0600000000000005,2024-06-05,596000.4882312997,5332509.353571829,17,N,13:28:55.000,48.13859036,-79.70958088,54597.12005,1,-3358,-37226,26073,3.335,-3.054,-4.417,0.06214,-0.27887,0.96059,35.943,1.0,G,0.52,2.0,12.0,356.3,-38.6,15.504,0.0, ,D,'$GNGGA,132855.0,4808.31568,N,7942.57484,W,2.0,12.0,0.52,356.3,M,-38.6,M,,0131*70','$GNRMC,132855.0,A,4808.31568,N,7942.57484,W,15.504,0.97,50624.0,,,D,V*24',,,,,,,,1,0.24372549019607845,0.5072549019607843,0.6027450980392157,1.0,10.0,0,0
807277,13:28:58.500000,5.118333333333334,2024-06-05,596000.6149280468,5332537.242168223,17,N,13:28:58.500,48.13884119,-79.70957289,54612.7692,1,-4517,-37592,25594,0.087,1.488,-2.754,0.057,-0.29521,0.97085,36.014,0.3,I,,,,,,,,,,,,,,,,,,,,,,,,,,,,,,,,,,,,,,,,,,,,,,1,0.2838823529411764,0.5354901960784313,0.5958431372549019,1.0,10.0,0,0
810777,13:29:02,5.176666666666667,2024-06-05,596000.524211658,5332564.960353293,17,N,13:29:02.000,48.13909052,-79.70956786,54626.01565,1,-5860,-37466,25568,1.505,5.329,0.113,0.05077,-0.27095,0.93808,35.994,359.4,G,0.52,2.0,12.0,361.3,-38.6,15.517,0.0, ,D,'$GNGGA,132902.0,4808.34569,N,7942.57407,W,2.0,12.0,0.52,361.3,M,-38.6,M,,0131*78','$GNRMC,132902.0,A,4808.34569,N,7942.57407,W,15.517,359.42,50624.0,,,D,V*2D',,,,,,,,1,0.32403921568627453,0.5637254901960784,0.5889411764705882,1.0,10.0,0,0
814277,13:29:05.500000,5.235,2024-06-05,596000.5859067716,5332592.553243291,17,N,13:29:05.500,48.1393387,-79.70956081,54641.33665,1,-5470,-38837,24685,2.315,-3.282,-0.182,0.03437,-0.2911,0.94843,35.998,1.1,I,,,,,,,,,,,,,,,,,,,,,,,,,,,,,,,,,,,,,,,,,,,,,,1,0.3641960784313725,0.5919607843137255,0.5820392156862746,1.0,10.0,0,0
817777,13:29:09,5.293333333333334,2024-06-05,596000.6056960743,5332620.514538477,17,N,13:29:09.000,48.1395902,-79.70955424,54645.97315,1,-5462,-37568,25535,1.741,-1.003,1.309,0.04822,-0.25943,0.9311,36.008,1.2,G,0.52,2.0,12.0,367.1,-38.6,15.585,0.0, ,D,'$GNGGA,132909.0,4808.37567,N,7942.57324,W,2.0,12.0,0.52,367.1,M,-38.6,M,,0131*7C','$GNRMC,132909.0,A,4808.37567,N,7942.57324,W,15.585,1.21,50624.0,,,D,V*2D',,,,,,,,1,0.37758169934640523,0.6013725490196079,0.5797385620915033,1.0,10.0,0,0
821277,13:29:12.500000,5.3516666666666675,2024-06-05,596000.7201141132,5332648.689770256,17,N,13:29:12.500,48.13984361,-79.70954635,54651.4239,1,-5711,-36887,26083,2.805,1.412,1.17,0.06632,-0.25091,0.95489,36.03,1.4,I,,,,,,,,,,,,,,,,,,,,,,,,,,,,,,,,,,,,,,,,,,,,,,1,0.3909673202614379,0.6107843137254901,0.577437908496732,1.0,10.0,0,0
824777,13:29:16,5.41,2024-06-05,596000.6731965586,5332676.678854882,17,N,13:29:16.000,48.14009537,-79.70954067,54659.71865,1,-5077,-35870,26827,-1.748,1.203,-3.193,0.04069,-0.21315,0.95568,36.025,0.6,G,0.52,2.0,12.0,367.1,-38.6,15.476,0.0, ,D,'$GNGGA,132916.0,4808.40598,N,7942.57243,W,2.0,12.0,0.52,367.1,M,-38.6,M,,0131*72','$GNRMC,132916.0,A,4808.40598,N,7942.57243,W,15.476,0.56,50624.0,,,D,V*2F',,,,,,,,1,0.4110457516339869,0.6249019607843137,0.5739869281045751,1.0,10.0,0,0
828277,13:29:19.500000,5.468333333333334,2024-06-05,596000.6905348584,5332704.518930152,17,N,13:29:19.500,48.14034578,-79.70953416,54686.9384,1,-4746,-37252,25903,2.323,0.047,0.777,0.04642,-0.25084,0.96547,36.02,1.3,I,,,,,,,,,,,,,,,,,,,,,,,,,,,,,,,,,,,,,,,,,,,,,,1,0.48466666666666675,0.6766666666666667,0.5613333333333334,1.0,10.0,0,0
831777,13:29:23,5.526666666666667,2024-06-05,596000.6653767388,5332732.230440388,17,N,13:29:23.000,48.14059504,-79.70952825,54719.9039,1,-4352,-37928,25618,-0.909,-2.416,2.705,0.02906,-0.2581,0.93917,36.092,1.2,G,0.52,2.0,12.0,365.6,-38.6,15.131,0.0, ,D,'$GNGGA,132923.0,4808.43596,N,7942.57168,W,2.0,12.0,0.52,365.6,M,-38.6,M,,0131*76','$GNRMC,132923.0,A,4808.43596,N,7942.57168,W,15.131,1.23,50624.0,,,D,V*2B',,,,,,,,1,0.5710980392156861,0.7371111111111112,0.5470196078431373,1.0,10.0,0,0
835277,13:29:26.500000,5.585,2024-06-05,596000.6907258556,5332760.301900422,17,N,13:29:26.500,48.14084753,-79.70952158,54753.2414,1,-4693,-37242,26015,-4.599,-2.953,2.126,0.06157,-0.26618,0.95082,36.043,2.0,I,,,,,,,,,,,,,,,,,,,,,,,,,,,,,,,,,,,,,,,,,,,,,,1,0.6325882352941177,0.762,0.5667843137254902,1.0,10.0,0,0
838777,13:29:30,5.6433333333333335,2024-06-05,596000.7369175595,5332787.929004165,17,N,13:29:30.000,48.14109602,-79.70951473,54787.39035,1,-4903,-37236,26043,2.398,0.649,-4.345,0.05859,-0.25832,0.928,36.093,359.7,G,0.52,2.0,12.0,360.0,-38.6,15.084,0.0, ,D,'$GNGGA,132930.0,4808.46602,N,7942.57088,W,2.0,12.0,0.52,360.0,M,-38.6,M,,0131*73','$GNRMC,132930.0,A,4808.46602,N,7942.57088,W,15.084,359.73,50624.0,,,D,V*29',,,,,,,,1,0.6896862745098039,0.7851111111111111,0.5851372549019608,1.0,10.0,0,0
842277,13:29:33.500000,5.701666666666667,2024-06-05,596000.849350891,5332815.86518042,17,N,13:29:33.500,48.14134728,-79.70950692,54830.86315,1,-6142,-37836,25406,1.877,-0.197,1.797,0.05446,-0.31453,0.97657,36.085,0.6,I,,,,,,,,,,,,,,,,,,,,,,,,,,,,,,,,,,,,,,,,,,,,,,1,0.7687450980392156,0.817111111111111,0.6105490196078431,1.0,10.0,0,0
845777,13:29:37,5.760000000000001,2024-06-05,596000.5707470035,5332843.868173806,17,N,13:29:37.000,48.1415992,-79.70950435,54862.24115,1,-5069,-36517,26523,0.932,-2.076,6.731,0.03855,-0.23866,0.96478,36.11,0.7,G,0.52,2.0,12.0,355.7,-38.6,15.822,0.0, ,D,'$GNGGA,132937.0,4808.49621,N,7942.57025,W,2.0,12.0,0.52,355.7,M,-38.6,M,,0131*7C','$GNRMC,132937.0,A,4808.49621,N,7942.57025,W,15.822,0.69,50624.0,,,D,V*27',,,,,,,,1,0.8214509803921568,0.8384444444444444,0.6274901960784314,1.0,10.0,0,0
849277,13:29:40.500000,5.818333333333333,2024-06-05,596000.6134489235,5332871.746482494,17,N,13:29:40.500,48.14184995,-79.70949749,54870.3069,1,-5031,-37111,26251,2.742,-2.112,9.205,0.03205,-0.23308,0.9658,36.082,1.2,I,,,,,,,,,,,,,,,,,,,,,,,,,,,,,,,,,,,,,,,,,,,,,,1,0.8390196078431372,0.8455555555555555,0.6331372549019608,1.0,10.0,0,0
852777,13:29:44,5.876666666666667,2024-06-05,596000.7688269642,5332899.9602135625,17,N,13:29:44.000,48.1421037,-79.70948904,54850.99215,1,-5157,-35911,26893,-1.571,-4.807,4.033,0.0358,-0.2301,0.95691,36.113,0.8,G,0.52,2.0,12.0,355.2,-38.6,15.366,0.0, ,D,'$GNGGA,132944.0,4808.52648,N,7942.56933,W,2.0,12.0,0.52,355.2,M,-38.6,M,,0131*77','$GNRMC,132944.0,A,4808.52648,N,7942.56933,W,15.366,0.77,50624.0,,,D,V*2D',,,,,,,,1,0.8038823529411765,0.8313333333333333,0.621843137254902,1.0,10.0,0,0
856277,13:29:47.500000,5.9350000000000005,2024-06-05,596000.6838241697,5332927.909758898,17,N,13:29:47.500,48.14235511,-79.70948388,54834.2851,1,-4714,-35432,27274,0.123,-2.948,0.1,0.04892,-0.22069,0.97206,36.154,1.7,I,,,,,,,,,,,,,,,,,,,,,,,,,,,,,,,,,,,,,,,,,,,,,,1,0.7731372549019608,0.8188888888888889,0.6119607843137255,1.0,10.0,0,0
859777,13:29:51,5.993333333333334,2024-06-05,596000.7150822647,5332955.493260832,17,N,13:29:51.000,48.14260321,-79.70947724,54831.6881,1,-4812,-36040,26843,2.971,-0.732,5.525,0.05009,-0.21789,0.94737,36.152,1.2,G,0.52,2.0,12.0,355.6,-38.6,15.632,0.0, ,D,'$GNGGA,132951.0,4808.55645,N,7942.56862,W,2.0,12.0,0.52,355.6,M,-38.6,M,,0131*78','$GNRMC,132951.0,A,4808.55645,N,7942.56862,W,15.632,1.17,50624.0,,,D,V*25',,,,,,,,1,0.7687450980392156,0.817111111111111,0.6105490196078431,1.0,10.0,0,0
863277,13:29:54.500000,6.051666666666667,2024-06-05,596000.8752970936,5332983.594788439,17,N,13:29:54.500,48.14285595,-79.70946875,54828.76455,1,-3959,-35626,27172,2.12,-4.877,6.986,0.07621,-0.21195,0.96068,36.136,2.1,I,,,,,,,,,,,,,,,,,,,,,,,,,,,,,,,,,,,,,,,,,,,,,,1,0.7643529411764706,0.8153333333333334,0.6091372549019608,1.0,10.0,0,0
866777,13:29:58,6.11,2024-06-05,596000.8790034215,5333011.489125893,17,N,13:29:58.000,48.14310685,-79.70946241,54826.4607,1,-4133,-36481,26715,5.631,-0.579,3.946,0.07427,-0.26349,0.94779,36.18,359.8,G,0.52,2.0,12.0,357.2,-38.6,15.146,0.0, ,D,'$GNGGA,132958.0,4808.58667,N,7942.56774,W,2.0,12.0,0.52,357.2,M,-38.6,M,,0131*72','$GNRMC,132958.0,A,4808.58667,N,7942.56774,W,15.146,359.82,50624.0,,,D,V*2F',,,,,,,,1,0.7599607843137255,0.8135555555555556,0.6077254901960785,1.0,10.0,0,0
870277,13:30:01.500000,6.168333333333334,2024-06-05,596000.8767358324,5333039.340005425,17,N,13:30:01.500,48.14335736,-79.70945616,54815.45735,1,-4188,-36884,26469,-1.918,-0.689,1.217,0.06468,-0.29016,0.95616,36.158,1.2,I,,,,,,,,,,,,,,,,,,,,,,,,,,,,,,,,,,,,,,,,,,,,,,1,0.7423921568627451,0.8064444444444445,0.602078431372549,1.0,10.0,0,0
873777,13:30:05,6.2266666666666675,2024-06-05,596000.6008677336,5333067.221871992,17,N,13:30:05.000,48.14360819,-79.70945358,54796.2282,1,-2835,-35577,27247,-2.498,-1.097,2.478,0.05212,-0.21587,0.93562,36.15,1.3,G,0.52,2.0,12.0,360.2,-38.6,15.973,0.0, ,D,'$GNGGA,133005.0,4808.61675,N,7942.5672,W,2.0,12.0,0.52,360.2,M,-38.6,M,,0131*7E','$GNRMC,133005.0,A,4808.61675,N,7942.5672,W,15.973,1.29,50624.0,,,D,V*26',,,,,,,,1,0.7072549019607842,0.7922222222222223,0.5907843137254902,1.0,10.0,0,0
877277,13:30:08.500000,6.285,2024-06-05,596000.5549973398,5333095.098704879,17,N,13:30:08.500,48.14385894,-79.70944791,54788.5076,1,-2784,-36511,26790,-2.314,-3.516,-0.707,0.03617,-0.22367,0.95726,36.177,0.5,I,,,,,,,,,,,,,,,,,,,,,,,,,,,,,,,,,,,,,,,,,,,,,,1,0.694078431372549,0.786888888888889,0.5865490196078432,1.0,10.0,0,0
880777,13:30:12,6.343333333333334,2024-06-05,596000.6775721303,5333122.8694121465,17,N,13:30:12.000,48.14410871,-79.70944,54783.59275,1,-3469,-36885,26451,-1.556,-1.826,-0.65,0.05415,-0.21521,0.92306,36.182,1.9,G,0.52,2.0,12.0,363.8,-38.6,15.155,0.0, ,D,'$GNGGA,133012.0,4808.64678,N,7942.56638,W,2.0,12.0,0.52,363.8,M,-38.6,M,,0131*71','$GNRMC,133012.0,A,4808.64678,N,7942.56638,W,15.155,1.88,50624.0,,,D,V*27',,,,,,,,1,0.6852941176470587,0.7833333333333332,0.5837254901960784,1.0,10.0,0,0
884277,13:30:15.500000,6.401666666666667,2024-06-05,596000.5866677442,5333151.12349338,17,N,13:30:15.500,48.14436286,-79.70943485,54774.3729,1,-3379,-35059,27624,-0.473,-0.291,-0.213,0.06329,-0.22198,0.94678,36.195,0.7,I,,,,,,,,,,,,,,,,,,,,,,,,,,,,,,,,,,,,,,,,,,,,,,1,0.6677254901960784,0.7762222222222223,0.578078431372549,1.0,10.0,0,0
887777,13:30:19,6.46,2024-06-05,596000.591252844,5333178.918905867,17,N,13:30:19.000,48.14461287,-79.70942852,54778.1936,1,-3918,-35539,27241,5.229,3.011,6.362,0.04514,-0.20424,0.95825,36.201,0.7,G,0.52,2.0,12.0,362.6,-38.6,15.428,0.0, ,D,'$GNGGA,133019.0,4808.67703,N,7942.5657,W,2.0,12.0,0.52,362.6,M,-38.6,M,,0131*74','$GNRMC,133019.0,A,4808.67703,N,7942.5657,W,15.428,0.74,50624.0,,,D,V*20',,,,,,,,1,0.6765098039215686,0.7797777777777778,0.5809019607843138,1.0,10.0,0,0
891277,13:30:22.500000,6.5183333333333335,2024-06-05,596000.6158133772,5333206.898096718,17,N,13:30:22.500,48.14486453,-79.70942188,54787.22615,1,-4105,-35469,27276,1.576,0.507,4.509,0.04647,-0.21358,0.96904,36.223,1.7,I,,,,,,,,,,,,,,,,,,,,,,,,,,,,,,,,,,,,,,,,,,,,,,1,0.6896862745098039,0.7851111111111111,0.5851372549019608,1.0,10.0,0,0
894777,13:30:26,6.576666666666667,2024-06-05,596000.7091098251,5333234.638300163,17,N,13:30:26.000,48.14511403,-79.70941437,54807.83585,1,-4142,-35890,27056,2.746,-0.526,3.877,0.05555,-0.22237,0.96431,36.238,0.9,G,0.52,2.0,12.0,361.1,-38.6,15.317,0.0, ,D,'$GNGGA,133026.0,4808.7071,N,7942.56485,W,2.0,12.0,0.52,361.1,M,-38.6,M,,0131*73','$GNRMC,133026.0,A,4808.7071,N,7942.56485,W,15.317,0.85,50624.0,,,D,V*26',,,,,,,,1,0.7292156862745097,0.8011111111111111,0.5978431372549019,1.0,10.0,0,0
898277,13:30:29.500000,6.635000000000001,2024-06-05,596000.8550720947,5333262.565054117,17,N,13:30:29.500,48.1453652,-79.70940611,54847.24015,1,-4648,-36008,26875,-1.005,-5.759,5.345,0.06368,-0.23587,0.95544,36.228,1.5,I,,,,,,,,,,,,,,,,,,,,,,,,,,,,,,,,,,,,,,,,,,,,,,1,0.7950980392156863,0.8277777777777777,0.6190196078431373,1.0,10.0,0,0
901777,13:30:33,6.693333333333333,2024-06-05,596000.8895492251,5333290.395438244,17,N,13:30:33.000,48.14561552,-79.70939937,54910.7302,1,-4429,-36232,26906,1.735,-2.038,0.112,0.07724,-0.23905,0.94196,36.254,0.8,G,0.52,2.0,12.0,365.3,-38.6,15.377,0.0, ,D,'$GNGGA,133033.0,4808.73719,N,7942.56395,W,2.0,12.0,0.52,365.3,M,-38.6,M,,0131*7D','$GNRMC,133033.0,A,4808.73719,N,7942.56395,W,15.377,0.83,50624.0,,,D,V*2E',,,,,,,,1,0.8485882352941176,0.7928235294117646,0.5703137254901961,1.0,10.0,0,0
905277,13:30:36.500000,6.751666666666667,2024-06-05,596000.8891111771,5333318.310843994,17,N,13:30:36.500,48.14586661,-79.70939308,55000.4586,1,-4317,-35989,27193,-3.455,-2.836,-1.806,0.06161,-0.23367,0.9343,36.24,0.5,I,,,,,,,,,,,,,,,,,,,,,,,,,,,,,,,,,,,,,,,,,,,,,,1,0.8448235294117648,0.6403529411764706,0.39337254901960783,1.0,10.0,0,0
908777,13:30:40,6.8100000000000005,2024-06-05,596000.5563347103,5333346.033896871,17,N,13:30:40.000,48.14611602,-79.7093913,55109.347,1,-3990,-37315,26361,1.548,-4.327,3.757,0.09635,-0.25766,0.96297,36.24,1.9,G,0.52,2.0,12.0,368.5,-38.6,15.78,0.0, ,D,'$GNGGA,133040.0,4808.76722,N,7942.56346,W,2.0,12.0,0.52,368.5,M,-38.6,M,,0131*71','$GNRMC,133040.0,A,4808.76722,N,7942.56346,W,15.78,1.86,50624.0,,,D,V*21',,,,,,,,1,0.7842222222222223,0.3482222222222222,0.21599999999999997,1.0,10.0,0,0
912277,13:30:43.500000,6.868333333333334,2024-06-05,596000.837982802,5333373.898450378,17,N,13:30:43.500,48.14636661,-79.70938123,55186.8798,1,-4106,-36814,26824,2.632,-2.602,7.774,0.08761,-0.22979,0.959,36.292,0.3,I,,,,,,,,,,,,,,,,,,,,,,,,,,,,,,,,,,,,,,,,,,,,,,1,0.7226274509803922,0.10670588235294115,0.10415686274509806,1.0,10.0,0,0
915777,13:30:47,6.926666666666667,2024-06-05,596000.8702351444,5333401.815520347,17,N,13:30:47.000,48.14661771,-79.7093745,55172.13975,1,-5175,-37528,26261,-4.622,-0.048,9.69,0.0947,-0.22548,0.94001,36.26,0.6,G,0.52,2.0,12.0,366.4,-38.6,15.133,0.0, ,D,'$GNGGA,133047.0,4808.79732,N,7942.56246,W,2.0,12.0,0.52,366.4,M,-38.6,M,,0131*76','$GNRMC,133047.0,A,4808.79732,N,7942.56246,W,15.133,0.64,50624.0,,,D,V*2A',,,,,,,,1,0.7345490196078431,0.1534509803921569,0.12580392156862746,1.0,10.0,0,0
919277,13:30:50.500000,6.985,2024-06-05,596000.8561709415,5333429.876344393,17,N,13:30:50.500,48.14687011,-79.70936836,55084.04275,1,-5944,-36713,26638,-4.872,0.195,5.961,0.08481,-0.25966,0.93374,36.295,360.0,I,,,,,,,,,,,,,,,,,,,,,,,,,,,,,,,,,,,,,,,,,,,,,,1,0.8060784313725491,0.43392156862745096,0.2556862745098039,1.0,10.0,0,0
922777,13:30:54,7.043333333333334,2024-06-05,596000.7456123612,5333457.878850182,17,N,13:30:54.000,48.147122,-79.70936353,55012.2943,1,-5365,-36128,26838,4.386,4.551,5.454,0.06204,-0.28968,0.95297,36.313,359.2,G,0.52,2.0,12.0,365.0,-38.6,15.094,0.0, ,D,'$GNGGA,133054.0,4808.82758,N,7942.56181,W,2.0,12.0,0.52,365.0,M,-38.6,M,,0131*73','$GNRMC,133054.0,A,4808.82758,N,7942.56181,W,15.094,359.23,50624.0,,,D,V*28',,,,,,,,1,0.8443006535947712,0.6191764705882353,0.368797385620915,1.0,10.0,0,0
926277,13:30:57.500000,7.1016666666666675,2024-06-05,596000.6206267109,5333485.721020318,17,N,13:30:57.500,48.14737245,-79.70935893,54968.18475,1,-4823,-36103,26894,1.47,-3.902,4.541,0.06655,-0.26078,0.95791,36.336,2.1,I,,,,,,,,,,,,,,,,,,,,,,,,,,,,,,,,,,,,,,,,,,,,,,1,0.8461830065359477,0.6954117647058824,0.45726797385620926,1.0,10.0,0,0
929777,13:31:01,7.16,2024-06-05,596000.6771800007,5333513.562902939,17,N,13:31:01.000,48.14762287,-79.70935189,54909.2569,1,-4212,-37170,26250,1.326,1.284,2.713,0.06934,-0.24731,0.94957,36.301,1.0,G,0.52,2.0,12.0,365.1,-38.6,15.568,0.0, ,D,'$GNGGA,133101.0,4808.85763,N,7942.5611,W,2.0,12.0,0.52,365.1,M,-38.6,M,,0131*74','$GNRMC,133101.0,A,4808.85763,N,7942.5611,W,15.568,1.0,50624.0,,,D,V*27',,,,,,,,1,0.8486928104575163,0.7970588235294118,0.5752287581699347,1.0,10.0,0,0
933277,13:31:04.500000,7.218333333333334,2024-06-05,596000.6756961554,5333541.670637606,17,N,13:31:04.500,48.14787569,-79.70934557,54807.28535,1,-4168,-35838,27018,-3.653,-0.448,-3.71,0.05255,-0.20849,0.9531,36.382,0.4,I,,,,,,,,,,,,,,,,,,,,,,,,,,,,,,,,,,,,,,,,,,,,,,1,0.7248235294117646,0.7993333333333333,0.5964313725490196,1.0,10.0,0,0
936777,13:31:08,7.276666666666667,2024-06-05,596000.6195542549,5333569.798579936,17,N,13:31:08.000,48.1481287,-79.70933998,54749.97875,1,-4762,-34997,27423,0.853,-1.198,-3.673,0.05132,-0.19881,0.95191,36.354,0.4,G,0.52,2.0,12.0,366.1,-38.6,15.274,0.0, ,D,'$GNGGA,133108.0,4808.88798,N,7942.56039,W,2.0,12.0,0.52,366.1,M,-38.6,M,,0131*7D','$GNRMC,133108.0,A,4808.88798,N,7942.56039,W,15.274,0.35,50624.0,,,D,V*20',,,,,,,,1,0.6238039215686274,0.7584444444444445,0.5639607843137255,1.0,10.0,0,0
940277,13:31:11.500000,7.335,2024-06-05,596000.8285533945,5333597.8653788,17,N,13:31:11.500,48.14838112,-79.70933084,54760.98645,1,-5652,-34575,27517,-5.005,-2.02,-1.915,0.07714,-0.2073,0.95734,36.355,1.3,I,,,,,,,,,,,,,,,,,,,,,,,,,,,,,,,,,,,,,,,,,,,,,,1,0.6457647058823529,0.7673333333333333,0.5710196078431373,1.0,10.0,0,0
943777,13:31:15,7.3933333333333335,2024-06-05,596000.6788299676,5333625.628204515,17,N,13:31:15.000,48.14863086,-79.70932659,54809.1289,1,-5360,-35637,27019,1.935,4.445,0.128,0.07621,-0.23428,0.9473,36.338,359.9,G,0.52,2.0,12.0,367.9,-38.6,15.519,0.0, ,D,'$GNGGA,133115.0,4808.91811,N,7942.55959,W,2.0,12.0,0.52,367.9,M,-38.6,M,,0131*72','$GNRMC,133115.0,A,4808.91811,N,7942.55959,W,15.519,359.85,50624.0,,,D,V*2E',,,,,,,,1,0.7292156862745097,0.8011111111111111,0.5978431372549019,1.0,10.0,0,0
947277,13:31:18.500000,7.451666666666667,2024-06-05,596000.6781875354,5333653.506933945,17,N,13:31:18.500,48.14888162,-79.70932031,54854.23645,1,-4776,-35447,27199,-0.342,-3.096,4.645,0.05928,-0.22185,0.9546,36.37,1.0,I,,,,,,,,,,,,,,,,,,,,,,,,,,,,,,,,,,,,,,,,,,,,,,1,0.8082745098039216,0.8331111111111111,0.6232549019607843,1.0,10.0,0,0
950777,13:31:22,7.510000000000001,2024-06-05,596000.7827546571,5333681.588660715,17,N,13:31:22.000,48.14913419,-79.70931257,54875.57655,1,-6020,-35248,27312,0.746,3.14,2.699,0.08479,-0.21964,0.96266,36.394,1.2,G,0.52,2.0,12.0,368.7,-38.6,15.657,0.0, ,D,'$GNGGA,133122.0,4808.94831,N,7942.55874,W,2.0,12.0,0.52,368.7,M,-38.6,M,,0131*7E','$GNRMC,133122.0,A,4808.94831,N,7942.55874,W,15.657,1.15,50624.0,,,D,V*2D',,,,,,,,1,0.8478039215686275,0.8491111111111111,0.6359607843137255,1.0,10.0,0,0
954277,13:31:25.500000,7.568333333333333,2024-06-05,596000.7103326663,5333708.955885681,17,N,13:31:25.500,48.14938036,-79.70930737,54875.09745,1,-4880,-36594,26570,11.853,2.235,-5.774,0.04186,-0.20942,0.96175,36.393,0.2,I,,,,,,,,,,,,,,,,,,,,,,,,,,,,,,,,,,,,,,,,,,,,,,1,0.8478039215686275,0.8491111111111111,0.6359607843137255,1.0,10.0,0,0
957777,13:31:29,7.626666666666667,2024-06-05,596000.6516843255,5333737.009305126,17,N,13:31:29.000,48.1496327,-79.70930183,54881.08755,1,-5372,-37746,25625,-0.583,0.355,-7.345,0.03214,-0.28121,0.9377,36.424,0.4,G,0.52,2.0,12.0,369.1,-38.6,15.608,0.0, ,D,'$GNGGA,133129.0,4808.97822,N,7942.5581,W,2.0,12.0,0.52,369.1,M,-38.6,M,,0131*71','$GNRMC,133129.0,A,4808.97822,N,7942.5581,W,15.608,0.36,50624.0,,,D,V*2F',,,,,,,,1,0.8498431372549019,0.8436470588235294,0.6292941176470588,1.0,10.0,0,0
961277,13:31:32.500000,7.6850000000000005,2024-06-05,596000.8711584487,5333765.1585587645,17,N,13:31:32.500,48.14988586,-79.70929253,54895.4585,1,-5759,-36846,26392,-9.822,-3.323,-8.787,0.05418,-0.26181,0.9233,36.391,2.3,I,,,,,,,,,,,,,,,,,,,,,,,,,,,,,,,,,,,,,,,,,,,,,,1,0.8492156862745098,0.8182352941176471,0.5998039215686274,1.0,10.0,0,0
964777,13:31:36,7.743333333333334,2024-06-05,596000.5661260918,5333792.819837945,17,N,13:31:36.000,48.15013471,-79.70929039,54905.79365,1,-4543,-36005,26998,2.658,3.461,4.918,0.03775,-0.18348,0.90113,36.41,1.1,G,0.52,2.0,12.0,369.5,-38.6,15.772,0.0, ,D,'$GNGGA,133136.0,4809.00834,N,7942.55741,W,2.0,12.0,0.52,369.5,M,-38.6,M,,0131*78','$GNRMC,133136.0,A,4809.00834,N,7942.55741,W,15.772,1.08,50624.0,,,D,V*22',,,,,,,,1,0.848797385620915,0.8012941176470588,0.5801437908496732,1.0,10.0,0,0
968277,13:31:39.500000,7.801666666666667,2024-06-05,596000.4431833723,5333821.156795341,17,N,13:31:39.500,48.15038961,-79.70928565,54900.67255,1,-4284,-37104,26342,-3.396,-1.462,5.058,0.04838,-0.25026,0.9255,36.465,0.4,I,,,,,,,,,,,,,,,,,,,,,,,,,,,,,,,,,,,,,,,,,,,,,,1,0.8490065359477125,0.8097647058823529,0.5899738562091503,1.0,10.0,0,0
971777,13:31:43,7.86,2024-06-05,596000.6262853628,5333848.945228969,17,N,13:31:43.000,48.15063953,-79.70927692,54886.7784,1,-4947,-37205,26116,-5.141,-6.136,4.027,0.05504,-0.24941,0.97329,36.482,1.2,G,0.52,2.0,12.0,370.7,-38.6,15.278,0.0, ,D,'$GNGGA,133143.0,4809.03863,N,7942.5566,W,2.0,12.0,0.52,370.7,M,-38.6,M,,0131*73','$GNRMC,133143.0,A,4809.03863,N,7942.5566,W,15.278,1.17,50624.0,,,D,V*22',,,,,,,,1,0.8496339869281045,0.8351764705882353,0.6194640522875816,1.0,10.0,0,0
975277,13:31:46.500000,7.918333333333334,2024-06-05,596000.7157819339,5333876.991135368,17,N,13:31:46.500,48.15089178,-79.70926939,54870.1273,1,-4432,-35579,27179,-1.126,-3.374,1.622,0.04759,-0.2319,0.95224,36.457,1.0,I,,,,,,,,,,,,,,,,,,,,,,,,,,,,,,,,,,,,,,,,,,,,,,1,0.8390196078431372,0.8455555555555555,0.6331372549019608,1.0,10.0,0,0
978777,13:31:50,7.9766666666666675,2024-06-05,596000.817987901,5333904.722625412,17,N,13:31:50.000,48.1511412,-79.70926176,54864.2232,1,-4316,-36115,26781,1.702,2.178,1.468,0.04885,-0.21765,0.95873,36.457,1.3,G,0.52,2.0,12.0,376.2,-38.6,15.547,0.0, ,D,'$GNGGA,133150.0,4809.06873,N,7942.55569,W,2.0,12.0,0.52,376.2,M,-38.6,M,,0131*7C','$GNRMC,133150.0,A,4809.06873,N,7942.55569,W,15.547,1.34,50624.0,,,D,V*24',,,,,,,,1,0.8258431372549019,0.8402222222222222,0.6289019607843137,1.0,10.0,0,0
982277,13:31:53.500000,8.035,2024-06-05,596000.7091384798,5333932.617339971,17,N,13:31:53.500,48.15139212,-79.70925693,54857.24145,1,-3300,-35640,27262,-2.172,-0.613,1.417,0.03214,-0.2041,0.92142,36.469,1.4,I,,,,,,,,,,,,,,,,,,,,,,,,,,,,,,,,,,,,,,,,,,,,,,1,0.8126666666666666,0.8348888888888889,0.6246666666666666,1.0,10.0,0,0
985777,13:31:57,8.093333333333334,2024-06-05,596000.6128787516,5333960.382189957,17,N,13:31:57.000,48.15164187,-79.70925196,54861.93255,1,-3895,-36892,26485,-0.018,-0.694,-0.582,0.06347,-0.23999,0.90504,36.49,1.7,G,0.52,2.0,12.0,379.6,-38.6,15.427,0.0, ,D,'$GNGGA,133157.0,4809.09877,N,7942.5551,W,2.0,12.0,0.52,379.6,M,-38.6,M,,0131*75','$GNRMC,133157.0,A,4809.09877,N,7942.5551,W,15.427,1.67,50624.0,,,D,V*27',,,,,,,,1,0.8214509803921568,0.8384444444444444,0.6274901960784314,1.0,10.0,0,0
989277,13:32:00.500000,8.151666666666667,2024-06-05,596000.9352672922,5333988.468698952,17,N,13:32:00.500,48.15189445,-79.70924129,54867.3926,1,-3670,-35721,27223,-2.07,0.324,-5.658,0.0641,-0.23709,0.94699,36.508,0.9,I,,,,,,,,,,,,,,,,,,,,,,,,,,,,,,,,,,,,,,,,,,,,,,1,0.8346274509803921,0.8437777777777777,0.6317254901960784,1.0,10.0,0,0
992777,13:32:04,8.21,2024-06-05,596000.7641941528,5334016.213395717,17,N,13:32:04.000,48.15214403,-79.70923733,54905.09025,1,-3647,-36888,26530,0.445,1.59,-7.129,0.03709,-0.24003,0.95897,36.529,0.4,G,0.52,2.0,12.0,376.7,-38.6,15.659,0.0, ,D,'$GNGGA,133204.0,4809.1289,N,7942.55423,W,2.0,12.0,0.52,376.7,M,-38.6,M,,0131*7C','$GNRMC,133204.0,A,4809.1289,N,7942.55423,W,15.659,0.39,50624.0,,,D,V*21',,,,,,,,1,0.848797385620915,0.8012941176470588,0.5801437908496732,1.0,10.0,0,0
996277,13:32:07.500000,8.268333333333334,2024-06-05,596000.8643992892,5334044.195007057,17,N,13:32:07.500,48.1523957,-79.70922967,54978.28485,1,-4217,-36265,26886,-5.103,-2.034,-9.136,0.04644,-0.22755,0.95567,36.512,1.3,I,,,,,,,,,,,,,,,,,,,,,,,,,,,,,,,,,,,,,,,,,,,,,,1,0.845764705882353,0.6784705882352942,0.4376078431372549,1.0,10.0,0,0
999777,13:32:11,8.326666666666666,2024-06-05,596000.724213829,5334072.00470747,17,N,13:32:11.000,48.15264586,-79.70922528,55072.2866,1,-3519,-35012,27822,-7.286,-0.333,-5.434,0.04914,-0.21431,0.93248,36.539,1.6,G,0.52,2.0,12.0,372.5,-38.6,15.383,0.0, ,D,'$GNGGA,133211.0,4809.15901,N,7942.5535,W,2.0,12.0,0.52,372.5,M,-38.6,M,,0131*73','$GNRMC,133211.0,A,4809.15901,N,7942.5535,W,15.383,1.57,50624.0,,,D,V*23',,,,,,,,1,0.8140261437908497,0.4650849673202614,0.2701176470588235,1.0,10.0,0,0
1003277,13:32:14.500000,8.385,2024-06-05,596000.7182811074,5334099.882257012,17,N,13:32:14.500,48.15289661,-79.70921907,55122.77495,1,-4003,-36198,27164,0.766,2.555,-5.666,0.05711,-0.25996,0.94598,36.545,359.7,I,,,,,,,,,,,,,,,,,,,,,,,,,,,,,,,,,,,,,,,,,,,,,,1,0.7742875816993464,0.30926797385620913,0.1979607843137255,1.0,10.0,0,0
1006777,13:32:18,8.443333333333333,2024-06-05,596000.7908660743,5334127.3364293445,17,N,13:32:18.000,48.15314354,-79.7092119,55042.184,1,-4421,-36152,27002,-1.611,-4.849,-2.585,0.04846,-0.20279,0.95625,36.558,1.0,G,0.52,2.0,12.0,366.3,-38.6,15.786,0.0, ,D,'$GNGGA,133218.0,4809.18887,N,7942.5527,W,2.0,12.0,0.52,366.3,M,-38.6,M,,0131*78','$GNRMC,133218.0,A,4809.18887,N,7942.5527,W,15.786,0.97,50624.0,,,D,V*27',,,,,,,,1,0.8378692810457516,0.5585751633986928,0.31341176470588233,1.0,10.0,0,0
1010277,13:32:21.500000,8.501666666666667,2024-06-05,596000.8465669747,5334155.352875565,17,N,13:32:21.500,48.15339553,-79.70920483,54920.05625,1,-4503,-36245,26873,-0.613,0.66,-2.018,0.04999,-0.22517,0.98285,36.582,1.3,I,,,,,,,,,,,,,,,,,,,,,,,,,,,,,,,,,,,,,,,,,,,,,,1,0.8481699346405229,0.7758823529411765,0.5506535947712418,1.0,10.0,0,0
1013777,13:32:25,8.56,2024-06-05,596000.8017733882,5334183.239782629,17,N,13:32:25.000,48.15364637,-79.70919914,54846.45135,1,-4234,-35470,27318,-1.857,-3.213,3.461,0.05377,-0.21578,0.9312,36.58,1.7,G,0.52,2.0,12.0,366.8,-38.6,15.459,0.0, ,D,'$GNGGA,133225.0,4809.21904,N,7942.55193,W,2.0,12.0,0.52,366.8,M,-38.6,M,,0131*73','$GNRMC,133225.0,A,4809.21904,N,7942.55193,W,15.459,1.68,50624.0,,,D,V*27',,,,,,,,1,0.7950980392156863,0.8277777777777777,0.6190196078431373,1.0,10.0,0,0
1017277,13:32:28.500000,8.618333333333334,2024-06-05,596000.679963456,5334211.105386342,17,N,13:32:28.500,48.15389703,-79.70919449,54834.0395,1,-2252,-35947,27074,-1.579,-2.157,0.609,0.02777,-0.22461,0.9621,36.523,1.2,I,,,,,,,,,,,,,,,,,,,,,,,,,,,,,,,,,,,,,,,,,,,,,,1,0.7731372549019608,0.8188888888888889,0.6119607843137255,1.0,10.0,0,0
1020777,13:32:32,8.676666666666668,2024-06-05,596000.6505387534,5334238.918065271,17,N,13:32:32.000,48.1541472,-79.70918861,54838.4286,1,-2750,-36293,26941,6.534,-1.604,1.934,0.06361,-0.22134,0.90289,36.584,3.0,G,0.52,2.0,12.0,371.4,-38.6,15.295,0.0, ,D,'$GNGGA,133232.0,4809.24909,N,7942.55129,W,2.0,12.0,0.52,371.4,M,-38.6,M,,0131*76','$GNRMC,133232.0,A,4809.24909,N,7942.55129,W,15.295,2.95,50624.0,,,D,V*2F',,,,,,,,1,0.781921568627451,0.8224444444444444,0.6147843137254903,1.0,10.0,0,0
1024277,13:32:35.500000,8.735000000000001,2024-06-05,596000.9432394677,5334266.818423655,17,N,13:32:35.500,48.15439811,-79.70917838,54824.34635,1,-3976,-35884,26918,0.477,1.943,-0.148,0.10388,-0.20809,0.91086,36.566,1.0,I,,,,,,,,,,,,,,,,,,,,,,,,,,,,,,,,,,,,,,,,,,,,,,1,0.7555686274509803,0.8117777777777777,0.606313725490196,1.0,10.0,0,0
1027777,13:32:39,8.793333333333333,2024-06-05,596000.9955258996,5334294.770336397,17,N,13:32:39.000,48.15464952,-79.70917137,54801.5129,1,-4572,-36421,26594,-1.527,-0.569,2.293,0.09746,-0.2465,0.95692,36.588,0.8,G,0.52,2.0,12.0,367.3,-38.6,15.284,0.0, ,D,'$GNGGA,133239.0,4809.27923,N,7942.55027,W,2.0,12.0,0.52,367.3,M,-38.6,M,,0131*79','$GNRMC,133239.0,A,4809.27923,N,7942.55027,W,15.284,0.77,50624.0,,,D,V*2E',,,,,,,,1,0.7160392156862745,0.7957777777777778,0.5936078431372549,1.0,10.0,0,0
1391977,13:38:43.200000,14.863333333333333,2024-06-05,596050.7697654844,5331722.655839911,17,N,13:38:43.200,48.13150667,-79.7090826,54583.63945,1,-754,-20509,32957,-2.546,-3.389,-2.374,0.07051,-0.43805,0.82191,35.535,181.1,I,,,,,,,,,,,,,,,,,,,,,,,,,,,,,,,,,,,,,,,,,,,,,,2,0.2972679738562092,0.5449019607843137,0.5935424836601306,1.0,10.0,0,0
1388477,13:38:39.700000,14.805,2024-06-05,596051.0480594733,5331750.333492617,17,N,13:38:39.700,48.13175558,-79.70907262,54571.64045,1,269,-21038,32772,-9.3,-4.393,-5.008,0.08523,-0.51558,0.83327,35.521,179.9,I,,,,,,,,,,,,,,,,,,,,,,,,,,,,,,,,,,,,,,,,,,,,,,2,0.2704967320261438,0.5260784313725491,0.5981437908496732,1.0,10.0,0,0
1384977,13:38:36.200000,14.746666666666666,2024-06-05,596050.8777735492,5331778.30935474,17,N,13:38:36.200,48.13200724,-79.7090686,54565.60985,1,-1225,-21861,32494,7.579,3.685,-3.458,0.13799,-0.527,0.87231,35.553,180.8,I,,,,,,,,,,,,,,,,,,,,,,,,,,,,,,,,,,,,,,,,,,,,,,2,0.25711111111111107,0.5166666666666666,0.6004444444444444,1.0,10.0,0,0
1381477,13:38:32.700000,14.688333333333333,2024-06-05,596050.6639499128,5331806.041010578,17,N,13:38:32.700,48.13225671,-79.70906522,54557.6907,1,-1823,-20621,32824,-1.892,-1.779,-0.254,0.10944,-0.57166,0.84329,35.561,180.0,I,,,,,,,,,,,,,,,,,,,,,,,,,,,,,,,,,,,,,,,,,,,,,,2,0.24372549019607845,0.5072549019607843,0.6027450980392157,1.0,10.0,0,0
1377977,13:38:29.200000,14.629999999999999,2024-06-05,596050.4024095788,5331834.620144935,17,N,13:38:29.200,48.13251381,-79.70906229,54555.81875,1,-3729,-23055,32098,6.157,3.168,-8.534,0.18498,-0.61095,0.82645,35.571,180.9,I,,,,,,,,,,,,,,,,,,,,,,,,,,,,,,,,,,,,,,,,,,,,,,2,0.2370326797385621,0.5025490196078432,0.6038954248366013,1.0,10.0,0,0
1374477,13:38:25.700000,14.571666666666665,2024-06-05,596050.3093736806,5331861.850199895,17,N,13:38:25.700,48.13275875,-79.7090574,54539.0449,1,-3854,-22086,32298,6.563,1.51,-14.777,0.16569,-0.57265,0.84531,35.579,182.0,I,,,,,,,,,,,,,,,,,,,,,,,,,,,,,,,,,,,,,,,,,,,,,,2,0.19687581699346404,0.474313725490196,0.610797385620915,1.0,10.0,0,0
1370977,13:38:22.200000,14.513333333333332,2024-06-05,596050.3673697045,5331889.43744429,17,N,13:38:22.200,48.13300688,-79.7090504,54518.06895,1,-3153,-17409,33191,7.334,12.868,-7.187,0.16936,-0.36591,0.88765,35.613,181.4,I,,,,,,,,,,,,,,,,,,,,,,,,,,,,,,,,,,,,,,,,,,,,,,2,0.1500261437908497,0.44137254901960776,0.6188496732026144,1.0,10.0,0,0
1367477,13:38:18.700000,14.455,2024-06-05,596050.2591065748,5331916.687257961,17,N,13:38:18.700,48.133252,-79.70904571,54523.24635,1,-4508,-19659,32732,-2.492,-2.486,-2.383,0.11714,-0.51488,0.84604,35.623,182.5,I,,,,,,,,,,,,,,,,,,,,,,,,,,,,,,,,,,,,,,,,,,,,,,2,0.16341176470588237,0.45078431372549016,0.616549019607843,1.0,10.0,0,0
1363977,13:38:15.200000,14.396666666666667,2024-06-05,596050.3517391932,5331943.939332524,17,N,13:38:15.200,48.13349711,-79.70903832,54517.8049,1,-4005,-16301,33296,-10.767,-1.385,-2.599,0.09737,-0.4857,0.87208,35.62,180.0,I,,,,,,,,,,,,,,,,,,,,,,,,,,,,,,,,,,,,,,,,,,,,,,2,0.1500261437908497,0.44137254901960776,0.6188496732026144,1.0,10.0,0,0
1360477,13:38:11.700000,14.338333333333333,2024-06-05,596051.0418286732,5331972.175343002,17,N,13:38:11.700,48.13375098,-79.70902268,54526.81475,1,-1244,-20059,32957,-4.389,0.409,-1.591,0.10823,-0.52209,0.90477,35.623,181.0,I,,,,,,,,,,,,,,,,,,,,,,,,,,,,,,,,,,,,,,,,,,,,,,2,0.1701045751633987,0.45549019607843133,0.6153986928104574,1.0,10.0,0,0
1356977,13:38:08.200000,14.28,2024-06-05,596050.9150728928,5332000.25978719,17,N,13:38:08.200,48.13400361,-79.70901805,54528.46595,1,-544,-20758,32689,10.664,2.636,2.475,0.10113,-0.52416,0.84731,35.653,178.3,I,,,,,,,,,,,,,,,,,,,,,,,,,,,,,,,,,,,,,,,,,,,,,,2,0.17679738562091504,0.4601960784313725,0.6142483660130719,1.0,10.0,0,0
1353477,13:38:04.700000,14.221666666666666,2024-06-05,596050.399827523,5332028.078671037,17,N,13:38:04.700,48.13425391,-79.7090187,54523.11235,1,-3611,-18799,33046,-2.746,-1.764,6.214,0.11088,-0.49708,0.8715,35.686,180.5,I,,,,,,,,,,,,,,,,,,,,,,,,,,,,,,,,,,,,,,,,,,,,,,2,0.16341176470588237,0.45078431372549016,0.616549019607843,1.0,10.0,0,0
1349977,13:38:01.200000,14.163333333333332,2024-06-05,596050.5776378841,5332056.506206396,17,N,13:38:01.200,48.13450958,-79.7090099,54525.10825,1,-2347,-20777,32697,-3.593,2.372,-5.122,0.09637,-0.4974,0.83702,35.699,181.7,I,,,,,,,,,,,,,,,,,,,,,,,,,,,,,,,,,,,,,,,,,,,,,,2,0.1701045751633987,0.45549019607843133,0.6153986928104574,1.0,10.0,0,0
1346477,13:37:57.700000,14.104999999999999,2024-06-05,596050.7179569091,5332084.639607387,17,N,13:37:57.700,48.13476261,-79.70900167,54536.00865,1,-1268,-23272,32129,6.777,3.291,-10.072,0.11013,-0.48645,0.85773,35.691,181.3,I,,,,,,,,,,,,,,,,,,,,,,,,,,,,,,,,,,,,,,,,,,,,,,2,0.19018300653594772,0.4696078431372549,0.6119477124183006,1.0,10.0,0,0
1342977,13:37:54.200000,14.046666666666665,2024-06-05,596050.8211370449,5332111.748448746,17,N,13:37:54.200,48.13500643,-79.70899417,54538.6772,1,-1428,-21481,32606,-0.267,-2.389,2.285,0.09051,-0.48797,0.81255,35.693,182.3,I,,,,,,,,,,,,,,,,,,,,,,,,,,,,,,,,,,,,,,,,,,,,,,2,0.19687581699346404,0.474313725490196,0.610797385620915,1.0,10.0,0,0
1339477,13:37:50.700000,13.988333333333333,2024-06-05,596050.4019271244,5332139.520031456,17,N,13:37:50.700,48.13525629,-79.70899354,54543.6298,1,-2174,-21899,32527,0.164,1.577,1.752,0.03372,-0.5141,0.83763,35.735,181.3,I,,,,,,,,,,,,,,,,,,,,,,,,,,,,,,,,,,,,,,,,,,,,,,2,0.21026143790849672,0.48372549019607836,0.6084967320261437,1.0,10.0,0,0
1335977,13:37:47.200000,13.93,2024-06-05,596050.482805956,5332167.158814027,17,N,13:37:47.200,48.13550488,-79.70898622,54538.86695,1,-2417,-18792,33035,5.264,2.806,-0.262,0.06504,-0.39515,0.82469,35.75,180.6,I,,,,,,,,,,,,,,,,,,,,,,,,,,,,,,,,,,,,,,,,,,,,,,2,0.19687581699346404,0.474313725490196,0.610797385620915,1.0,10.0,0,0
1332477,13:37:43.700000,13.871666666666666,2024-06-05,596050.503711968,5332194.8232737575,17,N,13:37:43.700,48.13575371,-79.7089797,54540.056,1,-2752,-19747,32935,-0.202,-1.615,-1.301,0.09353,-0.44707,0.86145,35.742,180.6,I,,,,,,,,,,,,,,,,,,,,,,,,,,,,,,,,,,,,,,,,,,,,,,2,0.2035686274509804,0.4790196078431372,0.6096470588235293,1.0,10.0,0,0
1328977,13:37:40.200000,13.813333333333333,2024-06-05,596050.7109797236,5332222.424156545,17,N,13:37:40.200,48.13600194,-79.70897069,54537.34845,1,-1776,-19825,32920,-2.086,-2.952,-5.218,0.10773,-0.5149,0.80817,35.758,180.3,I,,,,,,,,,,,,,,,,,,,,,,,,,,,,,,,,,,,,,,,,,,,,,,2,0.19687581699346404,0.474313725490196,0.610797385620915,1.0,10.0,0,0
1325477,13:37:36.700000,13.754999999999999,2024-06-05,596050.4750019681,5332250.0075954115,17,N,13:37:36.700,48.13625008,-79.70896764,54536.64205,1,-2334,-19868,32890,4.458,1.403,-4.909,0.10977,-0.57552,0.87117,35.767,179.4,I,,,,,,,,,,,,,,,,,,,,,,,,,,,,,,,,,,,,,,,,,,,,,,2,0.19018300653594772,0.4696078431372549,0.6119477124183006,1.0,10.0,0,0
1321977,13:37:33.200000,13.696666666666665,2024-06-05,596050.2743561361,5332278.012988411,17,N,13:37:33.200,48.13650201,-79.70896402,54541.8195,1,-3104,-21266,32520,3.664,-2.238,-5.172,0.11883,-0.56399,0.87898,35.839,180.9,I,,,,,,,,,,,,,,,,,,,,,,,,,,,,,,,,,,,,,,,,,,,,,,2,0.2035686274509804,0.4790196078431372,0.6096470588235293,1.0,10.0,0,0
1318477,13:37:29.700000,13.638333333333332,2024-06-05,596050.4620698864,5332306.068259839,17,N,13:37:29.700,48.13675433,-79.70895517,54550.32905,1,-1384,-22671,32357,-12.969,-3.639,4.096,0.06835,-0.4945,0.76127,35.805,180.9,I,,,,,,,,,,,,,,,,,,,,,,,,,,,,,,,,,,,,,,,,,,,,,,2,0.2236470588235294,0.49313725490196075,0.6061960784313726,1.0,10.0,0,0
1314977,13:37:26.200000,13.58,2024-06-05,596050.8049773619,5332333.87710148,17,N,13:37:26.200,48.13700441,-79.70894429,54558.57025,1,-586,-22006,32604,5.023,-0.517,-1.4,0.10081,-0.51741,0.80178,35.824,180.9,I,,,,,,,,,,,,,,,,,,,,,,,,,,,,,,,,,,,,,,,,,,,,,,2,0.24372549019607845,0.5072549019607843,0.6027450980392157,1.0,10.0,0,0
1311477,13:37:22.700000,13.521666666666667,2024-06-05,596050.7755884922,5332361.919837575,17,N,13:37:22.700,48.13725665,-79.70893836,54580.512,1,-1525,-24509,31966,2.679,0.97,11.643,0.09078,-0.56515,0.74865,35.85,183.0,I,,,,,,,,,,,,,,,,,,,,,,,,,,,,,,,,,,,,,,,,,,,,,,2,0.29057516339869277,0.5401960784313725,0.5946928104575163,1.0,10.0,0,0
1307977,13:37:19.200000,13.463333333333333,2024-06-05,596050.5572153719,5332389.516919367,17,N,13:37:19.200,48.13750491,-79.70893507,54585.26595,1,-1856,-21313,32679,3.137,2.317,-3.757,0.04875,-0.5035,0.81753,35.863,180.2,I,,,,,,,,,,,,,,,,,,,,,,,,,,,,,,,,,,,,,,,,,,,,,,2,0.30396078431372553,0.5496078431372549,0.592392156862745,1.0,10.0,0,0
1304477,13:37:15.700000,13.405,2024-06-05,596050.5897396675,5332417.372808436,17,N,13:37:15.700,48.13775546,-79.70892835,54587.1544,1,-1876,-20728,32777,5.178,-1.805,-14.909,0.05824,-0.50011,0.87406,35.845,181.0,I,,,,,,,,,,,,,,,,,,,,,,,,,,,,,,,,,,,,,,,,,,,,,,2,0.3106535947712418,0.5543137254901961,0.5912418300653595,1.0,10.0,0,0
1300977,13:37:12.200000,13.346666666666666,2024-06-05,596050.593259428,5332444.916916951,17,N,13:37:12.200,48.13800321,-79.70892209,54575.2249,1,-2638,-18063,33221,5.284,3.686,-4.912,0.06549,-0.45738,0.84184,35.928,181.5,I,,,,,,,,,,,,,,,,,,,,,,,,,,,,,,,,,,,,,,,,,,,,,,2,0.2771895424836601,0.5307843137254902,0.5969934640522876,1.0,10.0,0,0
1297477,13:37:08.700000,13.288333333333332,2024-06-05,596050.8315991802,5332472.790716191,17,N,13:37:08.700,48.13825389,-79.7089126,54585.791,1,-1591,-19777,33096,1.311,3.467,-0.549,0.07136,-0.53701,0.86451,35.889,181.5,I,,,,,,,,,,,,,,,,,,,,,,,,,,,,,,,,,,,,,,,,,,,,,,2,0.30396078431372553,0.5496078431372549,0.592392156862745,1.0,10.0,0,0
1293977,13:37:05.200000,13.229999999999999,2024-06-05,596050.8492636675,5332500.954319485,17,N,13:37:05.200,48.13850721,-79.70890601,54618.12085,1,-1240,-20550,32912,4.958,-0.698,-0.283,0.08177,-0.49837,0.86575,35.951,180.4,I,,,,,,,,,,,,,,,,,,,,,,,,,,,,,,,,,,,,,,,,,,,,,,2,0.37758169934640523,0.6013725490196079,0.5797385620915033,1.0,10.0,0,0
1290477,13:37:01.700000,13.171666666666665,2024-06-05,596050.7213906005,5332529.09880469,17,N,13:37:01.700,48.13876038,-79.70890138,54628.99895,1,-1701,-21253,32730,4.526,2.189,-0.007,0.12166,-0.52982,0.89632,35.927,179.2,I,,,,,,,,,,,,,,,,,,,,,,,,,,,,,,,,,,,,,,,,,,,,,,2,0.4043529411764706,0.6201960784313726,0.5751372549019608,1.0,10.0,0,0
1286977,13:36:58.200000,13.113333333333333,2024-06-05,596050.9553296054,5332557.100387425,17,N,13:36:58.200,48.13901221,-79.70889192,54613.73215,1,-1293,-21212,32758,11.505,2.659,-0.729,0.11596,-0.50667,0.87293,35.924,181.5,I,,,,,,,,,,,,,,,,,,,,,,,,,,,,,,,,,,,,,,,,,,,,,,2,0.3641960784313725,0.5919607843137255,0.5820392156862746,1.0,10.0,0,0
1283477,13:36:54.700000,13.055,2024-06-05,596050.8505408794,5332585.287509906,17,N,13:36:54.700,48.13926576,-79.70888697,54616.89485,1,-1341,-22482,32489,8.305,-0.915,4.449,0.10247,-0.46299,0.88619,35.961,182.0,I,,,,,,,,,,,,,,,,,,,,,,,,,,,,,,,,,,,,,,,,,,,,,,2,0.37758169934640523,0.6013725490196079,0.5797385620915033,1.0,10.0,0,0
1279977,13:36:51.200000,12.996666666666666,2024-06-05,596050.9755181187,5332612.908153374,17,N,13:36:51.200,48.13951418,-79.70887906,54622.0515,1,-756,-22094,32583,-2.118,2.002,1.123,0.10212,-0.49589,0.80225,35.99,180.8,I,,,,,,,,,,,,,,,,,,,,,,,,,,,,,,,,,,,,,,,,,,,,,,2,0.3842745098039215,0.606078431372549,0.5785882352941177,1.0,10.0,0,0
1276477,13:36:47.700000,12.938333333333333,2024-06-05,596050.8073633334,5332640.569460156,17,N,13:36:47.700,48.13976301,-79.70887508,54625.40985,1,-1261,-22066,32589,5.32,2.66,-3.469,0.10915,-0.50107,0.82536,35.998,180.8,I,,,,,,,,,,,,,,,,,,,,,,,,,,,,,,,,,,,,,,,,,,,,,,2,0.3909673202614379,0.6107843137254901,0.577437908496732,1.0,10.0,0,0
1272977,13:36:44.200000,12.879999999999999,2024-06-05,596050.53107727,5332668.554701195,17,N,13:36:44.200,48.14001477,-79.70887248,54642.93905,1,-2324,-24416,31907,1.228,-2.198,5.87,0.09426,-0.55317,0.78741,36.028,180.6,I,,,,,,,,,,,,,,,,,,,,,,,,,,,,,,,,,,,,,,,,,,,,,,2,0.43112418300653604,0.6390196078431373,0.5705359477124182,1.0,10.0,0,0
1269477,13:36:40.700000,12.821666666666665,2024-06-05,596050.6436265794,5332696.24962835,17,N,13:36:40.700,48.14026386,-79.70886472,54659.9718,1,-1756,-21883,32628,-5.693,-1.517,4.712,0.0786,-0.49784,0.82129,35.984,181.3,I,,,,,,,,,,,,,,,,,,,,,,,,,,,,,,,,,,,,,,,,,,,,,,2,0.47128104575163404,0.6672549019607843,0.5636339869281046,1.0,10.0,0,0
1265977,13:36:37.200000,12.763333333333332,2024-06-05,596050.8253906632,5332724.608332659,17,N,13:36:37.200,48.14051891,-79.70885588,54689.701,1,-441,-23163,32423,2.213,-3.593,-0.634,0.0697,-0.55424,0.8116,36.02,181.0,I,,,,,,,,,,,,,,,,,,,,,,,,,,,,,,,,,,,,,,,,,,,,,,2,0.5382091503267975,0.7143137254901961,0.5521307189542484,1.0,10.0,0,0
1262477,13:36:33.700000,12.705,2024-06-05,596050.6480961945,5332752.3695502,17,N,13:36:33.700,48.14076864,-79.708852,54704.39375,1,-1399,-22344,32566,3.593,3.031,-4.259,0.04943,-0.52434,0.83107,36.088,181.1,I,,,,,,,,,,,,,,,,,,,,,,,,,,,,,,,,,,,,,,,,,,,,,,2,0.5710980392156861,0.7371111111111112,0.5470196078431373,1.0,10.0,0,0
1258977,13:36:30.200000,12.646666666666667,2024-06-05,596050.8430501143,5332780.030287983,17,N,13:36:30.200,48.14101741,-79.70884314,54710.2541,1,-664,-21646,32791,2.478,-1.052,-6.054,0.08708,-0.49504,0.86138,36.068,180.4,I,,,,,,,,,,,,,,,,,,,,,,,,,,,,,,,,,,,,,,,,,,,,,,2,0.5798823529411764,0.7406666666666666,0.549843137254902,1.0,10.0,0,0
1255477,13:36:26.700000,12.588333333333333,2024-06-05,596050.6463093513,5332808.151394611,17,N,13:36:26.700,48.14127038,-79.70883944,54730.9835,1,-1591,-22969,32486,-0.463,-2.842,1.413,0.09052,-0.53419,0.80329,36.056,181.4,I,,,,,,,,,,,,,,,,,,,,,,,,,,,,,,,,,,,,,,,,,,,,,,2,0.6106274509803922,0.7531111111111112,0.5597254901960785,1.0,10.0,0,0
1251977,13:36:23.200000,12.53,2024-06-05,596050.7745595655,5332835.795450504,17,N,13:36:23.200,48.14151901,-79.70883148,54752.6972,1,-1808,-22960,32442,7.399,6.278,-3.151,0.08884,-0.62771,0.8267,36.117,181.2,I,,,,,,,,,,,,,,,,,,,,,,,,,,,,,,,,,,,,,,,,,,,,,,2,0.6457647058823529,0.7673333333333333,0.5710196078431373,1.0,10.0,0,0
1248477,13:36:19.700000,12.471666666666666,2024-06-05,596050.8766687576,5332864.198406888,17,N,13:36:19.700,48.14177447,-79.7088237,54760.94415,1,-149,-22582,32489,-2.348,-1.375,6.148,0.05708,-0.56199,0.78574,36.1,181.8,I,,,,,,,,,,,,,,,,,,,,,,,,,,,,,,,,,,,,,,,,,,,,,,2,0.6545490196078431,0.7708888888888888,0.573843137254902,1.0,10.0,0,0
1244977,13:36:16.200000,12.413333333333332,2024-06-05,596050.6045056211,5332891.53667781,17,N,13:36:16.200,48.14202041,-79.70882119,54756.9339,1,-2155,-19312,33292,3.037,-3.023,-7.103,0.02657,-0.45493,0.77529,36.119,180.9,I,,,,,,,,,,,,,,,,,,,,,,,,,,,,,,,,,,,,,,,,,,,,,,2,0.6501568627450979,0.7691111111111111,0.5724313725490197,1.0,10.0,0,0
1241477,13:36:12.700000,12.354999999999999,2024-06-05,596050.6068571565,5332918.745034249,17,N,13:36:12.700,48.14226514,-79.70881502,54745.12635,1,-1580,-17026,33577,5.744,1.0,8.455,0.10184,-0.51674,0.88627,36.098,181.8,I,,,,,,,,,,,,,,,,,,,,,,,,,,,,,,,,,,,,,,,,,,,,,,2,0.6325882352941177,0.762,0.5667843137254902,1.0,10.0,0,0
1237977,13:36:09.200000,12.296666666666665,2024-06-05,596050.7485928708,5332946.514951555,17,N,13:36:09.200,48.1425149,-79.70880685,54737.9146,1,-1257,-17745,33467,-0.232,-2.49,-10.383,0.06772,-0.44308,0.8411,36.159,182.2,I,,,,,,,,,,,,,,,,,,,,,,,,,,,,,,,,,,,,,,,,,,,,,,2,0.6238039215686274,0.7584444444444445,0.5639607843137255,1.0,10.0,0,0
1234477,13:36:05.700000,12.238333333333333,2024-06-05,596050.754668245,5332974.076915522,17,N,13:36:05.700,48.14276281,-79.70880055,54734.05105,1,-1707,-18152,33403,-8.986,0.015,-1.451,0.06409,-0.51737,0.87493,36.178,181.1,I,,,,,,,,,,,,,,,,,,,,,,,,,,,,,,,,,,,,,,,,,,,,,,2,0.6150196078431371,0.7548888888888888,0.5611372549019608,1.0,10.0,0,0
1230977,13:36:02.200000,12.18,2024-06-05,596050.5183276295,5333002.6487444015,17,N,13:36:02.200,48.14301984,-79.70879728,54738.19185,1,-2165,-21049,32788,14.594,-1.245,1.874,0.11737,-0.51757,0.89649,36.191,180.7,I,,,,,,,,,,,,,,,,,,,,,,,,,,,,,,,,,,,,,,,,,,,,,,2,0.6238039215686274,0.7584444444444445,0.5639607843137255,1.0,10.0,0,0
1227477,13:35:58.700000,12.121666666666666,2024-06-05,596050.7620269788,5333029.751092452,17,N,13:35:58.700,48.14326358,-79.70878789,54727.9801,1,-2140,-18990,33258,3.209,1.143,-5.716,0.08381,-0.51706,0.83674,36.154,180.0,I,,,,,,,,,,,,,,,,,,,,,,,,,,,,,,,,,,,,,,,,,,,,,,2,0.6062352941176471,0.7513333333333333,0.5583137254901961,1.0,10.0,0,0
1223977,13:35:55.200000,12.063333333333333,2024-06-05,596050.811974556,5333058.244347458,17,N,13:35:55.200,48.14351986,-79.70878079,54722.0245,1,-1465,-20581,32934,-1.845,-3.107,-4.24,0.0584,-0.53421,0.81118,36.188,183.3,I,,,,,,,,,,,,,,,,,,,,,,,,,,,,,,,,,,,,,,,,,,,,,,2,0.5974509803921568,0.7477777777777778,0.5554901960784314,1.0,10.0,0,0
1220477,13:35:51.700000,12.004999999999999,2024-06-05,596050.4864119616,5333085.791854789,17,N,13:35:51.700,48.14376769,-79.70877895,54713.3711,1,-1990,-19930,33133,-11.981,-7.204,3.204,0.11991,-0.48427,0.79326,36.264,179.9,I,,,,,,,,,,,,,,,,,,,,,,,,,,,,,,,,,,,,,,,,,,,,,,2,0.5842745098039215,0.7424444444444445,0.5512549019607843,1.0,10.0,0,0
1216977,13:35:48.200000,11.946666666666665,2024-06-05,596050.7820799669,5333113.963489305,17,N,13:35:48.200,48.14402104,-79.70876862,54702.98515,1,-894,-19395,33249,-0.223,3.636,-3.246,0.08409,-0.43522,0.90744,36.247,179.7,I,,,,,,,,,,,,,,,,,,,,,,,,,,,,,,,,,,,,,,,,,,,,,,2,0.5710980392156861,0.7371111111111112,0.5470196078431373,1.0,10.0,0,0
1213477,13:35:44.700000,11.888333333333332,2024-06-05,596050.6422642387,5333141.881001336,17,N,13:35:44.700,48.14427217,-79.7087642,54705.03915,1,-1777,-20883,32858,-4.83,-2.591,-7.741,0.10747,-0.50147,0.85254,36.263,182.8,I,,,,,,,,,,,,,,,,,,,,,,,,,,,,,,,,,,,,,,,,,,,,,,2,0.5710980392156861,0.7371111111111112,0.5470196078431373,1.0,10.0,0,0
1209977,13:35:41.200000,11.83,2024-06-05,596050.720163821,5333169.549798151,17,N,13:35:41.200,48.14452103,-79.70875691,54700.81655,1,-2007,-17002,33581,5.428,-1.422,-1.122,0.07105,-0.46526,0.87086,36.26,183.4,I,,,,,,,,,,,,,,,,,,,,,,,,,,,,,,,,,,,,,,,,,,,,,,2,0.5649803921568627,0.7331372549019607,0.5475294117647059,1.0,10.0,0,0
1206477,13:35:37.700000,11.771666666666667,2024-06-05,596051.0015984322,5333197.415461241,17,N,13:35:37.700,48.14477163,-79.70874684,54716.57365,1,-80,-19839,33208,7.694,2.157,-6.216,0.00084,-0.526,0.89447,36.271,181.1,I,,,,,,,,,,,,,,,,,,,,,,,,,,,,,,,,,,,,,,,,,,,,,,2,0.5886666666666667,0.7442222222222222,0.5526666666666668,1.0,10.0,0,0
1202977,13:35:34.200000,11.713333333333333,2024-06-05,596050.4860794656,5333225.4623053,17,N,13:35:34.200,48.14502398,-79.70874744,54741.3704,1,-2930,-18904,33272,2.905,2.296,1.862,0.09764,-0.47733,0.85427,36.287,177.7,I,,,,,,,,,,,,,,,,,,,,,,,,,,,,,,,,,,,,,,,,,,,,,,2,0.6281960784313725,0.7602222222222222,0.5653725490196079,1.0,10.0,0,0
1199477,13:35:30.700000,11.655,2024-06-05,596050.7391301579,5333253.51093643,17,N,13:35:30.700,48.14527623,-79.70873771,54775.21975,1,-1905,-19457,33337,1.687,-4.192,6.92,0.12373,-0.47622,0.8739,36.307,181.3,I,,,,,,,,,,,,,,,,,,,,,,,,,,,,,,,,,,,,,,,,,,,,,,2,0.6765098039215686,0.7797777777777778,0.5809019607843138,1.0,10.0,0,0
1195977,13:35:27.200000,11.596666666666666,2024-06-05,596050.5914499528,5333281.230427821,17,N,13:35:27.200,48.14552558,-79.70873344,54827.1201,1,-3100,-18087,33412,-5.911,0.726,-1.328,0.10848,-0.41874,0.89864,36.311,181.4,I,,,,,,,,,,,,,,,,,,,,,,,,,,,,,,,,,,,,,,,,,,,,,,2,0.7555686274509803,0.8117777777777777,0.606313725490196,1.0,10.0,0,0
1192477,13:35:23.700000,11.538333333333332,2024-06-05,596050.6155455688,5333309.708807729,17,N,13:35:23.700,48.14578173,-79.70872669,54917.9771,1,-2082,-20884,33039,8.525,3.25,-4.477,0.07889,-0.45637,0.87993,36.314,182.8,I,,,,,,,,,,,,,,,,,,,,,,,,,,,,,,,,,,,,,,,,,,,,,,2,0.8491111111111111,0.814,0.5948888888888889,1.0,10.0,0,0
1188977,13:35:20.200000,11.479999999999999,2024-06-05,596050.7206541792,5333337.261333346,17,N,13:35:20.200,48.14602954,-79.70871906,55023.6671,1,-1298,-20524,33340,0.545,0.7,-1.259,0.09611,-0.43421,0.87673,36.422,180.6,I,,,,,,,,,,,,,,,,,,,,,,,,,,,,,,,,,,,,,,,,,,,,,,2,0.8453464052287581,0.6615294117647058,0.41794771241830064,1.0,10.0,0,0
1185477,13:35:16.700000,11.421666666666665,2024-06-05,596050.5277570208,5333364.881121856,17,N,13:35:16.700,48.146278,-79.70871542,55126.6065,1,-2650,-19360,33509,-5.242,-1.503,-5.877,0.06529,-0.38024,0.87747,36.383,182.8,I,,,,,,,,,,,,,,,,,,,,,,,,,,,,,,,,,,,,,,,,,,,,,,2,0.8120392156862745,0.45729411764705885,0.26650980392156864,1.0,10.0,0,0
1181977,13:35:13.200000,11.363333333333333,2024-06-05,596050.6115332763,5333393.526161431,17,N,13:35:13.200,48.14653564,-79.70870783,55182.4333,1,-974,-23067,32766,3.263,0.328,5.32,0.06919,-0.46553,0.86729,36.388,179.7,I,,,,,,,,,,,,,,,,,,,,,,,,,,,,,,,,,,,,,,,,,,,,,,2,0.7742875816993464,0.30926797385620913,0.1979607843137255,1.0,10.0,0,0
